     4.01           OBSERVATION DATA    M                   RINEX VERSION / TYPE
GnssLogger          samsung 15          20250929 131928 UTC PGM / RUN BY / DATE
Google GnssLogger                                           MARKER NAME
Unknown                                                     MARKER NUMBER
Unknown             Unknown                                 OBSERVER / AGENCY
Unknown             GnssLogger          v3.1.0.3            REC # / TYPE / VERS
Unknown             Unknown                                 ANT # / TYPE
        0.0000        0.0000        0.0000                  ANTENNA: DELTA H/E/N
G    8 C1C L1C D1C S1C C5Q L5Q D5Q S5Q                      SYS / # / OBS TYPES
R    4 C1C L1C D1C S1C                                      SYS / # / OBS TYPES
C    8 C2I L2I D2I S2I C5P L5P D5P S5P                      SYS / # / OBS TYPES
E    8 C1C L1C D1C S1C C5Q L5Q D5Q S5Q                      SYS / # / OBS TYPES
  2025    09    29    13    19   28.0000000     GPS         TIME OF FIRST OBS
 6 R01  1 R07  5 R08  6 R10 -7 R11  0 R12 -1                GLONASS SLOT / FRQ #
samsung SM-S711B (Android 15) HW Year: 2021 HW Model:       COMMENT
S.LSI,K040,SPOTNAV_4.6.2_7_E23                              COMMENT
                                                            END OF HEADER
> 2025 09 29 13 19 28.9999999  0 25                      
G07  22417659.77717     26452.87217     -2800.94717        45.90017                                                                
G22  20791246.42017    151702.37217       278.65817        45.20017                                                                
G30  21000163.38907     66917.40007     -1898.82607        43.70007  21000176.28016     56184.84216     -1417.74516        39.30016
G14  20252222.87806    122020.52706      -626.49606        40.60006  20252237.86716     98765.54216      -469.70016        36.30016
G13  22294740.97216    166840.38016      1377.84416        39.60016                                                                
G05  22280287.67825    106837.65925     -1312.22125        33.20025                                                                
G09  23146257.08024     36505.48524     -4468.29124        23.80024                                                                
G21  21511207.60106    793902.52106     -2992.13406        36.10006  21511216.59525   1348054.92625     -2233.93725        32.60025
E30  25580323.01107    723623.58807     -3620.62807        45.30007  25580337.40126    898659.59826     -2705.36026        38.50026
E27  23522695.97607    760931.16507     -1236.44107        43.60007  23522714.56425    889025.30125      -927.09325        31.00025
C21  22323556.72307     67120.40007     -3033.89007        42.90007  22323569.61425    688500.05425     -2291.84725        31.90025
E07  24303106.11007    740947.83707     -2521.01007        42.20007  24303125.59624   1320252.18924     -1897.65724        29.00024
C26  22060313.76306    100060.57406     -1130.29906        41.40006  22060318.25925    708142.91625      -852.65725        34.60025
R08  19240453.61106-103052237.45606     -2226.09306        40.70006
R11  19613375.34306-104828369.64206     -1286.14706        40.40006
E29  23826121.91916    777015.46416      -205.96416        39.10016  23826142.90425    710543.96025      -152.10725        31.10025
R10  20994358.80806-111932135.21306     -4389.65706        36.20006
C09  39219387.48325     91392.10425     -1517.29225        34.50025                                                                
R01  20773263.96925-111065447.92925      1679.48125        33.30025
C14  24497365.32726    943042.90626      1182.77426        35.50026                                                                
R12  22914505.81826-122425608.77426      1609.71526        40.60026
E21  25739989.47625   1928882.92425      1079.19625        33.70025  25739849.17315    965002.85415       804.98715        30.70015
R07  22157838.04825-118633116.49925     -5287.65725        31.80025
C10  38629687.32424   1100914.44124      -513.97824        25.50024                                                                
E19  26360417.46323   1186064.76223       968.88523        22.10023                                                                
> 2025 09 29 13 19 29.9999998  0 26                      
G07  22417866.63407     23651.25007     -2803.82607        45.80007                                                                
G22  20790871.07907    151978.43707       272.54507        44.90007                                                                
G30  21000199.36407     65017.36107     -1902.56407        43.60007  21000213.45506     54766.19406     -1420.50506        39.60006
G14  20252026.51406    121391.66806      -632.09906        40.60006  20252036.10706     98295.89106      -472.00606        36.00006
G13  22294152.77906    168220.65706      1378.90906        39.50006                                                                
G21  21511449.83306    790909.15206     -2996.36406        36.00006  21511463.92325   1345820.64825     -2236.14925        32.50025
G05  22280198.34025    105526.17325     -1313.13625        33.20025                                                                
G17  23724577.41725    171861.49825      1525.57125        33.60025                                                                
G09  23146772.12324     32035.96824     -4472.94124        23.60024                                                                
E30  25580691.15607    720002.25507     -3623.60307        45.30007  25580704.04716    895955.34016     -2705.34516        38.50016
C21  22323821.74007     64083.87007     -3040.08507        43.30007  22323831.33325    686211.54125     -2289.44325        31.60025
E27  23522615.03207    759692.00907     -1242.48907        43.50007  23522627.32425    888093.47625      -936.95825        30.80025
E07  24303263.20107    738424.97607     -2526.10307        42.10007  24303288.68324   1318352.42124     -1903.88824        28.50024
C26  22060208.83506     98928.00806     -1135.49106        41.30006  22060209.73525    707289.10125      -855.97625        33.40025
R08  19240539.95106-103054428.79306     -2232.23106        40.60006
E29  23825831.12016    776809.08316      -208.81416        39.10016  23825862.29925    710388.17225      -158.49725        30.80025
R11  19613286.90426-104829623.56926     -1293.42426        40.10026
R10  20994845.37106-111936450.63506     -4393.15206        36.30006
C09  39219357.50425     89876.16525     -1517.32625        34.40025                                                                
R01  20772649.39415-111063887.60515      1670.30715        33.20015
R12  22913876.55326-122423971.58026      1615.62726        39.20026
C14  24496792.42325    944227.77025      1182.99025        35.00025                                                                
C10  38629469.37524   1100403.11824      -512.55324        25.90024                                                                
R07  22158503.28725-118638406.02825     -5279.05425        31.00025
E19  26359930.60023   1187029.71723       961.20923        22.10023                                                                
E21                                                                  25739326.03505    965807.25205       802.26005        30.70005
> 2025 09 29 13 19 31.0000000  0 26                      
G07  22418187.41207     20844.91907     -2808.68307        45.60007                                                                
G22  20790614.75707    152249.56307       268.65607        44.60007                                                                
G30  21000348.66107     63112.26107     -1906.87807        43.50007  21000362.15206     53343.87406     -1424.15406        39.40006
G14  20251930.88006    120757.59006      -636.68706        40.80006  20251939.57406     97822.37506      -475.44806        35.70006
G13  22293671.61206    169595.98706      1372.85606        39.40006                                                                
G21  21511801.79006    787910.48506     -3001.31206        35.90006  21511818.87825   1343582.36125     -2240.28925        32.20025
G05  22280252.90225    104207.61525     -1322.09325        33.10025                                                                
G17  23724098.94825    173390.14925      1528.64925        32.40025                                                                
G09  23147404.38524     27561.12824     -4477.49624        23.50024                                                                
E30  25581166.02707    716376.00707     -3628.70207        45.20007  25581178.91806    893247.39506     -2709.78706        40.90006
C21  22324187.78607     61042.35207     -3044.01007        43.80007  22324201.57725    683920.38525     -2292.47525        31.20025
E27  23522633.02007    758448.00707     -1246.42407        43.40007  23522656.70425    887161.78825      -931.61825        30.50025
E07  24303535.41307    735897.28007     -2530.11107        42.00007  24303562.69424   1316468.61524     -1875.82424        28.00024
C26  22060202.83906     97790.70906     -1139.66306        41.20006  22060212.43325    706431.32225      -859.75925        32.10025
R08  19240739.61306-103056649.25106     -2236.92706        40.50006
R11  19613319.58116-104830947.07716     -1295.01516        39.90016
R10  20995468.34006-111940916.31706     -4398.20206        36.40006
C09  39219432.15225     88357.44125     -1520.11425        34.20025                                                                
R01  20772100.47425-111062103.17825      1667.74125        33.20025
R12  22913363.90816-122422381.78016      1605.90916        38.20016
E21  25738890.43725   2416631.09225      1075.17825        30.50025  25738904.82705    966608.09605       799.06605        31.60005
E29  23825647.94726    776597.76126      -213.79226        38.50026  23825683.92225    710226.29725      -164.91825        30.50025
R07  22159310.32925-118643877.85425     -5285.78025        30.30025
C14  24496334.94025    945410.46325      1181.60625        34.00025                                                                
C10  38629354.25524   1099889.20424      -515.20924        26.40024                                                                
E19  26359526.77923   1187989.00923       956.46023        22.00023                                                                
> 2025 09 29 13 19 31.9999999  0 26                      
G07  22418416.45307     18035.28607     -2811.28107        45.40007                                                                
G22  20790261.90107    152516.83507       265.34407        44.40007                                                                
G30  21000406.22107     61204.11007     -1909.92607        43.40007  21000419.71206     51918.98306     -1426.17606        40.40006
G14  20251742.91006    120119.73306      -639.74506        40.90006  20251757.00006     97346.10806      -477.64206        35.60006
G13  22293103.80506    170968.11306      1370.52206        39.40006                                                                
G05  22280205.23525    102885.66225     -1323.65025        33.00025                                                                
G17  23723491.56925    174922.37625      1534.01425        31.30025                                                                
G09  23147966.79623     23085.30223     -4476.31623        23.40023                                                                
G21  21512068.00516    784908.00816     -3004.38016        35.70016  21512085.39325   1341341.01725     -2242.87225        32.10025
E30  25581551.26107    712746.23307     -3631.53407        45.60007  25581565.95006    890536.84306     -2711.85306        40.60006
C21  22324469.29207     57997.10407     -3047.11007        44.10007  22324481.88325    681625.54725     -2296.67825        31.10025
E27  23522566.76607    757200.14807     -1249.78507        43.30007  23522592.24825    886224.05425      -940.75725        30.10025
E07  24303712.89007    733366.06807     -2532.96807        41.90007  24303715.88824   1314586.67024     -1881.01324        27.10024
R08  19240848.73806-103058865.11006     -2240.30806        40.50006
C26  22060109.90406     96649.71306     -1142.84506        41.00006  22060127.89125    705571.40725      -860.98325        31.00025
R11  19613256.62506-104832236.94406     -1299.43306        39.70006
R10  20995989.67906-111945318.69106     -4400.97606        36.60006
C09  39219434.85015     86832.71915     -1527.72015        34.10015                                                                
R12  22912762.52526-122420797.32826      1603.84826        37.20026
E21  25738385.88625   2417700.09825      1069.00525        31.00025  25738396.97905    967406.33705       796.93805        32.60005
E29  23825377.83426    776381.51226      -218.71226        37.40026  23825417.70725    710064.52625      -161.71925        30.10025
R07  22159989.05925-118649141.34625     -5295.17625        29.90025
C10  38629150.09624   1099371.23924      -519.99124        27.00024                                                                
C14  24495824.09425    946596.29825      1187.40425        32.80025                                                                
C22  25456513.22323   2446104.75623     -4769.03523        22.90023                                                                
E19  26359034.52023   1188947.78023       958.50923        21.90023                                                                
> 2025 09 29 13 19 33.0000000  0 26                      
G07  22418717.44507     15220.50807     -2817.34807        45.20007                                                                
G22  20789962.40907    152778.31207       258.58107        44.20007                                                                
G30  21000524.04007     59290.77107     -1915.93107        43.30007  21000539.92906     50490.28306     -1430.60306        40.20006
G13  22292601.35306    172334.87406      1364.07906        39.40006                                                                
G21  21512386.08506    781899.77606     -3011.10606        35.60006  21512414.26615   1339094.85315     -2248.57115        32.10015
G05  22280212.43025    101554.73525     -1335.41325        32.90025                                                                
G17  23722999.30925    176451.12025      1527.00125        30.50025                                                                
G09  23148569.37923     18604.50223     -4483.28223        23.30023                                                                
G14  20251622.99306    119476.17706      -646.40506        41.10006  20251634.98505     96865.45705      -482.84305        35.40005
E30  25582001.24907    709111.17407     -3637.69907        45.80007  25582012.34106    887822.38306     -2716.41106        40.60006
C21  22324802.36107     54946.13607     -3053.82507        44.20007  22324822.14725    679324.96625     -2303.44925        31.10025
E27  23522557.47207    755946.79307     -1256.10307        43.10007  23522587.15225    885282.82825      -942.97125        29.80025
E07  24303947.32707    730829.52007     -2539.21407        41.80007  24303970.11224   1312700.44624     -1888.36224        26.70024
R08  19241031.91106-103061157.59006     -2247.31206        40.40006
C26  22060075.12806     95503.26306     -1149.17406        40.80006  22060101.21025    704705.34925      -869.12825        30.20025
R11  19613257.52406-104833550.51406     -1306.37606        39.60006
R10  20996567.37906-111949705.05106     -4407.52306        36.70006
C09  39219486.71425     85303.01725     -1532.19125        33.90025                                                                
E21  25737939.49525   2418762.66925      1059.35325        31.50025  25737950.28805    968200.41305       791.99405        32.60005
R12  22912259.47326-122419418.48826      1592.54626        36.30026
E29  23825147.29426    776158.73826      -226.03726        36.30026  23825213.24825    709892.77025      -176.74925        29.60025
R07  22160723.85025-118654384.92325     -5300.14625        29.70025
C10  38629000.79924   1098846.55824      -528.03824        27.60024                                                                
C14  24495371.40725    947770.76125      1168.77625        31.90025                                                                
R01  20770972.95524-111059013.13324      1650.53624        28.80024
E19  26358621.10623   1189901.21023       950.75823        21.80023                                                                
> 2025 09 29 13 19 33.9999999  0 26                      
G07  22418938.99107     12398.12007     -2826.19107        45.00007                                                                
G30  21000587.59607     57369.76707     -1924.83407        43.20007  21000601.08606     49055.81206     -1437.35506        40.10006
G22  20789591.56507    153031.44707       248.96307        44.00007                                                                
G14  20251443.11806    118824.44306      -655.82306        41.30006  20251454.21006     96378.78606      -489.68106        39.10006
G13  22292032.34706    173694.19706      1355.60206        39.40006                                                                
G21  21512657.69705    778883.17905     -3020.77805        35.40005  21512684.07905   1336842.37805     -2255.62905        32.00005
G05  22280172.55725    100216.74025     -1341.52725        32.80025                                                                
G17  23722392.82925    177968.38225      1511.52025        30.00025                                                                
G09  23149129.09123     14115.22323     -4493.51523        23.30023                                                                
E30  25582381.08607    705468.40607     -3646.61807        45.80007  25582394.87706    885102.17006     -2723.08706        39.80006
C21  22325089.26207     51887.10007     -3063.06707        44.20007  22325103.65225    677020.46625     -2306.45925        31.10025
E27  23522500.21207    754685.38807     -1265.42807        43.00007  23522499.61224    884332.57524      -954.76624        29.00024
E07  24304117.90907    728285.23807     -2548.14607        41.70007  24304148.48824   1310807.79224     -1895.86724        26.30024
C26  22060008.87406     94349.21506     -1157.84606        40.60006  22060019.66625    703837.05825      -869.40725        29.80025
R08  19241150.02906-103063420.19306     -2257.40506        40.30006
R11  19613194.26806-104834841.14806     -1315.30106        39.60006
R10  20997086.32006-111954094.46506     -4416.25806        36.70006
E21  25737421.45425   2419818.73225      1052.80725        32.40025  25737441.24005    968988.58205       785.21505        33.00005
C09  39219484.91615     83766.00415     -1540.66815        33.80015                                                                
R12  22911591.83526-122417478.62526      1587.13426        35.50026
E29  23824932.04325    775932.78625      -227.54025        35.30025  23824955.42724    709726.46024      -163.58624        29.30024
R07  22161402.58025-118659649.94625     -5306.25625        29.60025
C10  38628778.95324   1098314.38424      -535.92024        27.90024                                                                
C14  24494847.07025    948933.61125      1157.04225        31.30025                                                                
R01  20770309.51424-111057094.85324      1652.14424        28.40024
E19  26358139.04023   1190845.46023       939.66023        21.70023                                                                
> 2025 09 29 13 19 35.0000001  0 27                      
G07  22419261.56807      9566.76607     -2835.83407        44.80007                                                                
G30  21000740.79007     55440.53307     -1933.34707        43.40007  21000752.18206     47615.03306     -1443.93106        40.40006
G22  20789348.43407    153276.05507       240.34407        43.80007                                                                
G13  22291564.97106    175045.18006      1346.81106        39.40006                                                                
G21  21513017.14825    775857.54725     -3030.14625        35.30025  21513038.13405   1334583.50905     -2262.06305        31.60005
G05  22280207.33325     98871.55625     -1348.77725        32.70025                                                                
G17  23721860.69825    179478.14025      1506.00425        29.80025                                                                
G09  23149773.04623      9619.11023     -4499.52623        23.30023                                                                
G08  24305014.58923   2331443.02323     -3285.13623        17.60023                                                                
G14  20251342.08806    118163.71106      -665.23006        41.30006  20251363.07306     95885.46006      -496.65206        38.20006
E30  25582861.05407    701816.81807     -3655.99507        45.80007  25582879.94106    882375.39506     -2730.05406        39.70006
C21  22325465.50207     48819.10107     -3072.47707        44.20007  22325477.19425    674708.70125     -2315.39525        30.20025
E27  23522519.99807    753415.14407     -1274.66207        42.80007  23522538.28624    883381.34524      -951.71724        28.80024
C26  22060017.56806     93187.11806     -1166.12106        40.60006  22060030.75825    702966.38225      -871.86825        29.50025
E07  24304387.72227    725730.86227     -2559.42227        41.60027  24304414.40424   1308898.30124     -1917.90824        26.20024
R11  19613231.14306-104836185.30306     -1324.15606        39.70006
R08  19241357.48506-103065680.49706     -2267.20106        40.20006
R10  20997696.39706-111958490.74406     -4425.29506        36.70006
E21  25737035.62115   2420865.44115      1042.78115        33.40015  25737026.92705    969770.29805       778.48905        32.60005
C09  39219555.36725     82219.90725     -1550.63725        33.60025                                                                
E29  23824776.15125    775696.09225      -242.06425        34.70025  23824785.44424    709551.76824      -178.88324        29.00024
R12  22911089.08325-122415940.03625      1580.40225        34.80025
R07  22162146.96525-118664782.46425     -5316.80425        29.60025
C10  38628668.03024   1097775.68624      -541.95924        28.90024                                                                
R01  20769781.57924-111055420.56924      1640.75224        28.50024
C14  24494398.88125    950090.86125      1154.45025        30.80025                                                                
E19  26357742.11523   1191779.27123       928.59023        21.60023                                                                
> 2025 09 29 13 19 36.0000000  0 27                      
G07  22419506.49907      6727.88007     -2842.64807        44.60007                                                                
G30  21000803.44607     53503.01407     -1941.66007        43.50007  21000816.33706     46167.94606     -1450.24106        39.90006
G22  20788994.97807    153510.69707       229.65807        43.60007                                                                
G14  20251174.50406    117494.25406      -673.81806        41.20006  20251186.49506     95385.06506      -503.93106        37.70006
G13  22291004.95806    176387.54106      1338.04906        39.30006                                                                
G21  21513297.45415    772822.82115     -3039.27015        35.10015  21513313.64315   1332317.25815     -2269.94015        31.60015
G05  22280159.96625     97516.17725     -1360.47525        32.70025                                                                
G17  23721249.72125    180977.49425      1494.15125        29.70025                                                                
G09  23150341.45223      5115.94023     -4506.69323        23.20023                                                                
G08  24305353.35423   2328151.45523     -3291.56523        18.00023                                                                
E30  25583267.27307    698156.35607     -3664.89607        45.70007  25583269.97106    879642.58206     -2735.82906        39.50006
C21  22325752.40307     45741.63107     -3082.20407        44.40007  22325757.50024    672397.06424     -2311.57024        29.40024
E27  23522463.03807    752135.74807     -1283.97207        42.70007  23522470.53324    882425.78924      -957.71924        28.40024
E29  23824506.33716    775452.18716      -248.26116        41.00016  23824531.82024    709365.60924      -191.89224        28.70024
E07  24304575.69226    723169.69326     -2564.56226        41.40026  24304596.07824   1306982.86224     -1918.41024        28.70024
R11  19613171.48406-104837495.81606     -1334.61806        40.10006
R08  19241475.30406-103067943.86606     -2277.30306        40.10006
R10  20998226.13106-111962938.88506     -4433.32506        36.60006
C09  39219533.78215     80666.67315     -1556.80115        33.50015                                                                
R12  22910463.11625-122414224.89025      1569.44125        34.30025
R07  22162858.07325-118670222.12025     -5328.08125        29.60025
C14  24493886.23525    951239.84625      1144.85025        30.40025                                                                
R01  20769178.99724-111053828.12424      1630.76724        28.50024
C10  38628436.59024   1097229.02524      -550.64124        28.90024                                                                
E19  26357251.05523   1192702.23523       917.54123        21.50023                                                                
C26  22059936.62407     92015.84807     -1175.85507        41.70007  22059948.91525    702085.27425      -886.32325        32.60025
E21  25736503.48905   2421903.57405      1032.84405        33.40005  25736526.27405    970544.66605       770.69305        31.90005
> 2025 09 29 13 19 36.9999999  0 27                      
G07  22419720.85007      3881.96107     -2849.43407        44.50007                                                                
G30  21000853.51207     51558.51207     -1947.99107        43.70007  21000864.30406     44715.89606     -1454.53006        39.90006
G22  20788626.53307    153738.15407       223.86507        43.40007                                                                
G13  22290434.15416    177723.56116      1332.84816        39.30016                                                                
G21  21513548.98005    769780.64505     -3045.14905        35.10005  21513571.16505   1330045.89205     -2273.92205        31.70005
G05  22280101.20715     96153.69315     -1366.03515        32.70015                                                                
G17  23720626.75225    182472.97325      1493.54025        29.70025                                                                
G09  23150853.79723       607.49323     -4511.08223        23.20023                                                                
G08  24305657.34423   2324847.78723     -3309.71423        18.80023                                                                
G14  20250982.33706    116817.61006      -680.23706        41.10006  20250992.23006     94879.43606      -508.24406        37.30006
E30  25583634.21907    694489.70307     -3669.74507        45.60007  25583645.91006    876904.43206     -2740.81506        39.40006
C21  22326016.82007     42657.59607     -3087.31507        44.50007  22326031.21024    670076.61524     -2324.85424        29.30024
E27  23522377.89707    750849.36107     -1289.88007        42.60007  23522396.18424    881465.21924      -963.07524        28.20024
C26  22059839.19107     90838.09407     -1180.99507        41.90007  22059852.98225    701198.50325      -889.60125        32.00025
R11  19613096.83606-104838821.61606     -1339.76806        40.60006
E07  24304734.28326    720600.34526     -2573.43626        41.30026  24304764.56224   1305064.09224     -1920.43524        28.20024
E29  23824241.02106    775199.81406      -255.60706        41.00006  23824250.31525    709176.07625      -191.22025        32.20025
R08  19241566.74106-103070163.55506     -2283.47906        40.00006
R10  20998763.05906-111967522.78506     -4439.36906        36.60006
E21  25735952.17105   2422934.53405      1028.37305        33.40005  25736007.33315    971314.02115       766.84715        31.40015
C09  39219510.09805     79106.66805     -1563.38805        33.40005                                                                
R12  22909856.63625-122412709.99025      1559.40225        33.80025
C14  24493329.52125    952382.50725      1139.49825        30.30025                                                                
R07  22163515.51725-118675469.52425     -5328.90125        29.60025
R01  20768553.92924-111052213.49424      1625.84024        28.90024
C10  38628200.95324   1096675.26324      -557.31324        28.90024                                                                
E19  26356792.37223   1193612.94323       904.57823        21.90023                                                                
> 2025 09 29 13 19 38.0000001  0 27                      
G30  21001007.90507     49607.02807     -1954.97307        43.80007  21001020.49606     43258.84306     -1459.55206        40.20006
G07  22420066.51107      1029.90007     -2855.12807        44.30007                                                                
G22  20788368.71207    153958.11507       216.21307        43.20007                                                                
G14  20250888.80106    116133.53706      -687.78706        41.10006  20250908.28806     94368.16006      -514.10006        37.10006
G13  22289962.58006    179052.94506      1326.06506        39.30006                                                                
G05  22280150.67325     94783.65025     -1373.82125        32.80025                                                                
G17  23720095.52025    183965.51025      1491.06325        29.70025                                                                
G09  23151492.35523     -3909.00223     -4520.51523        23.40023                                                                
G08  24306105.23323   2321531.57823     -3322.47723        18.80023                                                                
G21  21513916.82505    766731.33305     -3053.12705        35.00005  21513936.61215   1327768.87415     -2279.84115        31.70015
E30  25584114.48607    690816.18307     -3676.95007        45.50007  25584130.37506    874161.43706     -2745.41606        39.40006
C21  22326398.45607     39565.85007     -3095.59907        44.50007  22326414.34524    667747.07324     -2334.08524        29.30024
C26  22059857.77807     89653.58507     -1187.88707        42.10007  22059865.87325    700307.07225      -893.76125        31.40025
E27  23522417.76907    749555.70007     -1297.29707        42.50007  23522429.16124    880499.29524      -968.60124        28.10024
R11  19613133.41006-104840163.47706     -1348.48606        41.00006
E07  24305013.68916    718024.34416     -2580.07516        41.10016  24305039.47124   1303141.07824     -1925.13424        27.70024
R08  19241790.38606-103072509.67006     -2291.15906        39.90006
E29  23824078.53406    774940.72206      -262.70206        40.70006  23824087.22825    708983.58625      -193.96825        31.60025
R10  20999368.93906-111971896.17906     -4446.91706        36.50006
E21  25735709.93925   3080337.74325      1025.30225        33.20025  25735596.31725    972084.28225       770.71425        30.20025
C09  39219595.23905     77539.91205     -1570.13105        33.30005                                                                
R12  22909348.18825-122411140.06325      1558.27525        33.40025
C14  24492887.02725    953518.02525      1131.94625        30.70025                                                                
R07  22164335.45025-118681007.98525     -5340.90125        29.90025
R01  20768038.28624-111050604.98924      1616.29624        29.20024
C10  38628125.10524   1096112.37524      -567.44924        28.80024                                                                
E19  26356387.65323   1194511.28723       892.16223        21.90023                                                                
> 2025 09 29 13 19 39.0000000  0 27                      
G30  21001056.47107     47647.88107     -1962.97707        43.90007  21001070.56106     41795.90806     -1465.87606        40.10006
G07  22420277.56507     -1829.90707     -2863.67807        44.20007                                                                
G22  20788009.56007    154170.06807       207.94807        43.00007                                                                
G14  20250698.43306    115440.37506      -697.70606        41.00006  20250717.92006     93850.80706      -520.39006        36.90006
G13  22289386.67906    180373.90606      1316.74806        39.30006                                                                
G21  21514169.85005    763673.77305     -3061.68205        35.00005  21514198.93025   1325484.37425     -2288.24025        31.60025
G05  22280071.52725     93406.82525     -1380.21525        32.80025                                                                
G17  23719503.72925    185448.27025      1477.87025        30.00025                                                                
G09  23152030.18324     -8434.62124     -4530.17824        23.60024                                                                
G08  24306429.60923   2318201.17423     -3337.49923        18.80023                                                                
E30  25584491.62507    687134.94607     -3685.09107        45.40007  25584505.41516    871412.59116     -2751.76916        38.70016
C21  22326674.26507     36466.27507     -3103.48507        44.40007  22326682.95925    665407.14525     -2345.12025        29.50025
C26  22059761.24527     88460.59827     -1197.22527        42.30027  22059773.83625    699406.89025      -904.55725        30.90025
E27  23522336.52507    748253.77307     -1306.05907        42.40007  23522352.41424    879527.07524      -975.36624        28.40024
R12  22908742.60825-122409632.04425      1547.01025        33.90025
R11  19613063.85806-104841519.09706     -1357.03206        41.20006
E07  24305185.17006    715439.73806     -2588.65606        40.90006  24305209.15424   1301212.20024     -1931.80824        27.30024
R08  19241898.31106-103074818.24006     -2300.64406        39.90006
E29  23823810.81906    774673.85806      -270.74906        40.40006  23823811.71825    708785.57125      -200.77825        31.60025
R10  20999878.28706-111976335.16706     -4455.49606        36.50006
E21  25735192.19725   3081354.90625      1017.66225        33.20025  25735077.37725    972851.71225       766.01325        29.90025
C09  39219595.53925     75964.59125     -1579.60125        33.20025                                                                
C14  24492358.49325    954642.63225      1119.15025        30.80025                                                                
R07  22165004.58725-118686318.96125     -5347.39425        29.90025
R01  20767427.60924-111049068.37724      1606.09524        29.30024
C10  38627923.04524   1095540.68624      -576.08924        28.80024                                                                
E19  26355893.89423   1195402.90823       888.25923        22.00023                                                                
> 2025 09 29 13 19 39.9999999  0 28                      
G07  22420513.20207     -4698.07307     -2872.34307        44.20007                                                                
G22  20787658.80307    154373.94407       199.83807        42.90007                                                                
G14  20250535.34606    114739.66206      -704.48806        40.90006  20250546.73806     93327.25006      -526.65906        36.90006
G13  22288839.25816    181686.73816      1308.76616        39.30016                                                                
G21  21514448.65705    760608.00105     -3069.87505        35.00005  21514479.23625   1323191.37325     -2297.24825        31.60025
G05  22280036.75215     92019.97915     -1391.85415        33.10015                                                                
G17  23718919.43425    186921.77025      1468.87025        30.60025                                                                
G09  23152597.39024    -12971.52824     -4542.54624        23.60024                                                                
G08  24306777.96823   2314858.66623     -3348.55723        18.70023                                                                
G30  21001129.32107     45680.88907     -1970.91207        43.90007  21001141.01306     40327.06106     -1471.80106        40.10006
E30  25584887.35107    683445.71407     -3693.22607        45.40007  25584903.84006    868657.44306     -2758.29606        38.60006
C21  22326961.16607     33358.29907     -3112.17507        44.30007  22326977.05525    663064.39425     -2344.16125        31.20025
E27  23522283.46207    746943.80807     -1313.98207        42.30007  23522296.95324    878550.05824      -979.41624        28.30024
C26  22059683.89917     87259.42117     -1205.27117        42.20017  22059700.08725    698502.29425      -906.80225        30.40025
R12  22908149.61816-122408091.16416      1538.04716        41.30016
R11  19613018.89006-104842907.59806     -1364.70806        41.20006
E07  24305370.74206    712847.04106     -2596.74106        40.90006  24305394.42624   1299276.98824     -1938.37724        26.90024
R08  19242017.02906-103077085.44006     -2309.37706        39.80006
E29  23823550.89926    774397.92326      -280.46926        40.20026  23823558.39425    708581.10125      -207.69825        31.30025
R10  21000400.22506-111980739.83306     -4463.26706        36.40006
E21  25734708.93215   3082364.98715      1006.29015        33.80015  25734582.41925    973612.93725       758.12225        29.50025
C07  38686841.25715    110701.41815      -787.91615        33.80015                                                                
C09  39219597.33825     74384.25425     -1582.84425        33.10025                                                                
C14  24491828.46025    955761.33825      1115.75525        30.90025                                                                
R07  22165683.91625-118691586.28325     -5355.30225        30.10025
R01  20766816.93224-111047431.57324      1598.14224        29.40024
C10  38627714.98924   1094963.50624      -579.92524        28.80024                                                                
E19  26355424.71923   1196287.68223       881.34923        22.10023                                                                
> 2025 09 29 13 19 40.9999999  0 28                      
G07  22420776.12007     -7569.11107     -2872.47007        44.30007                                                                
G30  21001209.96507     43710.71907     -1971.75707        44.10007  21001222.25606     38855.80706     -1472.45606        39.70006
G22  20787333.52807    154573.19907       196.94407        42.80007                                                                
G14  20250371.65906    114034.94706      -706.71606        40.90006  20250387.84806     92800.64006      -528.13506        36.70006
G13  22288302.62906    182997.33906      1309.48406        39.30006                                                                
G21  21514735.85815    757539.39815     -3070.76515        35.00015  21514766.73725   1320899.58125     -2291.18625        31.40025
G05  22279997.17925     90630.80025     -1390.34525        33.10025                                                                
G17  23718355.52425    188390.89725      1466.93925        30.80025                                                                
G09  23153159.80124    -17509.66624     -4538.74824        23.60024                                                                
G08  24307087.95323   2311508.33323     -3354.24323        18.60023                                                                
E30  25585287.27407    679753.01807     -3694.42507        45.30007  25585312.75706    865900.19306     -2758.29906        37.60006
C21  22327266.35527     30246.59427     -3113.56527        44.10027  22327280.44525    660718.86325     -2346.91725        32.30025
R12  22907564.72307-122406531.92907      1536.32407        42.00007
E27  23522234.59607    745630.02307     -1315.69407        42.30007  23522254.68224    877568.06224      -984.48424        28.30024
C26  22059622.74107     86055.17707     -1205.77507        42.20007  22059637.13125    697592.56925      -912.28925        29.70025
R11  19612975.71906-104844242.56806     -1366.70206        41.20006
E07  24305574.30106    710250.68506     -2598.18106        40.80006  24305592.88824   1297342.23724     -1934.51824        26.50024
R08  19242157.63106-103079408.56006     -2311.33906        39.70006
E29  23823318.56026    774123.02826      -274.37626        39.90026  23823320.35915    708374.30715      -207.95515        31.00015
R10  21000943.44906-111985198.64006     -4463.84106        36.40006
C07  38686691.66105    109915.37005      -786.04805        34.20005                                                                
C09  39219587.44525     72798.22325     -1588.87725        33.00025                                                                
C14  24491335.30125    956876.37425      1113.19925        31.10025                                                                
R07  22166388.42925-118696927.13025     -5360.62625        30.40025
R01  20766210.45225-111045757.27925      1593.76725        29.70025
C10  38627524.32124   1094382.67224      -582.66024        28.70024                                                                
E19  26354959.74123   1197170.18923       881.37423        22.10023                                                                
E21  25734221.46905   3083371.98505      1005.45405        34.00005  25734096.15624    974376.89424       765.32424        29.10024
> 2025 09 29 13 19 42.0000001  0 29                      
G07  22421090.30207    -10440.86907     -2872.11507        44.50007                                                                
G30  21001350.56807     41739.54307     -1971.67707        44.20007  21001364.65806     37383.80206     -1472.37906        39.70006
G22  20787058.61907    154771.88107       198.39607        42.70007                                                                
G14  20250270.03006    113329.01306      -706.54206        40.90006  20250288.31716     92273.69716      -527.10916        35.90016
G13  22287810.97006    184306.28906      1308.12306        39.20006                                                                
G21  21515091.41215    754469.07915     -3070.92415        34.90015  21515120.49225   1318608.09025     -2291.33725        31.30025
G05  22280046.34525     89239.60025     -1392.20925        33.10025                                                                
G17  23717841.98025    189860.79025      1470.27425        31.00025                                                                
G09  23153784.26924    -22045.36924     -4534.48224        23.80024                                                                
G08  24307480.68123   2308157.38023     -3351.26023        18.60023                                                                
E30  25585772.03907    676059.65607     -3693.69107        45.20007  25585783.43106    863141.99506     -2758.66806        37.70006
C21  22327634.50017     27133.92217     -3113.15317        43.80017  22327648.59125    658374.24125     -2344.16625        31.90025
E27  23522253.18307    744315.52307     -1314.85707        42.20007  23522272.96914    876586.19614      -981.80014        28.90014
R12  22907041.88507-122404984.16107      1538.39107        41.90007
C26  22059619.14307     84849.58907     -1206.26007        42.00007  22059636.23224    696683.04724      -909.41924        29.40024
E07  24305836.61906    707654.10006     -2596.69806        40.80006  24305851.30924   1295404.96124     -1938.53824        26.50024
R11  19613000.00316-104845618.06616     -1365.82216        41.10016
R08  19242339.90506-103081631.31106     -2311.03506        39.60006
E29  23823126.99226    773843.68226      -281.57026        39.60026  23823140.18305    708166.42305      -208.42905        30.70005
R10  21001533.44126-111989584.99526     -4464.57726        36.40026
C07  38686619.71025    109129.89725      -785.18425        34.20025                                                                
E21  25733799.96105   3084377.65605      1005.00805        34.00005  25733669.25124    975152.22824       781.02124        28.70024
C09  39219651.30025     71211.94425     -1586.40025        32.90025                                                                
C14  24490906.89825    957991.39625      1115.01425        31.10025                                                                
R07  22167131.91425-118702153.85325     -5354.47625        30.50025
R01  20765679.51925-111044163.29625      1601.35725        30.00025
C10  38627409.80124   1093799.07424      -584.98024        28.70024                                                                
C29  26417933.84524   3442859.86424      -173.02924        26.80024                                                                
E19  26354522.94323   1198058.04923       890.53523        22.10023                                                                
> 2025 09 29 13 19 43.0000000  0 29                      
G07  22421329.23707    -13316.01207     -2876.08307        45.00007                                                                
G30  21001420.11907     39765.28307     -1975.80107        44.30007  21001434.50907     35909.44707     -1475.52807        41.50007
G22  20786715.95607    154966.65207       193.56507        42.70007                                                                
G14  20250100.94706    112619.71106      -710.98606        40.90006  20250119.83426     91742.33426      -533.57326        35.70026
G13  22287261.15006    185612.14106      1304.30206        39.20006                                                                
G21  21515389.70625    751395.26225     -3075.56425        34.90025  21515395.40225   1316313.14825     -2296.66725        30.70025
G05  22280015.76625     87841.52625     -1401.50925        33.10025                                                                
G17  23717242.69525    191326.59625      1463.76225        31.30025                                                                
G09  23154339.78424    -26584.80824     -4541.30324        24.20024                                                                
G08  24307809.55423   2304805.89623     -3351.74523        18.50023                                                                
E30  25586159.37007    672363.06107     -3698.20707        45.10007  25586179.75606    860381.30506     -2761.93506        36.70006
C21  22327927.99707     24018.10807     -3117.38107        43.60007  22327937.59025    656025.76525     -2350.40025        30.80025
E27  23522206.41507    742997.70907     -1319.46907        42.10007  23522218.40724    875603.92324      -982.47524        28.70024
C26  22059550.19107     83641.25507     -1209.70607        41.80007  22059563.68224    695771.88524      -911.98324        29.20024
R12  22906462.08607-122403515.88807      1533.72507        41.70007
E07  24306019.79306    705054.40506     -2601.24806        40.80006  24306039.27924   1293466.77224     -1938.64224        26.10024
R11  19612939.14506-104846921.69306     -1372.02406        41.00006
R08  19242481.40706-103084022.63006     -2315.71206        39.50006
R10  21002078.16416-111994114.74116     -4468.68316        36.40016
E29  23822872.46916    773561.36116      -283.80816        38.40016  23822889.55705    707956.37305      -211.13305        30.60005
C07  38686506.68915    108341.49415      -789.86915        34.50015                                                                
E21  25733278.02205   3085380.13005      1000.87305        33.90005                                                                
C09  39219654.59825     69623.40825     -1589.66425        32.80025                                                                
C14  24490408.34325    959103.60625      1110.80425        31.10025                                                                
R07  22167844.52125-118707601.16825     -5362.24425        30.60025
R01  20765067.64325-111042522.66425      1590.27625        30.10025
C10  38627222.13124   1093213.71524      -586.23824        28.70024                                                                
E19  26354029.18523   1198950.32423       894.48223        22.10023                                                                
C29  26417677.52224   3442684.49124      -175.37224        26.50024                                                                
> 2025 09 29 13 19 43.9999999  0 29                      
G07  22421551.08307    -16192.34507     -2877.17607        45.00007                                                                
G30  21001475.58107     37789.82007     -1976.06307        44.40007  21001486.97306     34434.36306     -1475.44706        41.20006
G22  20786355.90507    155160.13207       192.58507        42.60007                                                                
G14  20249911.17806    111908.57506      -712.05206        41.00006  20249929.16626     91210.24026      -532.45926        35.60026
G13  22286681.35226    186916.95826      1304.29926        39.10026                                                                
G21  21515661.61725    748318.36825     -3078.42825        34.80025  21515663.41625   1314018.97725     -2293.78225        30.60025
G05  22279958.80515     86443.49715     -1398.00515        33.00015                                                                
G17  23716655.10125    192791.58525      1464.57925        31.70025                                                                
G09  23154875.21324    -31127.02724     -4543.60424        24.60024                                                                
G08  24308116.84123   2301451.43023     -3355.95523        18.40023                                                                
E30  25586546.70207    668664.77807     -3699.12407        44.90007  25586563.19116    857619.78816     -2761.92616        36.90016
C21  22328202.60707     20900.32207     -3118.77007        43.50007  22328215.19825    653675.76525     -2350.76025        31.50025
E27  23522125.47107    741678.17607     -1320.39107        42.00007  23522144.05924    874619.72124      -985.16724        28.40024
E07  24306193.97206    702452.40706     -2603.14606        40.80006  24306216.75624   1291528.11824     -1938.88624        26.00024
R12  22905847.81207-122401959.71307      1531.70807        41.50007
R08  19242598.62606-103086378.70006     -2317.42706        39.50006
C07  38686315.42106    107552.18406      -789.76106        35.60006                                                                
R10  21002598.00406-111998606.34706     -4468.83006        36.30006
E29  23822609.55116    773277.82516      -284.14316        38.00016  23822619.44405    707745.63605      -211.08105        34.90005
C26  22059465.95026     82432.37926     -1209.14626        41.10026  22059468.34824    694858.94024      -913.83424        28.60024
E21  25732772.87205   3086381.48105      1000.79005        33.80005                                                                
R11  19612886.08226-104848362.94426     -1371.51126        40.50026
C09  39219645.00525     68036.03425     -1586.79325        32.60025                                                                
C14  24489852.22825    960211.95425      1106.41525        31.10025                                                                
R01  20764470.45625-111041057.17625      1591.70725        30.30025
R07  22168567.32025-118713198.60225     -5360.57125        30.60025
C10  38626991.29024   1092629.68824      -583.36124        28.60024                                                                
C29  26417364.23924   3442512.08924      -170.91824        26.20024                                                                
E19  26353551.61623   1199845.85323       897.15523        22.10023                                                                
> 2025 09 29 13 19 44.9999999  0 29                      
G07  22421804.10807    -19072.22007     -2881.64207        45.00007                                                                
G30  21001550.22907     35810.57807     -1981.12807        44.40007  21001569.71606     32956.41606     -1479.37606        40.80006
G22  20786028.23207    155349.74207       187.67507        42.90007                                                                
G14  20249757.98406    111193.20606      -717.48506        41.10006  20249774.47325     90674.60825      -537.40025        35.40025
G13  22286137.22826    188217.87426      1298.96326        39.10026                                                                
G21  21515944.02215    745239.44715     -3079.93315        34.70015  21515953.61525   1311718.39125     -2303.79225        32.30025
G05  22279914.43625     85042.28125     -1402.80925        33.00025                                                                
G17  23716083.99725    194253.54925      1460.45025        31.80025                                                                
G09  23155440.02224    -35673.08524     -4547.97324        25.20024                                                                
G08  24308480.78923   2298093.80023     -3359.20823        18.30023                                                                
E30  25586956.21907    664962.85807     -3703.73407        44.80007  25586975.40606    854855.42206     -2765.78906        36.90006
C21  22328506.59707     17778.48707     -3123.85507        43.40007  22328519.48825    651321.55525     -2356.31225        30.80025
E07  24306402.32806    699846.89406     -2607.26706        41.30006  24306419.71624   1289586.15324     -1943.61924        25.80024
E27  23522083.20107    740354.39807     -1325.89907        41.90007  23522103.58724    873631.41224      -990.36024        28.40024
R12  22905269.51206-122400434.11306      1527.42306        41.30006
R08  19242736.23106-103088684.96806     -2322.91606        39.50006
C07  38686179.91506    106758.65606      -795.63606        36.00006                                                                
R10  21003142.72706-112003071.26506     -4473.74106        36.20006
E29  23822367.31806    772990.80706      -288.75906        37.50006  23822380.20906    707531.88506      -215.25706        38.60006
C26  22059406.29126     81219.33626     -1215.12526        40.30026  22059412.58624    693944.37124      -915.38024        28.40024
R11  19612856.70216-104849772.08616     -1377.49016        39.50016
E21  25732298.90025   3087378.84125       995.36325        33.70025                                                                
C09  39219659.39525     66444.41025     -1593.74725        32.50025                                                                
C14  24489347.07825    961318.29725      1105.34025        31.50025                                                                
R01  20763862.77725-111039373.70925      1588.43125        30.80025
R07  22169268.83525-118718522.59925     -5368.57825        30.60025
C10  38626824.90624   1092041.22824      -590.67724        28.60024                                                                
C29  26417091.42824   3442343.14324      -167.21724        26.00024                                                                
E19  26353111.22123   1200738.66323       891.45123        22.10023                                                                
> 2025 09 29 13 19 45.9999998  0 29                      
G07  22422029.25207    -21952.51207     -2880.49907        44.90007                                                                
G30  21001610.48807     33830.78507     -1980.06707        44.40007  21001624.27826     31478.94326     -1477.23626        40.60026
G22  20785666.98207    155538.07907       187.70007        42.90007                                                                
G14  20249575.71006    110477.17506      -716.36106        41.30006  20249582.30625     90138.93525      -535.69325        34.80025
G13  22285574.21826    189518.20926      1300.04426        39.00026                                                                
G21  21516209.03805    742159.88705     -3079.87505        34.60005  21516215.93425   1309418.02125     -2300.26025        31.90025
G05  22279857.17615     83640.71515     -1401.73815        32.90015                                                                
G17  23715505.99725    195712.07625      1456.80725        31.80025                                                                
G08  24308793.77223   2294734.50423     -3360.12723        18.20023                                                                
G09  23155990.14224    -40219.56624     -4546.68824        25.30024                                                                
E29  23822090.01006    772704.28206      -286.27906        40.80006  23822112.49516    707318.10216      -213.80016        37.70016
E30  25587337.55507    661260.57307     -3702.46507        44.60007  25587354.94306    852090.54106     -2765.13606        36.30006
C21  22328786.30307     14656.30507     -3122.35407        43.40007  22328797.99526    648968.89026     -2351.89026        39.30026
E07  24306569.61216    697239.65016     -2607.35816        41.30016  24306586.40025   1287640.48225     -1947.52225        32.40025
E27  23522021.44317    739029.96617     -1324.00817        41.70017  23522035.23424    872640.78024      -991.79424        28.40024
R08  19242846.55506-103091006.55606     -2322.90206        39.50006
R12  22904663.33206-122398923.03006      1527.30506        41.00006
C07  38685985.94906    105963.94406      -795.30406        36.20006                                                                
R11  19612781.75406-104851098.64506     -1376.87706        38.90006
R10  21003659.86906-112007550.66406     -4472.62006        36.20006
C26  22059310.05716     80005.41416     -1214.36116        39.60016  22059323.84824    693031.08124      -912.65024        28.30024
E21  25731779.36015   3088375.57915       996.42715        33.60015  25731676.53124   2726312.54124       741.81924        25.10024
C14  24488787.06525    962423.67725      1104.89725        32.10025                                                                
C09  39219655.19825     64848.22425     -1598.46625        32.30025                                                                
R01  20763255.69725-111037856.21225      1586.11625        31.00025
R07  22169916.68625-118723720.21625     -5367.49325        30.50025
C10  38626624.94424   1091453.54824      -587.28824        29.00024                                                                
C29  26416802.72824   3442172.34424      -171.72624        25.80024                                                                
E19  26352618.96223   1201628.49223       888.33723        22.00023                                                                
> 2025 09 29 13 19 47.0000000  0 29                      
G07  22422384.50607    -24831.37607     -2878.14507        44.90007                                                                
G30  21001771.17607     31851.60607     -1978.87007        44.40007  21001787.36526     30005.34826     -1471.65326        40.20026
G22  20785420.25307    155726.01807       187.73907        42.90007                                                                
G14  20249495.96607    109760.73007      -716.65107        41.50007  20249506.75825     89603.55325      -535.23625        34.60025
G21  21516578.68305    739079.14205     -3081.33505        34.60005  21516588.27625   1307117.41325     -2300.72525        31.70025
G05  22279916.53525     82238.32125     -1402.80825        33.00025                                                                
G13  22285134.12326    190817.33926      1298.52626        38.20026                                                                
G17  23714978.66225    197174.14325      1463.83525        31.70025                                                                
G09  23156607.71424    -44765.24224     -4545.27024        25.30024                                                                
G08  24309211.38323   2291375.76323     -3358.46123        18.10023                                                                
E30  25587833.71117    657558.43917     -3702.05517        44.50017  25587847.20225    849326.57725     -2763.50325        34.80025
E29  23821930.22127    772418.63127      -285.21227        44.10027  23821953.30516    707104.67916      -213.24316        36.90016
C21  22329172.43607     11533.24707     -3123.49207        43.30007  22329182.92826    646615.70126     -2353.44926        38.10026
E07  24306851.11706    694633.45206     -2605.92206        41.20006  24306870.00415   1285694.37515     -1946.32315        31.70015
E27  23522060.11707    737705.63807     -1324.52407        41.60007  23522069.41024    871652.19824      -987.55624        28.70024
R08  19243072.29806-103093364.16106     -2322.47906        39.40006
C07  38685941.88006    105170.64006      -792.59906        37.10006                                                                
C26  22059324.74706     78791.51806     -1213.88206        39.20006  22059342.13525    692116.51125      -915.20925        32.10025
R11  19612811.13306-104852402.27106     -1376.45106        38.60006
R10  21004288.83306-112012047.61306     -4472.25706        36.20006
R12  22904160.58006-122397383.67206      1528.80606        40.40006
E21  25731425.00525   3089372.38825       996.09225        33.60025  25731272.41124   2727053.85624       741.31424        29.00024
C14  24488361.36025    963530.11925      1106.97225        32.40025                                                                
C09  39219759.52525     63258.29425     -1586.79925        32.20025                                                                
R01  20762728.06225-111036182.68625      1590.97525        31.00025
R07  22170682.35625-118728967.62325     -5370.02625        30.50025
C10  38626500.83024   1090863.75324      -590.85224        29.10024                                                                
C29  26416625.55124   3442001.99724      -170.12024        25.60024                                                                
E19  26352243.02223   1202518.00423       889.35323        22.00023                                                                
> 2025 09 29 13 19 47.9999999  0 29                      
G07  22422611.14907    -27711.08607     -2880.13207        44.80007                                                                
G30  21001824.83907     29871.02107     -1981.28607        44.40007  21001839.22926     28526.64826     -1481.25326        39.10026
G22  20785061.40107    155912.63907       185.96307        42.80007                                                                
G14  20249315.49107    109043.12007      -718.19107        41.50007  20249321.78625     89066.69825      -537.59025        34.50025
G21  21516838.00305    735996.49905     -3083.59105        34.50005  21516849.69525   1304816.41425     -2301.19225        31.50025
G13  22284551.92626   4024731.51026      1296.16826        37.40026                                                                
G05  22279847.58215     80833.55815     -1405.94515        33.00015                                                                
G17  23714370.68315    198636.99515      1463.24415        32.00015                                                                
G08  24309529.76323   2288019.65123     -3354.79423        18.00023                                                                
G09  23157176.12124    -49314.26424     -4550.69024        25.30024                                                                
E29  23821669.10217    772131.53517      -288.56917        44.00017  23821681.99326    706888.76526      -217.15926        36.30026
C21  22329446.74617      8408.63117     -3125.39317        43.20017  22329458.13826    644263.55626     -2351.62026        36.90026
E07  24307030.39306    692025.44906     -2608.90406        41.20006  24307043.58405   1283746.98205     -1948.03405        31.40005
E27  23521992.06407    736379.50207     -1327.04007        41.50007  23522000.15824    870664.70924      -986.94124        28.70024
R08  19243188.31806-103095716.39806     -2325.57006        39.40006
C07  38685753.01006    104374.96006      -796.86606        38.00006                                                                
R11  19612762.86706-104853871.04806     -1379.29406        38.50006
C26  22059242.90406     77576.02806     -1216.28506        39.00006  22059251.29826    691201.18926      -915.69826        35.80026
R12  22903537.31106-122395780.10806      1525.71206        39.90006
R10  21004805.07606-112016523.20106     -4473.63706        36.20006
C14  24487829.82825    964636.57125      1106.45725        32.80025                                                                
C09  39219764.92225     61663.56625     -1597.12625        32.10025                                                                
R01  20762126.97925-111034697.31725      1584.94125        31.00025
R07  22171401.85825-118734548.97325     -5367.27325        30.50025
C10  38626321.25424   1090271.34924      -593.70924        29.10024                                                                
E21  25730853.00125   4061752.14125       995.65825        32.60025  25730760.66524   2727797.18324       744.33224        28.70024
E30  25588196.76027    653853.79427     -3705.89727        43.50027  25588230.93625    846561.22525     -2766.04425        35.00025
C29  26416321.56124   3441828.77324      -174.66424        25.40024                                                                
E19  26351776.24523   1203404.61723       885.16123        22.00023                                                                
> 2025 09 29 13 19 48.9999999  0 29                      
G30  21001910.58007     27888.07007     -1984.13307        44.40007  21001924.67026     27045.95926     -1481.68226        38.80026
G07  22422864.17407    -30592.63907     -2883.22107        44.70007                                                                
G14  20249156.30106    108322.81706      -721.65006        41.40006  20249164.99525     88529.90525      -536.76225        33.20025
G21  21517126.40305    732911.03605     -3086.86905        34.50005  21517141.09325   1302513.20125     -2304.31825        30.70025
G05  22279819.40205     79426.04605     -1408.88505        33.40005                                                                
G17  23713805.27425    200095.94625      1456.99825        32.40025                                                                
G13  22284003.90526   4026026.07826      1294.56726        36.60026                                                                
G22  20784740.02427    156097.47727       183.19627        42.40027                                                                
G09  23157750.52324    -53867.82924     -4555.83324        25.30024                                                                
G08  24309866.72923   2284662.61323     -3357.49723        17.90023                                                                
C26  22059179.64807     76358.19107     -1219.01007        43.20007  22059192.53916    690283.34716      -919.10016        37.50016
E29  23821432.86507    771841.69007      -290.96907        43.90007  23821444.25726    706672.08626      -217.06126        35.90026
C21  22329763.62607      5281.05707     -3129.04907        43.20007  22329766.92426    641907.27526     -2358.34626        36.10026
E07  24307233.95206    689415.20106     -2611.36606        41.20006  24307248.34205   1281797.55205     -1950.44605        31.20005
E30  25588637.15517    650147.92017     -3706.48517        43.10017  25588643.45125    843793.04225     -2769.59625        34.20025
E27  23521944.39726    735053.41726     -1326.05726        41.30026  23521963.28424    869671.51724      -996.04424        28.60024
R11  19612728.99006-104855254.95506     -1382.44006        39.20006
R08  19243318.42806-103097980.52506     -2329.14606        39.40006
C07  38685626.19816    103577.88316      -797.77416        38.60016                                                                
R10  21005341.70506-112020944.64006     -4477.00906        36.20006
R12  22902958.71226-122394254.50826      1522.11726        39.20026
C14  24487320.18125    965738.67725      1099.93125        33.30025                                                                
E21  25730378.13025   4062746.62225       994.48025        32.60025  25730280.99714   2728538.40114       740.16314        27.90014
C09  39219763.72325     60068.84025     -1594.72425        32.00025                                                                
R01  20761536.38725-111033105.62925      1581.16025        31.10025
R07  22172057.50425-118739627.10525     -5373.02925        30.40025
C10  38626140.77925   1089679.92525      -590.93325        29.70025                                                                
C29  26416064.93924   3441652.43124      -177.90024        25.30024                                                                
E19  26351300.47423   1204283.49123       875.00523        22.30023                                                                
> 2025 09 29 13 19 49.9999998  0 29                      
G30  21001964.24307     25904.89307     -1983.28707        44.40007  21001978.93326     25565.35726     -1480.55726        38.40026
G07  22423080.32507    -33475.81107     -2883.72907        44.60007                                                                
G14  20248967.13206    107601.14506      -722.35406        41.40006  20248979.12325     87991.66725      -538.96025        33.30025
G21  21517389.62105    729824.79805     -3086.62305        35.00005  21517404.91125   1300209.20125     -2304.39125        32.50025
G22  20784381.17216    156281.19516       183.40716        41.20016                                                                
G05  22279799.31605     78017.82405     -1408.57605        33.40005                                                                
G17  23713212.28525    201553.08525      1456.23325        32.40025                                                                
G13  22283434.59926   4027325.51226      1301.86626        35.90026                                                                
G09  23158304.83924    -58419.13024     -4550.16424        25.30024                                                                
G08  24310167.12223   2281309.89823     -3350.55223        17.90023                                                                
C26  22059089.41007     75139.93207     -1218.46907        46.50007  22059102.90106    689365.29106      -918.16306        39.60006
R11  19612663.63507-104856633.50907     -1381.96107        43.80007
E29  23821159.75407    771551.53107      -290.31607        43.90007  23821177.74216    706455.36316      -216.74516        35.60016
C21  22330038.83607      2153.40407     -3127.69007        43.00007  22330044.83226    639551.18726     -2355.99126        35.50026
E07  24307407.83206    686804.25606     -2611.29206        41.20006  24307423.42105   1279847.89605     -1949.76805        31.80005
E30  25588995.70707    646441.57807     -3706.57207        42.80007  25589027.48515    841025.06315     -2767.87415        34.20015
E27  23521882.63916    733724.23616     -1331.47916        41.20016  23521888.93524    868676.18724      -996.39824        28.30024
C07  38685465.51006    102780.87106      -796.98006        39.00006                                                                
R08  19243434.44806-103100332.76106     -2327.90606        39.30006
R10  21005874.73606-112025508.70206     -4475.95706        36.10006
R12  22902366.92116-122392819.09316      1524.12416        38.70016
E21  25729868.78215   4063739.49915       992.82415        33.40015  25729770.75024   2729280.31924       742.26824        27.20024
C14  24486803.33915    966837.00715      1096.44115        33.30015                                                                
R01  20760919.11525-111031533.82925      1581.30125        31.30025
C09  39219719.35325     58473.58125     -1595.52425        31.90025                                                                
R07  22172756.02025-118745096.62825     -5369.12225        30.90025
C10  38625919.83225   1089085.54825      -595.85325        30.00025                                                                
C29  26415782.83424   3441477.10124      -174.82324        25.10024                                                                
E19  26350800.12123   1205160.64823       876.29723        22.60023                                                                
> 2025 09 29 13 19 51.0000000  0 29                      
G30  21002110.54107     23921.94907     -1982.82707        44.40007  21002122.53326     24086.68526     -1477.70526        37.30026
G14  20248870.89806    106879.64206      -721.41906        41.30006  20248884.08925     87453.99025      -537.39525        33.30025
G07  22423392.10907    -36358.53207     -2882.49307        43.90007                                                                
G21  21517755.06806    726739.39306     -3084.98606        35.50006  21517759.86525   1297904.62225     -2304.86725        32.30025
G22  20784110.76016    156464.37516       182.91116        40.10016                                                                
G13  22282957.92915   4028624.53415      1298.81515        35.40015                                                                
G05  22279821.20125     76611.35825     -1405.58625        33.40025                                                                
G17  23712696.04215    203012.98015      1461.27015        32.40015                                                                
G09  23158945.19624    -62968.88024     -4548.96924        25.70024  23158940.09924   3028963.38424     -3401.56424        24.30024
G08  24310541.56223   2277962.67123     -3344.47923        18.10023                                                                
C26  22059090.60907     73922.02507     -1217.72907        46.60007  22059103.80006    688447.47306      -917.69806        38.70006
R11  19612687.61907-104858005.18007     -1381.49907        46.00007
E29  23820989.47207    771260.75607      -290.33207        43.90007  23821000.56415    706239.00015      -216.18215        35.30015
C21  22330406.98117      -974.91317     -3128.64617        42.80017  22330414.17615    637193.49915     -2358.48515        34.90015
E07  24307666.55306    684193.26106     -2611.01706        41.10006  24307684.24005   1277898.09305     -1949.87405        34.70005
E27  23521897.03006    732394.83706     -1329.25706        41.00006  23521912.01924    867682.45724      -992.92924        28.20024
E30  25589474.17607    642735.19607     -3707.15007        42.30007  25589495.16125    838257.06925     -2768.00025        33.90025
C07  38685343.79406    101981.31806      -800.82106        39.30006                                                                
R08  19243640.40506-103102682.69906     -2328.86306        39.20006
R10  21006467.72506-112029911.83306     -4475.67606        36.00006
R12  22901844.38326-122391272.08726      1529.15526        38.10026
E21  25729449.07315   4064733.17115       993.06815        33.90015  25729344.14624   2730023.90924       744.42624        27.70024
C14  24486342.55815    967939.63415      1104.77515        33.30015                                                                
R07  22173532.48325-118750498.75025     -5369.01325        31.30025
C09  39219814.98725     56879.99225     -1592.75225        31.80025                                                                
R01  20760375.89125-111029874.83525      1578.85025        31.30025
C10  38625805.01225   1088492.30825      -592.67225        30.00025                                                                
E19  26350379.51223   1206038.19023       877.73423        22.80023                                                                
C29  26415600.26024   3441303.31524      -173.01524        25.00024                                                                
> 2025 09 29 13 19 52.0000000  0 29                      
G30  21002193.28427     21937.47827     -1985.98227        44.40027  21002209.17326     22605.05926     -1483.10226        37.10026
G14  20248713.80706    106157.62506      -722.27206        41.30006  20248729.69625     86915.92425      -538.26025        33.20025
G13  22282410.50806   4029923.37506      1298.74806        40.10006                                                                
G07  22423649.93007    -39241.62807     -2883.28107        43.20007                                                                
G21  21518049.16526    723652.71926     -3087.30626        36.00026  21518055.16025   1295598.74325     -2306.52625        32.10025
G22  20783777.39026    156646.65426       181.82826        39.20026                                                                
G05  22279791.52115     75202.57415     -1409.94315        33.30015                                                                
G17  23712137.22925    204473.14525      1460.29925        32.40025                                                                
G09  23159507.60724    -67517.29824     -4547.74824        25.80024                                                                
G08  24310888.72223   2274622.77023     -3336.23423        18.50023                                                                
C26  22059031.85007     72703.60007     -1218.68307        46.70007  22059045.34106    687529.17706      -918.53306        38.10006
R11  19612653.74207-104859389.85107     -1383.00707        46.30007
E29  23820749.33807    770970.46107      -290.30507        44.20007  23820762.82915    706022.24215      -216.95515        35.10015
C21  22330708.57217     -4103.37417     -3128.52917        42.50017  22330720.26405    634835.62105     -2357.97005        34.20005
E07  24307874.30906    681582.27806     -2610.97506        41.10006  24307890.19815   1275948.80215     -1949.03315        34.30015
E27  23521853.26006    731065.00706     -1330.04406        40.80006  23521865.55124    866691.20924      -990.00624        27.50024
E30  25589895.38407    639028.54407     -3706.53107        41.90007  25589903.47825    835491.75825     -2763.96625        33.60025
C07  38685246.96106    101183.98606      -796.22206        39.30006                                                                
R08  19243775.61116-103104975.93916     -2328.31516        39.10016
R10  21007010.94906-112034368.35506     -4476.82206        36.00006
E21  25728974.20205   4065725.91205       992.52505        34.70005  25728866.27724   2730769.77824       747.00624        27.10024
R12  22901281.67316-122389831.32616      1521.34216        37.50016
C14  24485838.00715    969042.37415      1102.79415        33.70015                                                                
R07  22174257.38125-118755948.36025     -5371.51225        35.20025
C09  39219830.87625     55287.40325     -1592.08725        31.80025                                                                
R01  20759807.78425-111028403.99225      1580.39325        31.50025
C10  38625606.24925   1087898.93725      -593.43525        30.00025                                                                
C29  26415333.74524   3441130.35624      -172.54524        24.80024                                                                
E19  26349906.73923   1206914.28123       875.36523        22.80023                                                                
> 2025 09 29 13 19 53.0000000  0 29                      
G30  21002275.72717     19951.54917     -1986.40517        44.20017  21002292.81526     21121.92026     -1483.89426        36.70026
G14  20248558.81406    105432.74606      -726.31006        41.20006  20248574.70325     86375.43025      -541.70825        32.70025
G07  22423903.85407    -42125.20407     -2883.81307        42.70007                                                                
G13  22281872.98026   4031218.71826      1293.59326        40.00026                                                                
G21  21518351.95526    720564.99126     -3088.25126        36.00026  21518350.45625   1293291.81525     -2307.45025        32.00025
G05  22279768.43715     73790.70115     -1413.41515        33.30015                                                                
G22  20783461.10926    156825.44226       177.04226        38.30026                                                                
G17  23711578.11625    205930.32325      1455.68425        32.30025                                                                
G09  23160076.91224    -72066.33924     -4549.34624        25.80024  23160090.70324   3368420.15324     -3396.74124        25.60024
G08  24311251.77123   2271288.88423     -3330.87523        18.70023                                                                
C26  22058974.88907     71482.78007     -1222.01607        46.70007  22058985.98206    686609.12906      -920.92406        40.70006
R11  19612623.76307-104860796.69607     -1386.35807        46.40007
E29  23820517.29907    770678.18307      -293.26907        44.60007  23820523.89406    705803.81306      -219.26406        40.90006
C21  22331016.15907     -7233.77407     -3131.36607        42.30007  22331025.45315    632475.79915     -2360.79215        33.60015
E07  24308097.35406    678969.96806     -2612.97006        41.00006  24308094.35625   1274001.81725     -1945.83125        33.90025
E30  25590305.50007    635320.47507     -3708.77507        41.60007  25590317.19225    832722.84625     -2770.71025        34.30025
E27  23521816.08606    729732.84506     -1333.32606        40.70006  23521830.47624    865698.47624      -993.47524        28.00024
C07  38685118.94906    100385.20806      -799.49906        39.50006                                                                
R10  21007547.27806-112038790.55906     -4479.95306        35.90006
E21  25728503.82715   4066716.12415       989.69615        34.90015  25728385.70924   2731510.46924       738.10224        26.70024
R12  22900700.37526-122388291.96726      1520.17826        37.00026
C14  24485340.05225    970142.82725      1099.30825        34.10025                                                                
R08  19243926.40726-103107353.46226     -2332.61626        37.90026
C09  39219838.97025     53690.93325     -1598.40925        31.90025                                                                
R01  20759223.78825-111026849.78625      1577.45425        31.70025
R07  22174987.37625-118761425.54325     -5377.26325        34.60025
C10  38625432.37025   1087303.12025      -597.03925        30.90025                                                                
C29  26415063.33224   3440954.07524      -177.94224        24.60024                                                                
E19  26349457.65023   1207788.07923       872.65023        23.10023                                                                
> 2025 09 29 13 19 53.9999998  0 29                      
G05  22279700.68405     72375.12505     -1417.42705        35.30005                                                                
G30  21002326.99207     17962.22907     -1991.01407        43.90007  21002335.68626     19636.33126     -1486.81326        36.40026
G14  20248362.45006    104703.49706      -731.43306        41.10006  20248377.44025     85830.68025      -546.87825        31.30025
G07  22424122.10307    -45013.44307     -2890.56707        42.30007                                                                
G13  22281271.59716   4032511.99016      1292.23616        39.90016                                                                
G21  21518603.48126    717470.95726     -3097.18626        35.90026  21518604.38025   1290983.55125     -2308.93025        31.80025
G22  20783136.43426    156999.17226       171.20126        37.60026                                                                
G17  23710927.56615    207382.93915      1450.33415        32.30015                                                                
G09  23160601.54924    -76619.95524     -4555.90124        25.80024  23160623.43424   3365020.16624     -3399.98424        27.20024
G08  24311562.05623   2267956.61923     -3331.45323        18.70023                                                                
C26  22058871.46107     70257.98207     -1226.78607        46.70007  22058886.15106    685686.25606      -924.28506        40.60006
R11  19612548.51507-104862182.13607     -1391.70707        46.40007
E29  23820234.59507    770381.81107      -298.41807        44.90007  23820244.78806    705582.62006      -222.57606        40.40006
C21  22331284.77307    -10369.17007     -3137.89207        42.00007  22331296.76525    630111.49625     -2366.54225        33.20025
E07  24308238.25706    676352.97806     -2620.08006        40.90006  24308257.44425   1272048.44925     -1956.55725        33.20025
E30  25590678.14226    631607.75726     -3715.04026        41.40026  25590691.33325    829952.10425     -2771.65625        34.20025
E27  23521733.64306    728396.38706     -1338.60506        40.60006  23521750.73124    864699.27424     -1002.43524        28.30024
C07  38684930.08006     99583.04706      -803.85306        39.50006                                                                
R10  21008071.31506-112043366.06506     -4483.73006        35.80006
E21  25727973.49515   4067703.30115       985.40815        34.80015  25727860.17324   2732242.71724       728.02624        26.20024
C14  24484786.63525    971240.48925      1096.26625        34.10025                                                                
R12  22900079.80526-122386764.07726      1516.20326        36.60026
R08  19244014.84616-103109618.36016     -2339.18816        37.20016
R07  22175630.73015-118766659.16215     -5377.31015        34.40015
C10  38625206.32625   1086703.70325      -601.21725        31.30025                                                                
C09  39219793.10225     52084.85325     -1610.88425        31.90025                                                                
R01  20758575.33725-111025172.43725      1571.31325        31.70025
C29  26414777.63024   3440774.24824      -181.59924        24.40024                                                                
E19  26349001.36623   1208657.01523       866.50523        23.10023                                                                
> 2025 09 29 13 19 55.0000001  0 29                      
G30  21002500.87107     15970.82907     -1991.68807        43.70007  21002512.86326     18150.79626     -1485.50726        36.20026
G14  20248300.09406    103972.59406      -731.73006        41.00006  20248312.98525     85287.97525      -541.68125        30.60025
G07  22424464.16607    -47903.11007     -2890.37807        41.90007                                                                
G13  22280836.89806   4033803.21906      1290.20706        39.90006                                                                
G05  22279770.53616     70958.10516     -1417.74116        40.20016                                                                
G21  21518974.62416    714374.61716     -3097.48816        35.90016  21518986.61625   1288673.72125     -2310.61025        30.40025
G22  20782857.02726    157175.61426       177.79826        36.90026                                                                
G17  23710466.18615    208834.87115      1451.58915        32.30015                                                                
G09  23161259.89324    -81175.98924     -4557.23824        25.80024  23161288.37424   3361615.91124     -3406.38624        26.80024
G08  24311984.16423   2264626.63123     -3328.84523        18.80023                                                                
C26  22058908.03607     69031.40107     -1227.47007        46.60007  22058918.82806    684761.75606      -925.31206        40.00006
R11  19612604.27707-104863566.04307     -1392.85207        46.40007
E29  23820088.89607    770084.05307      -298.45207        45.10007  23820098.18906    705360.11306      -223.16406        39.40006
E30  25591177.59616    627893.84516     -3714.50416        41.20016  25591196.48325    827178.57225     -2774.92225        34.10025
C21  22331687.69407    -13507.09207     -3139.18207        41.70007  22331691.29225    627742.82325     -2370.85525        31.70025
E07  24308534.75206    673733.73906     -2620.10906        40.80006  24308550.94025   1270093.73425     -1955.38625        32.30025
E27  23521789.10406    727057.85606     -1339.56606        40.50006  23521801.09624    863699.92224      -999.42624        28.10024
C07  38684881.21406     98779.11406      -804.81806        39.40006                                                                
R10  21008724.56306-112047932.42006     -4484.82506        35.70006
C14  24484370.52325    972336.60225      1095.33825        34.50025                                                                
R08  19244245.68606-103111943.78106     -2341.43706        36.70006
E21  25727588.26125   4068688.12025       983.63925        34.80025  25727474.94024   2732970.56524       725.64724        25.90024
R12  22899568.05926-122385116.94526      1516.39226        36.20026
R07  22176428.47805-118772017.62605     -5380.16505        34.20005
R01  20758082.77825-111023625.87825      1571.88025        31.70025
C10  38625121.18525   1086104.75025      -598.72025        31.80025                                                                
C09  39219903.72625     50477.24325     -1608.37325        31.80025                                                                
C29  26414592.05824   3440588.70224      -188.40624        24.20024                                                                
E19  26348626.02623   1209523.38223       865.08123        23.00023                                                                
> 2025 09 29 13 19 56.0000000  0 29                      
G30  21002553.33517     13983.76217     -1985.89917        43.60017  21002567.42516     16666.66716     -1483.42416        36.00016
G07  22424683.01507    -50790.23307     -2885.84907        41.80007                                                                
G14  20248117.22006    103244.04706      -727.36806        40.90006  20248128.91225     84746.07025      -541.50525        31.90025
G13  22280260.69606   4035097.33506      1295.55706        40.30006                                                                
G05  22279711.77606     69543.19306     -1413.85706        40.00006                                                                
G21  21519244.43716    711281.39316     -3091.66416        35.80016  21519259.12725   1286366.90925     -2305.30225        30.30025
G22  20782491.58026    157353.06126       177.94926        36.40026                                                                
G17  23709874.99525    210286.24325      1451.08925        32.30025                                                                
G09  23161805.81524    -85730.59324     -4553.88524        26.50024  23161833.69624   3358214.60924     -3399.82224        26.30024
G08  24312292.05023   2261302.80723     -3320.73923        18.80023                                                                
C26  22058818.69807     67807.54207     -1222.49707        46.60007  22058830.98906    683839.53406      -921.08406        39.50006
R11  19612544.01807-104864969.05807     -1387.73607        46.30007
E29  23819819.38207    769788.98107      -293.72907        45.30007  23819832.27306    705139.77806      -219.24806        38.90006
E30  25591555.33506    624182.81506     -3709.58606        41.10006  25591576.92025    824406.42425     -2771.45425        33.60025
E27  23521727.94706    725722.52506     -1333.73006        40.50006  23521733.34324    862703.05624      -995.62224        28.50024
E07  24308736.21206    671118.07306     -2613.87906        40.70006  24308727.21825   1268140.98225     -1951.76925        31.40025
C21  22331963.50306    -16641.68206     -3132.92006        41.40006  22331973.99625    625381.31125     -2357.92925        31.50025
C07  38684689.34726     97977.14226      -800.99226        39.40026                                                                
R08  19244362.90506-103114299.84106     -2336.10906        36.40006
R10  21009208.72726-112052234.86326     -4481.19126        35.50026
C14  24483835.09425    973432.13625      1095.24425        34.60025                                                                
R12  22898982.56416-122383714.39516      1520.27716        35.80016
E21  25727060.62725   4069672.26225       983.80325        34.60025  25726962.89424   2733703.53424       735.52924        28.50024
R07  22177097.01515-118777325.53715     -5374.96315        34.10015
C10  38624898.43915   1085507.41115      -596.53215        32.10015                                                                
R01  20757467.00525-111022059.42325      1577.36325        32.00025
C09  39219882.14125     48881.69725     -1589.51425        31.70025                                                                
E19  26348152.35423   1210394.18323       873.01723        23.00023                                                                
C29  26414304.25824   3440404.14924      -184.05624        24.00024                                                                
> 2025 09 29 13 19 57.0000000  0 29                      
G30  21002632.48007     12005.64207     -1973.39607        43.60007  21002648.66906     15189.41406     -1473.81506        35.80006
G07  22424940.83717    -53667.87617     -2872.90017        41.80017                                                                
G14  20247959.52906    102524.49906      -715.04806        40.90006  20247972.12125     84210.39025      -532.56725        31.70025
G13  22279722.26906   4036400.66006      1307.92906        40.70006                                                                
G05  22279707.28026     68134.57826     -1405.46526        39.50026                                                                
G22  20782162.10916    157537.51316       187.95516        36.00016                                                                
G17  23709319.48025    211751.87325      1472.75825        32.30025                                                                
G08  24312613.42823   2257993.69423     -3301.75423        18.70023                                                                
G09  23162380.51825    -90276.85625     -4542.08725        33.70025  23162389.21223   3354825.79123     -3382.57223        23.30023
G21  21519536.73506    708197.26106     -3079.58206        35.70006  21519549.62625   1284065.45725     -2298.76925        30.20025
C26  22058759.03907     66593.07907     -1209.76407        46.60007  22058770.13106    682924.36006      -911.64806        38.90006
R11  19612501.14807-104866307.08307     -1375.18607        46.30007
E29  23819581.34707    769503.52307      -280.65007        45.80007  23819593.03906    704926.69506      -209.45806        38.10006
E30  25591980.14106    620481.23506     -3696.85106        41.10006  25591995.43025    821641.99925     -2760.56025        33.50025
E27  23521677.88106    724395.96506     -1322.17306        40.40006  23521692.87124    861712.18124      -987.87924        28.50024
C21  22332271.39006    -19767.44806     -3121.35106        41.20006  22332282.18325    623027.70525     -2349.65125        31.20025
C07  38684550.84316     97183.06916      -790.12116        39.40016                                                                
R08  19244515.79906-103116688.85106     -2323.91206        36.30006
E07  24308942.17016    668512.38816     -2600.69116        40.40016  24308930.17825   1266196.29925     -1940.64725        31.30025
C14  24483331.14325    974538.91625      1112.40225        34.60025                                                                
R10  21009760.94515-112056741.71715     -4466.29115        35.40015
R12  22898456.72826-122382470.81926      1537.03526        35.50026
R07  22177811.12125-118782716.93625     -5361.47925        34.00025
C10  38624721.26215   1084918.56215      -584.60415        32.60015                                                                
R01  20756860.82425-111020385.88725      1590.07825        32.00025
C09  39219886.33825     47293.14825     -1585.04825        31.70025                                                                
E19  26347677.18323   1211277.27323       889.23323        23.00023                                                                
C29  26414052.13224   3440230.51824      -168.17024        23.80024                                                                
E21  25726584.85625   4070670.74125      1005.64625        34.50025  25726477.23024   2734448.29124       750.64924        28.20024
> 2025 09 29 13 19 57.9999999  0 29                      
G30  21002686.14307     10035.04307     -1966.83607        43.50007  21002702.63206     13718.01806     -1468.46506        35.70006
G07  22425170.47807    -56537.21807     -2865.18807        41.70007                                                                
G13  22279152.06406   4037712.25606      1315.73206        41.20006                                                                
G14  20247773.35806    101812.37106      -708.41706        41.20006  20247785.05025     83678.89325      -529.40625        31.80025
G05  22279642.22526     66733.94926     -1396.63426        39.20026                                                                
G21  21519808.34706    705121.16706     -3072.07306        35.70006  21519805.64924   1281769.14124     -2293.74524        29.20024
G22  20781800.55906    157729.55706       195.83906        35.70006                                                                
G09  23162925.84025    -94814.70425     -4533.63725        33.70025  23162946.52623   3351449.88223     -3369.45123        23.10023
G17  23708705.20525    213227.45825      1480.56125        32.30025                                                                
G08  24312939.60223   2254696.37823     -3291.41523        18.70023                                                                
C26  22058667.60207     65386.14807     -1203.16307        46.70007  22058679.89406    682014.83106      -906.70706        38.50006
E29  23819313.03307    769225.78107      -273.88407        46.10007  23819324.12506    704719.34906      -204.47706        37.70006
R11  19612438.49107-104867697.86607     -1368.57807        46.30007
E30  25592349.48506    616787.26206     -3690.16706        41.10006  25592373.76825    818883.77325     -2755.12425        33.30025
E27  23521604.43206    723077.02806     -1315.12406        40.60006  23521619.12224    860727.66024      -981.34424        28.20024
C21  22332551.39606    -22885.92606     -3114.83206        41.00006  22332558.29225    620678.87025     -2346.44825        31.10025
C07  38684391.65306     96398.73106      -779.47006        39.50006                                                                
E07  24309088.16806    665913.85606     -2594.20306        39.70006  24309101.65925   1264257.32025     -1936.12425        31.00025
R08  19244613.23106-103118939.17506     -2317.23806        36.20006
C14  24482790.31715    975652.93415      1117.63515        34.60015                                                                
R10  21010275.98915-112061207.38115     -4459.70115        35.20015
E21  25726028.44125   4071673.99025      1005.63325        34.40025  25725966.38424   2735197.48624       751.41424        27.80024
R12  22897783.69425-122380601.26725      1540.04525        35.20025
C10  38624517.40305   1084338.20505      -576.11105        32.90005                                                                
R07  22178477.55925-118788014.12425     -5360.05925        33.90025
R01  20756282.22525-111019019.05825      1597.87125        31.90025
C09  39219875.84525     45709.23025     -1581.60225        31.60025                                                                
E19  26347204.11023   1212171.99223       900.53323        22.90023                                                                
C29  26413757.73624   3440065.76324      -160.31624        23.60024                                                                
> 2025 09 29 13 19 59.0000001  0 29                      
G30  21002845.33307      8069.67807     -1962.74707        43.40007  21002861.82106     12250.29006     -1465.89206        35.70006
G13  22278684.68807   4039028.66007      1318.80607        41.70007                                                                
G07  22425502.94707    -59402.20207     -2862.80307        41.80007                                                                
G14  20247688.51706    101104.71206      -705.42506        41.40006  20247705.00625     83150.65325      -526.61125        33.00025
G05  22279687.19416     65339.31316     -1391.63816        38.80016                                                                
G21  21520166.29906    702049.77206     -3069.04206        35.60006  21520183.38725   1279475.77725     -2291.88625        29.60025
G22  20781552.03106    157926.06806       198.74406        35.60006                                                                
G09  23163564.09815    -99347.69715     -4530.56115        33.70015  23163591.08024   3348064.65224     -3389.88824        26.70024
G17  23708209.34815    214705.76515      1479.66615        32.40015                                                                
G08  24313352.41623   2251407.89523     -3284.06423        18.50023                                                                
C26  22058684.39107     64183.86607     -1199.95707        46.70007  22058695.48306    681108.74906      -904.35606        38.40006
E29  23819144.54907    768952.82107      -270.56707        46.40007  23819159.83916    704515.49816      -202.10316        37.00016
R11  19612481.96107-104869077.18507     -1365.46907        46.30007
E30  25592846.84106    613097.69006     -3687.36806        41.40006  25592861.23125    816128.63825     -2753.58725        33.20025
E27  23521644.60406    721762.67206     -1312.06406        40.80006  23521653.59825    859746.92325      -978.84325        29.90025
C07  38684340.98806     95619.84706      -776.15606        39.90006                                                                
C21  22332932.73206    -26000.04506     -3111.93506        40.80006  22332942.32625    618331.00425     -2347.37925        31.10025
E07  24309365.77606    663319.75806     -2592.12806        39.40006  24309383.46425   1262317.60125     -1940.08825        30.80025
R08  19244824.88506-103121221.68906     -2314.69506        36.30006
C14  24482366.11105    976771.96405      1121.53705        34.90005                                                                
R10  21010910.05005-112065731.78305     -4456.40605        35.10005
C10  38624400.78405   1083761.45605      -574.94505        33.50005                                                                
R12  22897319.91525-122379269.03725      1544.37325        35.00025
R01  20755739.90025-111017268.28625      1603.03325        31.80025
C09  39219960.08725     44132.66925     -1572.88025        31.50025                                                                
R07  22179251.62425-118793306.72125     -5355.15725        33.50025
E19  26346793.09523   1213074.12623       905.84023        22.90023                                                                
C29  26413561.07223   3439910.51523      -150.49523        23.40023                                                                
E21  25725662.99425   4072679.90625      1007.24825        34.30025  25725561.06524   2735948.73124       752.26924        27.50024
> 2025 09 29 13 20 00.0000000  0 29                      
G22  20781188.68206    158124.97006       200.09606        40.70006                                                                
G30  21002895.99807      6106.28807     -1962.39907        43.30007  21002909.48805     10784.14505     -1465.35205        35.00005
G13  22278113.88307   4040347.49607      1320.05007        42.20007                                                                
G14  20247498.14907    100399.39707      -704.14207        41.70007  20247517.33515     82623.93815      -525.95115        32.90015
G07  22425707.40607    -62264.74107     -2861.31407        41.80007                                                                
G05  22279628.43406     63946.36206     -1392.10806        38.50006                                                                
G21  21520430.71616    698980.11216     -3068.79016        35.50016  21520443.60725   1277181.82825     -2294.24125        29.60025
G09  23164099.82705   -103878.54105     -4529.76605        33.90005  23164122.31224   3344681.00424     -3382.85424        26.40024
G17  23707602.86805    216186.48505      1481.92505        32.80005                                                                
G08  24313643.51523   2248125.71623     -3279.02423        18.40023                                                                
C26  22058592.35407     62984.08007     -1198.53807        46.80007  22058604.04606    680204.65606      -903.09906        38.20006
E29  23818878.03407    768682.21707      -269.42707        46.40007  23818889.12606    704313.43906      -201.16306        36.70006
R11  19612413.90807-104870439.68107     -1364.37507        46.20007
E30  25593215.58607    609410.50107     -3685.99407        41.70007  25593232.67425    813376.25325     -2751.00725        32.90025
E27  23521569.65606    720450.85406     -1310.54906        40.90006  23521576.85124    858767.01524      -979.49424        29.20024
C07  38684164.41006     94842.69206      -776.29006        40.40006                                                                
C21  22333201.94606    -29111.50006     -3110.12006        40.80006  22333216.33625    615986.15125     -2343.34325        34.10025
E07  24309536.05806    660728.57706     -2589.72106        39.10006  24309556.74425   1260376.93425     -1941.13825        30.40025
R08  19244949.59906-103123620.66206     -2313.85706        36.50006
C14  24481820.48806    977893.27606      1122.45006        35.60006                                                                
C10  38624196.62525   1083187.31625      -572.83425        33.80025                                                                
R10  21011434.98625-112070253.13225     -4456.91125        34.90025
R12  22896706.24025-122377718.21125      1545.97425        34.70025
R01  20755112.73425-111015643.70725      1599.65525        31.70025
C09  39219937.30225     42558.59325     -1572.83325        31.50025                                                                
R07  22179920.16125-118798615.39825     -5348.60125        32.90025
E19  26346293.34123   1213978.59723       905.63823        22.90023                                                                
C29  26413267.87523   3439763.12723      -143.45723        23.20023                                                                
E21  25725135.35915   4073692.48515      1015.16015        34.30015  25725044.52224   2736705.23124       759.12824        27.10024
> 2025 09 29 13 20 01.0000000  0 29                      
G13  22277568.26007   4041670.70407      1326.14407        42.70007                                                                
G30  21002978.74007      4148.31307     -1955.26607        43.20007  21002991.93105      9322.06905     -1460.04005        35.00005
G14  20247341.35707     99699.26007      -697.54707        42.00007  20247356.04705     82100.99605      -521.05605        33.40005
G22  20780855.61307    158328.67307       206.85407        42.70007                                                                
G07  22425957.73307    -65121.64707     -2854.08607        41.70007                                                                
G05  22279601.75306     62558.28306     -1384.89006        38.30006                                                                
G21  21520730.20806    695915.92306     -3060.70106        35.50006  21520730.50825   1274885.62325     -2297.32925        29.50025
G17  23707026.96705    217671.81805      1488.38705        33.40005                                                                
G08  24313963.99323   2244850.48123     -3271.75923        18.20023                                                                
G09  23164668.23405   -108405.33405     -4524.01305        34.10005  23164696.71424   3341302.62824     -3375.73624        25.80024
E29  23818637.90007    768416.92007      -262.64407        46.70007  23818645.39506    704115.17906      -196.36006        36.40006
C26  22058525.50107     61789.40707     -1192.11407        46.80007  22058540.19006    679304.31906      -898.45706        38.00006
R11  19612373.43607-104871789.17507     -1358.09007        46.20007
E30  25593630.49807    605729.07807     -3678.53607        42.10007  25593639.79225    810627.32425     -2747.19825        31.70025
E27  23521522.88906    719144.12806     -1304.17806        40.90006  23521537.57814    857791.47814      -973.35014        29.00014
C21  22333505.63606    -32217.66106     -3103.51006        40.80006  22333519.72616    613645.44516     -2338.63216        36.50016
C07  38684012.71506     94070.54506      -769.64206        40.70006                                                                
E07  24309728.82506    658142.64006     -2583.31106        38.90006  24309756.10625   1258442.37225     -1931.50825        30.10025
R08  19245082.40706-103125900.10206     -2306.97206        36.60006
C14  24481324.93106    979018.98806      1127.91206        36.00006                                                                
C10  38624010.75415   1082619.08115      -565.28315        34.60015                                                                
R10  21011978.51025-112074711.17125     -4448.04725        34.70025
R12  22896120.74525-122376155.15225      1552.02125        34.40025
C09  39219971.17925     40988.97225     -1567.39225        31.40025                                                                
R01  20754526.64025-111014074.95525      1605.52025        31.60025
R07  22180651.95425-118804100.24125     -5350.85025        32.30025
E19  26345827.76323   1214887.14323       910.58423        22.80023                                                                
C29  26413010.65323   3439613.80123      -150.29523        23.10023                                                                
E21  25724652.99305   4074710.03305      1020.28105        34.10005  25724557.95924   2737465.59224       762.28924        26.70024
> 2025 09 29 13 20 01.9999999  0 29                      
G13  22277010.64607   4043002.99107      1336.57407        43.20007                                                                
G22  20780509.05307    158541.24407       216.75507        42.70007                                                                
G30  21003047.09327      2198.46727     -1945.77927        43.10027  21003058.48505      7866.17605     -1452.80005        35.00005
G14  20247167.77707     99007.57807      -687.45407        42.40007  20247184.26605     81584.73305      -512.92205        33.20005
G07  22426202.06307    -67969.43807     -2843.23207        41.70007                                                                
G17  23706427.38206    219165.73506      1497.95906        38.70006                                                                
G05  22279559.78206     61177.99206     -1376.64706        38.20006                                                                
G21  21521026.70325    692860.90625     -3051.42825        35.40025  21521009.91524   1272598.31824     -2282.85424        29.40024
G09  23165229.44505   -112923.06805     -4513.45005        34.10005  23165251.63024   3337938.20524     -3357.44424        25.30024
G08  24314270.38123   2241585.52723     -3259.81023        18.00023                                                                
E29  23818375.58207    768159.96007      -252.79107        46.90007  23818390.87106    703923.34506      -188.62106        36.20006
C26  22058450.25307     60603.13007     -1182.07907        46.70007  22058462.24406    678410.23806      -890.95306        37.90006
R11  19612318.57407-104873124.90907     -1347.90507        46.10007
E30  25594016.93107    602055.28607     -3669.97307        42.10007  25594034.91825    807889.95625     -2731.58625        31.60025
C21  22333803.33006    -35315.38206     -3093.49906        41.20006  22333810.22506    611310.97606     -2331.34706        35.90006
E27  23521460.83206    717845.94806     -1293.90506        41.10006  23521479.71824    856820.56624      -968.60024        28.90024
C07  38683843.63206     93305.99906      -760.74306        40.70006                                                                
E07  24309908.70006    655564.84106     -2573.72906        38.90006  24309936.58125   1256519.88725     -1916.44425        29.80025
R08  19245210.41806-103128217.85706     -2297.26906        36.90006
C14  24480799.09506    980153.29306      1138.60106        36.40006                                                                
C10  38623817.08805   1082059.45205      -555.32405        35.00005                                                                
E21  25724157.73605   4075735.62405      1029.61305        34.00005  25724057.90524   2738231.75224       769.06124        26.30024
R10  21012483.96025-112079030.40425     -4441.67425        34.50025
R12  22895491.18115-122374420.88615      1560.58615        34.20015
R01  20753928.25425-111012506.97625      1616.56125        31.60025
C09  39219961.58625     39429.51025     -1554.38025        31.40025                                                                
R07  22181364.86125-118809549.08725     -5330.91825        31.80025
C29  26412733.34523   3439469.52523      -141.75023        23.00023                                                                
E19  26345310.32123   1215800.99923       916.51023        22.80023                                                                
> 2025 09 29 13 20 03.0000000  0 29                      
G13  22276509.09407   4044342.35307      1342.89907        43.50007                                                                
G22  20780226.64807    158760.07907       221.96607        42.90007                                                                
G30  21003166.71027       256.31027     -1938.31127        43.00027  21003183.79805      6415.78705     -1447.63605        35.30005
G07  22426503.65507    -70810.10307     -2837.09907        41.70007                                                                
G05  22279592.15906     59804.94706     -1369.42006        38.00006                                                                
G17  23705899.14826    220667.80026      1505.38826        38.30026                                                                
G21  21521343.58425    689811.66825     -3046.09725        35.30025  21521344.78324   1270315.63724     -2280.36724        29.30024
G09  23165847.01805   -117433.73005     -4507.12205        34.10005  23165864.40624   3334571.62624     -3367.65524        25.10024
G08  24314627.13423   2238328.28023     -3253.39023        17.80023                                                                
G14  20247054.15607     98322.20607      -682.21607        42.60007  20247069.44515     81072.87315      -509.65815        33.00015
E29  23818184.01407    767910.12407      -246.27307        46.90007  23818193.60806    703736.76406      -183.95406        35.90006
C26  22058429.56707     59423.56807     -1176.20307        46.70007  22058444.85606    677521.34506      -886.29906        37.80006
R11  19612331.76507-104874502.69907     -1342.44507        46.10007
C21  22334145.69307    -38406.94307     -3088.47807        41.80007  22334158.88406    608981.29806     -2327.28106        35.80006
E30  25594471.11607    598388.97307     -3662.57207        42.00007  25594488.20525    805156.90725     -2730.88725        31.50025
E27  23521465.62806    716554.21406     -1288.51106        41.20006  23521478.81924    855854.41524      -963.76924        28.70024
C07  38683753.39506     92549.73206      -752.12806        40.60006                                                                
E07  24310174.91606    652994.54006     -2566.54906        38.90006  24310173.11724   1254606.45024     -1908.91224        28.80024
R08  19245393.59106-103130508.79906     -2292.31806        37.00006
C14  24480328.12106    981294.24006      1144.26606        36.60006                                                                
C10  38623678.58405   1081506.68505      -549.33605        35.10005                                                                
E21  25723705.34905   4076768.52405      1036.55305        34.50005  25723616.01124   2739005.28924       777.22424        26.00024
R12  22894962.64715-122372904.45515      1566.78015        34.00015
R01  20753323.57325-111010582.56725      1629.84725        31.50025
C09  39220028.43925     37877.19425     -1548.74225        31.40025                                                                
R10  21013081.14725-112083517.42625     -4433.72725        34.10025
R07  22182074.17025-118814654.79625     -5328.00825        31.50025
C29  26412513.89723   3439334.89223      -129.81223        23.10023                                                                
E19  26344924.78823   1216718.35223       919.10023        22.70023                                                                
> 2025 09 29 13 20 04.0000000  0 28                      
G13  22275960.17407   4045685.69907      1345.33707        43.90007                                                                
G22  20779889.68207    158981.68607       222.99407        43.10007                                                                
G14  20246888.67107     97639.70907      -681.05807        42.80007  20246907.25825     80564.08325      -507.25425        32.90025
G30  21003242.85817     -1682.60217     -1937.28717        42.90017  21003260.24506      4967.94406     -1446.56906        35.80006
G07  22426743.78827    -73647.75427     -2836.14127        41.70027                                                                
G05  22279553.18606     58433.83806     -1370.14006        37.90006                                                                
G17  23705351.12726    222171.49826      1504.76226        37.70026                                                                
G09  23166406.43105   -121940.67605     -4505.08405        34.10005  23166428.01624   3331204.99224     -3366.65724        24.70024
G21  21521620.29216    686764.69716     -3045.83316        35.50016  21521630.48525   1268040.44125     -2271.45025        32.80025
E29  23817933.68807    767663.82207      -244.53507        46.80007  23817948.37726    703549.60126      -187.45326        35.70026
C26  22058364.51207     58247.36707     -1174.51907        46.60007  22058376.80406    676635.02206      -885.03706        37.60006
R11  19612285.59707-104875823.14107     -1340.76107        46.00007
C21  22334446.68407    -41495.71007     -3087.36607        42.50007  22334458.07606    606653.54406     -2326.79006        35.70006
E30  25594879.73307    594725.83507     -3661.54507        42.00007  25594891.42525    802423.20925     -2734.01925        31.30025
E27  23521419.76006    715265.53906     -1287.14406        41.30006  23521433.85024    854890.71524      -962.47324        28.50024
C07  38683584.91106     91795.90106      -752.61206        40.50006                                                                
E07  24310372.18006    650427.46206     -2565.46406        38.90006  24310375.77724   1252691.27524     -1916.04124        28.60024
R08  19245521.90206-103132766.02306     -2291.16906        37.30006
C14  24479814.27706    982439.22006      1146.99606        36.60006                                                                
C10  38623484.01806   1080956.41506      -549.02106        35.60006                                                                
E21  25723220.58505   4077804.92705      1038.15305        34.60005  25723133.64524   2739781.60224       777.70024        25.60024
R12  22894379.55125-122371355.15625      1567.37125        33.80025
R07  22182792.77225-118820071.47025     -5325.52125        31.40025
R01  20752726.38625-111008956.45925      1625.46425        31.50025
C09  39220010.15225     36328.15925     -1547.39425        31.30025                                                                
R10  21013632.46525-112088019.70925     -4427.97725        33.20025
C29  26412245.88323   3439203.40423      -129.91523        23.10023                                                                
E19  26344458.61123   1217640.94923       925.21823        22.70023                                                                
> 2025 09 29 13 20 04.9999999  0 28                      
G13  22275398.06307   4047032.58007      1348.64707        43.90007                                                                
G22  20779543.72107    159206.15007       225.89207        43.20007                                                                
G14  20246715.09107     96960.16307      -678.07007        42.90007  20246727.68225     80055.63225      -508.28225        32.20025
G30  21003311.21007     -3618.11407     -1933.81107        42.80007  21003323.50206      3522.88506     -1443.66506        35.90006
G07  22426976.72717    -76482.24717     -2832.91117        41.60017                                                                
G05  22279499.22406     57066.53106     -1365.40606        37.70006                                                                
G21  21521892.80406    683720.50506     -3042.80006        36.00006  21521901.19825   1265768.10725     -2270.90225        32.50025
G09  23166955.95005   -126444.18405     -4501.78405        34.10005  23166981.13324   3327843.73124     -3358.57124        24.40024
G17  23704759.93626    223679.39426      1509.99526        37.10026                                                                
E29  23817677.66507    767421.15207      -240.85407        46.80007  23817687.85825    703366.61025      -180.90625        35.10025
C26  22058284.76707     57074.47507     -1171.23707        46.60007  22058298.25806    675751.02806      -882.82806        37.50006
R11  19612228.33707-104877144.35107     -1337.86207        46.00007
C21  22334736.88307    -44581.45407     -3084.23107        43.10007  22334745.57706    604327.98806     -2324.45506        35.50006
E30  25595270.96307    591066.77607     -3657.01707        41.90007  25595285.05325    799691.74825     -2730.34025        31.10025
E27  23521355.60406    713980.12706     -1283.77806        41.40006  23521371.19424    853932.91524      -954.84924        28.20024
C07  38683452.40306     91047.31906      -745.95806        40.50006                                                                
E07  24310543.06106    647863.39406     -2563.31106        38.90006  24310559.25025   1250776.96525     -1913.87625        30.40025
R08  19245652.01206-103135094.50906     -2288.26806        37.60006
C14  24479292.63806    983587.48006      1149.89906        36.60006                                                                
C10  38623285.85606   1080410.04306      -544.42206        35.80006                                                                
R12  22893785.66225-122369809.68225      1570.79025        33.60025
R07  22183496.98525-118825472.06325     -5322.94925        31.80025
C09  39220015.54825     34783.70225     -1542.16525        31.20025                                                                
R01  20752160.67825-111007560.57625      1628.67425        31.40025
R10  21014161.59925-112092464.02625     -4426.23425        32.60025
C29  26411967.67523   3439072.12523      -131.17423        23.00023                                                                
E19  26343970.54923   1218569.03123       930.82323        22.60023                                                                
E21  25722714.53505   4078844.87505      1041.71905        35.30005  25722629.69414   2740557.03414       774.99214        25.30014
> 2025 09 29 13 20 06.0000001  0 28                      
G13  22274916.29607   4048384.45507      1354.37107        43.90007                                                                
G22  20779262.81607    159435.39507       231.63407        43.30007                                                                
G30  21003441.02007     -5548.55207     -1927.89907        42.80007  21003455.71006      2081.37906     -1439.72706        35.70006
G07  22427292.40907    -79310.86207     -2825.67407        41.70007                                                                
G21  21522234.26706    680680.49006     -3037.92306        37.70006  21522250.75625   1263498.01225     -2268.97325        32.10025
G05  22279504.62026     55702.77626     -1362.72626        37.60026                                                                
G09  23167575.92105   -130944.08305     -4498.09005        34.10005  23167600.80424   3324485.65024     -3356.48924        24.20024
G17  23704236.49926    225193.68426      1517.48426        36.60026                                                                
G14  20246613.76107     96284.88307      -673.14607        43.10007  20246626.65225     79551.53225      -501.92325        32.20025
E29  23817487.59607    767183.04807      -235.82007        46.70007  23817500.48826    703188.66726      -175.41726        36.20026
C26  22058278.17207     55905.99407     -1166.27307        46.50007  22058290.16306    674870.38006      -878.97506        37.30006
R11  19612250.82107-104878509.13807     -1332.82607        45.90007
C21  22335095.13507    -47663.27707     -3079.85807        43.60007  22335103.53005    602005.55705     -2320.86605        35.10005
E30  25595735.94107    587411.71307     -3653.06107        42.10007  25595747.93225    796962.18825     -2728.60725        30.90025
E27  23521363.09907    712698.79507     -1279.29207        41.50007  23521383.48524    852977.28024      -954.55324        28.10024
C07  38683360.66706     90303.51406      -741.41406        40.50006                                                                
E07  24310809.87706    645303.01506     -2558.28106        38.90006  24310815.57325   1248864.99525     -1910.79825        30.10025
R08  19245838.78306-103137342.53706     -2283.80506        37.80006
C14  24478841.15126    984740.43126      1155.29526        36.60026                                                                
C10  38623157.54406   1079867.85106      -540.10106        35.80006                                                                
E21  25722270.24325   4079889.11725      1046.38925        35.30025  25722198.59224   2741336.83424       781.98224        28.90024
R12  22893275.71515-122368329.93015      1580.21715        33.50015
R07  22184256.65925-118830784.57125     -5318.70325        31.90025
C09  39220075.80725     33242.07925     -1540.20525        31.20025                                                                
R01  20751609.36025-111005859.51225      1628.91225        31.30025
R10  21014782.16925-112097013.59325     -4427.48525        32.10025
C29  26411762.31723   3438944.75223      -125.42023        23.00023                                                                
E19  26343559.83323   1219506.38823       941.99423        22.60023                                                                
> 2025 09 29 13 20 07.0000000  0 27                      
G13  22274349.98807   4049744.06607      1363.47707        43.80007                                                                
G14  20246433.88507     95617.16307      -663.94007        43.20007  20246447.97625     79054.78825      -493.06625        32.10025
G22  20778909.36007    159672.03707       239.59107        43.30007                                                                
G30  21003503.67707     -7472.02207     -1919.98407        42.70007  21003514.46915       645.30515     -1433.35815        35.00015
G07  22427516.05407    -82132.08907     -2817.53007        41.90007                                                                
G21  21522515.47306    677648.46406     -3028.02906        39.40006  21522522.66825   1261234.62225     -2260.03625        31.80025
G05  22279460.25126     54343.79226     -1356.34726        35.80026                                                                
G09  23168130.53725   -135436.99525     -4490.16425        34.00025  23168153.32124   3321131.24724     -3352.56024        23.90024
C26  22058197.22807     54745.37507     -1156.68807        46.50007  22058208.02006    673995.76206      -871.60106        37.20006
E29  23817226.47707    766952.79107      -226.33407        46.70007  23817239.66826    703016.88526      -168.70226        35.90026
R11  19612190.26307-104879815.05507     -1323.31507        45.90007
C21  22335381.13707    -50737.30307     -3070.12507        43.90007  22335389.83105    599688.89005     -2313.78205        34.80005
E30  25596123.87207    583764.35507     -3643.50307        42.60007  25596137.36325    794239.53525     -2719.19725        30.70025
E27  23521310.93507    711425.11907     -1269.84707        41.50007  23521320.82824    852025.95324      -949.17024        28.10024
C07  38683193.38206     89567.08506      -732.74106        40.40006                                                                
E07  24310987.05406    642751.41606     -2547.20806        38.90006  24310996.64725   1246959.10225     -1902.85325        30.90025
R08  19245960.19906-103139624.28006     -2274.83406        38.10006
C14  24478318.31316    985901.14016      1164.58716        36.60016                                                                
C10  38622957.58306   1079333.40606      -530.57206        35.80006                                                                
E21  25721771.38825   4080940.78625      1055.38025        35.20025  25721698.23924   2742121.30624       786.80924        28.20024
R12  22892629.66225-122366508.53625      1583.38025        33.40025
R07  22184968.96625-118836230.35425     -5304.41025        31.90025
C09  39220054.22125     31708.97925     -1528.83725        31.10025                                                                
R01  20750966.90525-111004054.42125      1645.81825        31.10025
R10  21015310.70325-112101457.14525     -4414.44325        31.70025
E19  26343070.27223   1220455.49323       954.97923        22.50023                                                                
C29  26411479.31323   3438825.71523      -114.86923        22.80023                                                                
> 2025 09 29 13 20 07.9999999  0 29                      
G14  20246254.61007     94953.19607      -662.09007        43.30007  20246271.09825     78559.15825      -495.07325        32.20025
G13  22273775.58607   4051108.53907      1366.90407        43.70007                                                                
G22  20778566.99707    159912.08507       242.00107        43.20007                                                                
G07  22427752.89007    -84948.75307     -2814.37907        42.60007                                                                
G30  21003562.73607     -9390.47307     -1915.94007        42.70007  21003577.72605      -787.28505     -1430.84605        35.20005
G21  21522777.79106    674619.98806     -3026.69806        39.80006  21522794.57925   1258973.63225     -2259.78725        31.60025
G05  22279413.48326     52991.76026     -1348.55526        35.50026                                                                
G17  23703058.01425    228249.30525      1530.83325        32.50025                                                                
G09  23168680.65615   -139923.55815     -4483.13515        33.90015  23168707.33824   3317777.58124     -3353.29524        23.60024
C26  22058113.58607     53588.96507     -1154.30407        46.60007  22058124.37806    673124.32906      -869.84106        37.00006
E29  23816962.36007    766727.05507      -223.47507        46.70007  23816977.94916    702848.36116      -166.89516        35.70016
R11  19612138.69907-104881166.84907     -1321.10507        45.80007
C21  22335663.24207    -53807.67807     -3068.54807        43.90007  22335675.83305    597375.14905     -2312.27605        34.70005
E30  25596507.90607    580121.29407     -3640.90807        42.60007  25596525.59425    791520.22025     -2717.64325        30.40025
E27  23521245.88007    710155.43707     -1267.68407        41.60007  23521255.77324    851078.28024      -945.84724        29.10024
C07  38683021.60106     88835.46906      -729.20906        40.80006                                                                
E07  24311192.41226    640205.30426     -2543.36626        39.00026  24311178.02225   1245055.61225     -1902.28625        30.60025
R08  19246079.51606-103141895.30106     -2273.16006        38.30006
C10  38622766.61506   1078803.84406      -527.11906        36.00006                                                                
C14  24477789.17906    987066.40006      1167.53506        36.50006                                                                
E21  25721270.13525   4081995.64125      1056.44825        35.10025  25721193.08924   2742910.85124       792.08024        27.60024
R12  22892062.45525-122365105.22525      1591.53225        33.30025
R07  22185626.71025-118841381.25325     -5308.82725        31.90025
C09  39220042.23025     30180.10525     -1526.75925        31.00025                                                                
C22  25479532.78624   5920190.77524     -4773.17724        28.70024                                                                
R10  21015820.35025-112105796.20825     -4417.35525        31.30025
E19  26342581.91023   1221411.13123       958.90323        22.50023                                                                
C29  26411198.70823   3438710.26223      -113.66223        22.70023                                                                
R01  20750379.31125-111002541.51625      1646.75825        29.70025
> 2025 09 29 13 20 09.0000000  0 28                      
G14  20246137.09107     94292.74107      -658.69907        43.50007  20246152.38025     78066.97525      -490.45925        32.20025
G07  22428043.08907    -87761.76707     -2811.18707        43.10007                                                                
G13  22273271.93507   4052476.50907      1369.71707        43.60007                                                                
G22  20778280.39607    160155.60907       245.26107        43.20007                                                                
G21  21523117.45606    671595.03906     -3023.18206        40.10006  21523124.65125   1256717.24525     -2254.08425        31.40025
G09  23169290.13405   -144406.95905     -4481.81605        33.90005  23169315.01723   3314425.26023     -3351.64523        23.40023
G05  22279426.07425     51644.20825     -1345.31225        35.10025                                                                
G17  23702526.48225    229780.13525      1530.82825        31.70025                                                                
G30  21003686.85007    -11304.92607     -1912.45207        42.70007  21003698.54205     -2216.84705     -1428.04705        35.20005
E29  23816764.79707    766504.97307      -220.25507        46.70007  23816776.48906    702682.44906      -164.60606        35.50006
C26  22058091.10107     52436.05907     -1151.15307        46.60007  22058101.89406    672255.53806      -867.46806        36.90006
R11  19612140.79707-104882486.53007     -1318.35407        45.80007
C21  22336010.10207    -56874.58307     -3065.16707        43.90007  22336020.59505    595063.90805     -2309.98905        34.50005
E30  25596960.29307    576482.07607     -3637.29407        42.60007  25596972.58525    788802.90925     -2716.30725        30.50025
E27  23521238.08607    708889.35407     -1264.28307        41.70007  23521254.27514    850132.74614      -944.46214        29.00014
C07  38682910.07906     88105.21006      -729.58006        40.70006                                                                
E07  24311414.85816    637661.34116     -2542.88516        39.00016  24311418.15525   1243155.19225     -1898.88425        30.30025
R08  19246268.08606-103144214.59206     -2269.80006        38.40006
C10  38622612.82226   1078279.32226      -522.00226        36.00026                                                                
R12  22891496.14715-122363386.24815      1591.32515        33.20015
R07  22186380.08925-118846724.40025     -5299.45825        31.80025
C09  39220086.59925     28653.50825     -1525.45825        30.90025                                                                
E21  25720837.23525   4083055.33425      1062.11025        34.20025  25720746.39824   2743701.84124       791.71324        27.10024
R10  21016412.44025-112110256.54225     -4408.12025        31.00025
C14  24477318.20526    988235.28226      1170.69126        36.20026                                                                
R01  20749896.04624-111001266.48624      1644.14524        28.80024
E19  26342173.29323   1222365.13023       953.18023        22.50023                                                                
C29  26410983.15723   3438598.40423      -110.06023        22.60023                                                                
> 2025 09 29 13 20 09.9999999  0 28                      
G14  20245955.71707     93635.31407      -655.91107        43.70007  20245971.30625     77575.44025      -491.21125        34.10025
G07  22428264.63507    -90571.24407     -2807.70507        43.10007                                                                
G30  21003745.01007    -13216.10207     -1909.53607        42.70007  21003755.50315     -3643.89815     -1425.79515        34.70015
G22  20777926.04107    160402.22207       248.15707        43.10007                                                                
G13  22272717.01917   4053848.28617      1372.93017        42.60017                                                                
G09  23169836.95605   -148886.73205     -4477.95505        33.80005  23169859.44024   3311075.53324     -3348.42824        24.00024
G05  22279385.90225     50299.24425     -1343.66825        34.80025                                                                
G17  23701924.19925    231311.10225      1531.03525        31.10025                                                                
G21  21523384.87106    668572.97506     -3020.61906        40.10006  21523396.86225   1254461.18325     -2255.89825        31.30025
E29  23816497.38207    766286.12807      -217.22607        46.70007  23816513.57105    702519.08105      -162.09605        35.40005
C26  22058005.06107     51286.34107     -1148.12307        46.60007  22058018.25206    671389.09806      -865.26506        36.90006
R11  19612080.83907-104883793.97607     -1315.15207        45.70007
C21  22336294.00507    -59938.45907     -3062.35807        44.20007  22336303.59905    592755.00705     -2307.72905        35.10005
E30  25597349.42407    572846.23407     -3634.15007        42.60007  25597358.71715    786087.83915     -2713.94615        33.00015
E27  23521178.12707    707626.52907     -1261.19507        41.70007  23521189.22015    849189.50515      -942.09515        31.10015
C07  38682748.79006     87380.04206      -722.62106        40.60006                                                                
E07  24311575.24706    635120.11306     -2539.85906        39.00006  24311597.73125   1241257.46725     -1896.37625        30.20025
R08  19246389.20206-103146495.57006     -2267.05606        38.40006
C10  38622411.66126   1077755.06026      -524.13326        35.90026                                                                
R12  22890916.04925-122361916.43925      1595.61225        33.10025
R07  22187041.73125-118851898.20225     -5302.70125        31.80025
E21  25720334.78325   4084118.16125      1064.39425        33.70025  25720237.35024   2744495.33224       794.74024        26.80024
C09  39220077.30525     27134.32625     -1515.47325        30.80025                                                                
C14  24476804.06125    989404.70625      1169.69525        35.10025                                                                
R10  21016940.37525-112114696.28325     -4405.36025        30.70025
R01  20749260.18624-110999496.58224      1649.32324        28.00024
E19  26341672.04023   1223319.65123       954.78123        22.40023                                                                
C29  26410676.46923   3438490.42623      -106.03823        22.50023                                                                
> 2025 09 29 13 20 11.0000000  0 28                      
G14  20245836.69907     92984.84107      -646.99607        43.90007  20245849.29025     77089.12925      -483.69925        35.10025
G07  22428553.33607    -93373.87107     -2799.20007        43.30007                                                                
G30  21003861.62907    -15119.89507     -1900.10007        42.80007  21003870.02325     -5068.83025     -1423.87125        33.70025
G22  20777636.14207    160656.09607       257.50407        43.00007                                                                
G21  21523709.84606    665558.13406     -3011.22606        40.20006  21523723.33625   1252210.33025     -2248.24725        30.90025
G13  22272224.76027   4055226.84527      1382.19827        41.80027                                                                
G09  23170422.75025   -153358.41125     -4467.62825        33.80025  23170463.52224   3307734.93324     -3336.03424        26.10024
G05  22279407.78725     48956.79625     -1341.19025        34.50025                                                                
G17  23701375.57925    232851.25625      1544.74525        30.60025                                                                
E29  23816294.72207    766074.89507      -207.42607        46.90007  23816308.51306    702361.42206      -154.80406        39.40006
C26  22057979.27907     50143.98007     -1138.68207        46.60007  22057993.06906    670528.26006      -858.03506        36.80006
R11  19612082.33807-104885110.59607     -1306.18407        45.70007
C21  22336635.46907    -62995.30507     -3053.32807        44.60007  22336645.66206    590451.37606     -2300.99406        36.20006
E30  25597789.51907    569217.70007     -3624.87807        42.70007  25597805.70805    783378.20505     -2706.91505        32.60005
E27  23521161.63907    706370.65307     -1252.39907        41.70007  23521184.42315    848251.74215      -935.02215        30.90015
C07  38682634.56906     86660.95806      -716.04206        40.50006                                                                
E07  24311826.47306    632585.99206     -2530.56506        39.20006  24311828.27225   1239363.89225     -1891.49825        30.00025
R08  19246560.38406-103148722.91306     -2258.64506        38.40006
C10  38622260.26626   1077238.55726      -512.62226        35.80026                                                                
R12  22890331.45315-122360100.39015      1606.24615        33.00015
R07  22187812.79725-118857335.54725     -5288.11825        31.70025
C14  24476311.20225    990580.63225      1179.17625        34.30025                                                                
C09  39220116.57825     25622.09725     -1508.75225        30.60025                                                                
E21  25719854.51525   4085187.45225      1072.52225        33.10025  25719790.65924   2745295.41324       803.37624        26.40024
R10  21017492.89225-112118946.10025     -4393.97925        30.40025
R01  20748704.67124-110997835.28724      1656.52824        27.40024
E19  26341225.34923   1224275.90023       957.11123        22.40023                                                                
C29  26410480.10523   3438388.52123       -98.86823        22.40023                                                                
> 2025 09 29 13 20 11.9999999  0 28                      
G14  20245656.22407     92341.76207      -639.38207        43.90007  20245666.71715     76608.90215      -477.18515        34.90015
G07  22428780.27907    -96168.60707     -2790.78907        43.70007                                                                
G30  21003918.89007    -17015.97907     -1892.22707        43.40007  21003929.68215     -6485.47115     -1412.49415        34.60015
G22  20777274.89207    160917.09107       264.55507        42.90007                                                                
G21  21523973.06406    662550.24906     -3004.40506        40.20006  21523992.25025   1249963.80225     -2244.36225        30.90025
G13  22271651.85626   4056614.46326      1392.14626        41.00026                                                                
G09  23170989.65825   -157824.69225     -4463.57825        33.90025  23171010.64324   3304399.32124     -3333.11424        25.60024
G05  22279352.32525     47625.83025     -1325.22325        34.20025                                                                
G17  23700768.20025    234400.38625      1553.61825        30.30025                                                                
E29  23816028.20707    765871.14507      -200.00807        46.90007  23816042.59706    702209.17306      -149.54406        38.90006
C26  22057893.83807     49008.99107     -1131.30107        46.50007  22057906.72906    669672.81306      -852.75206        36.90006
R11  19612019.38207-104886403.51507     -1299.34207        45.60007
C21  22336915.17507    -66044.74107     -3045.72907        44.70007  22336926.86706    588153.27606     -2295.33206        36.00006
E30  25598165.75907    565597.22107     -3616.44807        43.00007  25598190.34215    780674.41315     -2700.86715        32.40015
E27  23521101.68007    705122.41707     -1244.41607        41.70007  23521115.17125    847319.93125      -928.83425        30.80025
C07  38682447.49906     85947.64006      -710.43506        40.50006                                                                
E07  24312030.33206    630061.11106     -2519.50906        39.40006  24312005.14925   1237477.05825     -1883.46125        29.70025
R08  19246676.40306-103150976.30706     -2250.82706        38.40006
C10  38622057.90626   1076730.46126      -503.89326        35.70026                                                                
R12  22889762.44725-122358690.20125      1613.91925        33.00025
R07  22188464.54625-118862455.80825     -5282.06425        31.60025
E21  25719376.34625   4086266.18525      1083.45225        32.60025  25719281.61224   2746100.27324       807.24924        26.10024
C14  24475808.75025    991764.45225      1187.76525        33.60025                                                                
C09  39220091.69625     24118.46725     -1499.32825        30.50025                                                                
R10  21018001.64025-112123282.11425     -4385.38025        30.20025
R01  20748077.50524-110996112.80524      1671.33124        27.00024
C29  26410193.80323   3438296.56723       -86.97923        22.40023                                                                
E19  26340733.39023   1225238.53023       965.81923        22.40023                                                                
> 2025 09 29 13 20 13.0000000  0 28                      
G14  20245550.99707     91701.95807      -638.16507        44.10007  20245563.58805     76131.15605      -476.50405        34.70005
G30  21004052.29707    -18909.15207     -1890.96607        43.80007  21004064.28905     -7898.62105     -1411.40305        34.70005
G07  22429083.96807    -98959.27507     -2788.63107        43.70007                                                                
G22  20777001.78107    161181.11607       265.54107        42.90007                                                                
G21  21524322.92106    659545.82406     -3002.69106        40.10006  21524327.71825   1247719.28825     -2243.50625        30.10025
G13  22271176.68526   4058002.63926      1388.45326        40.30026                                                                
G09  23171613.22625   -162284.57425     -4456.67925        33.90025  23171633.91224   3301065.38924     -3333.09024        25.30024
G05  22279374.51025     46296.93625     -1327.85725        34.00025                                                                
G17  23700260.35125    235954.51125      1556.62025        30.10025                                                                
E29  23815842.63507    765670.77607      -198.67907        46.90007  23815854.32706    702059.65406      -148.15306        38.60006
C26  22057881.54607     47877.36707     -1129.94107        46.50007  22057896.83606    668820.04306      -851.42906        39.00006
R11  19612037.66907-104887709.43707     -1297.16707        45.40007
C21  22337276.42507    -69090.98607     -3044.64707        44.70007  22337284.82006    585857.73106     -2294.26606        36.60006
E30  25598639.73007    561979.39807     -3615.74207        43.00007  25598652.62225    777972.43525     -2701.07025        32.10025
E27  23521117.56907    703877.19407     -1243.71507        41.60007  23521126.86325    846393.04025      -924.43025        30.70025
C07  38682363.85706     85238.55606      -706.96606        40.30006                                                                
E07  24312249.18006    627540.29406     -2519.78306        39.40006  24312261.77125   1235593.80525     -1881.46125        29.60025
R08  19246870.96806-103153230.47806     -2250.47006        38.60006
C10  38621939.48826   1076225.98026      -502.67326        35.70026                                                                
R12  22889236.31125-122357088.17025      1614.20525        33.00025
R07  22189243.40625-118867836.48525     -5280.24425        31.50025
E21  25718899.07725   4087351.01725      1087.88125        32.20025  25718849.01124   2746905.37924       805.22824        25.90024
C14  24475358.76225    992951.06525      1188.00925        33.00025                                                                
C09  39220161.24725     22616.92425     -1500.49925        30.30025                                                                
R10  21018593.73025-112127644.82625     -4388.72525        29.90025
R01  20747517.79224-110994329.90824      1668.30424        26.70024
E19  26340317.87723   1226206.47223       970.59823        22.50023                                                                
C29  26409956.06823   3438211.26023       -81.98323        22.30023                                                                
> 2025 09 29 13 20 13.9999999  0 28                      
G14  20245365.72507     91061.58207      -640.66107        44.20007  20245381.61415     75653.09215      -478.22415        34.40015
G07  22429315.10807   -101749.01007     -2789.26507        43.80007                                                                
G30  21004103.56207    -20802.00807     -1892.94507        43.80007  21004117.05225     -9317.36225     -1421.53625        33.10025
G22  20776641.73007    161444.44007       262.97307        42.80007                                                                
G21  21524591.23606    656541.57006     -3004.16606        40.00006  21524604.42625   1245475.47325     -2243.46325        31.10025
G13  22270608.87826   4059387.70426      1383.50926        39.60026                                                                
G09  23172146.55715   -166745.20215     -4460.99615        33.90015  23172178.63524   3297732.22424     -3332.77824        25.20024
G05  22279309.75525     44970.81425     -1324.73425        33.80025                                                                
G17  23699678.75425    237506.45225      1550.84825        29.90025                                                                
C26  22057797.30507     46745.75807     -1131.60007        46.60007  22057809.29606    667967.36506      -852.63206        39.10006
E29  23815578.21807    765470.90607      -199.62007        46.80007  23815587.51206    701910.38306      -149.14706        38.30006
R11  19611976.51107-104889010.77007     -1299.47707        45.30007
C21  22337554.63307    -72137.68107     -3046.91707        44.70007  22337566.02506    583561.79206     -2296.13306        36.40006
E30  25599018.06907    558362.01807     -3617.40507        42.90007  25599037.85525    775270.63025     -2701.71525        31.80025
E27  23521048.01707    702631.85907     -1245.39007        41.60007  23521059.70925    845463.22825      -931.27325        30.50025
E07  24312427.25726    625017.36226     -2523.73726        39.40026  24312435.35125   1233709.69825     -1884.53325        32.40025
C07  38682191.17626     84528.74926      -710.16726        40.10026                                                                
R08  19246988.48706-103155490.77506     -2252.65806        38.80006
C10  38621727.23516   1075722.25116      -503.35216        35.60016                                                                
R12  22888628.03325-122355465.50225      1612.13425        33.00025
R07  22189941.02325-118873201.85025     -5281.99425        31.50025
E21  25718323.47525   4088429.97725      1076.02425        31.90025  25718342.36224   2747710.77824       805.54524        25.70024
C09  39220136.36525     21115.05525     -1502.03025        30.20025                                                                
C14  24474808.04325    994136.27125      1184.50125        32.40025                                                                
R10  21019092.88525-112131929.73825     -4388.25125        29.60025
R01  20746980.26424-110993084.70624      1666.45224        26.40024
E19  26339817.52423   1227179.06523       974.91723        23.20023                                                                
C29  26409676.06223   3438128.37723       -81.67223        22.20023                                                                
> 2025 09 29 13 20 15.0000001  0 27                      
G14  20245270.99107     90421.14507      -640.46707        44.40007  20245288.37805     75174.66005      -478.61405        34.30005
G07  22429636.78607   -104538.96707     -2790.06507        43.90007                                                                
G22  20776380.31107    161707.94907       263.60007        42.70007                                                                
G21  21524955.78306    653537.43106     -3004.07906        40.00006  21524961.77925   1243231.90525     -2243.44225        31.40025
G09  23172774.92215   -171206.21915     -4461.20815        33.90015  23172814.19524   3294397.50024     -3335.50024        25.10024
G05  22279348.12815     43639.66815     -1333.65715        33.70015                                                                
G17  23699146.02325    239056.01325      1548.36925        29.80025                                                                
C26  22057799.10307     45614.29207     -1131.39207        46.80007  22057811.39506    667114.52006      -852.92806        39.00006
E29  23815400.14207    765271.04807      -199.85207        46.70007  23815410.63406    701761.01106      -149.42306        38.00006
R11  19612001.99407-104890295.28307     -1299.70607        45.30007
C21  22337925.17607    -75184.63407     -3047.07907        44.70007  22337935.06906    581265.41406     -2296.59606        38.10006
E27  23521072.00107    701386.41307     -1245.50107        41.70007  23521081.59425    844534.91425      -927.56425        30.50025
E07  24312678.48316    622494.14316     -2523.36116        39.40016  24312701.26725   1231824.67725     -1885.47625        32.10025
R08  19247192.94606-103157736.51106     -2253.06306        39.10006
C07  38682137.81326     83821.40826      -706.10826        39.90026                                                                
E30  25599501.03407    554744.57107     -3617.47607        41.90007  25599508.52925    772568.94125     -2701.62925        31.50025
C10  38621597.42426   1075220.03626      -501.45826        35.60026                                                                
R12  22888099.49815-122353791.62415      1612.12215        33.20015
R07  22190702.79625-118878430.87325     -5286.73525        31.40025
C09  39220215.21025     19613.09525     -1502.00425        30.10025                                                                
C14  24474341.56625    995317.40925      1179.10325        31.80025                                                                
R01  20746433.74324-110991313.27724      1665.92224        26.10024
R10  21019702.36324-112136323.72124     -4386.54824        28.90024
E19  26339427.49424   1228153.17224       974.86424        23.70024  26339455.07523   4568632.64623       720.33023        20.80023
C29  26409474.90123   3438046.45223       -81.44623        22.00023                                                                
E21  25717902.56725   4089508.39325      1078.14325        31.70025  25717920.85424   2748512.55624       799.96624        25.60024
G30                                                                  21004263.65125    -10731.18525     -1411.36225        32.80025
> 2025 09 29 13 20 16.0000000  0 29                      
G14  20245089.91607     89779.98007      -641.52907        44.60007  20245105.80515     74696.91415      -477.40415        34.30015
G07  22429867.02607   -107328.82307     -2789.80407        44.00007                                                                
G22  20776024.45807    161970.35107       261.84807        42.70007                                                                
G21  21525215.40326    650534.41926     -3002.44526        39.80026  21525232.79125   1240986.76725     -2245.92225        31.30025
G30  21004305.02217    -24587.28017     -1891.95117        42.10017  21004320.01225    -12144.25025     -1412.68425        33.70025
G09  23173316.04725   -175668.36225     -4462.70325        33.80025  23173349.32424   3291061.49124     -3336.64824        24.90024
G05  22279295.66515     42309.67715     -1329.41215        33.60015                                                                
G13  22269571.89626   4062169.29126      1392.54726        35.50026                                                                
G17  23698518.55725    240610.06025      1556.28925        29.70025                                                                
G08  24319274.51723   6326923.23423     -3260.72723        18.70023                                                                
C26  22057711.86407     44482.49307     -1131.96607        46.80007  22057724.75506    666261.55106      -853.03006        38.70006
E29  23815133.32607    765070.97107      -200.93707        46.60007  23815144.41916    701611.65416      -149.34916        37.80016
R11  19611940.23607-104891592.79207     -1299.58507        45.20007
C21  22338206.68107    -78232.19607     -3047.86407        44.60007  22338216.57406    578968.86806     -2296.62806        37.80006
E27  23521003.94807    700140.29007     -1246.45907        41.80007  23521012.34225    843604.41025      -931.59725        30.70025
E07  24312861.95606    619971.07006     -2522.24706        39.50006  24312878.14525   1229939.32125     -1885.52325        31.90025
R08  19247314.96106-103160021.32706     -2254.61406        39.40006
C10  38621385.17116   1074715.81016      -505.23116        35.60016                                                                
E30  25599884.46906    551127.98106     -3616.15806        40.90006  25599898.25925    769863.73725     -2706.95925        31.10025
C07  38681945.34616     83112.34216      -709.92716        38.80016                                                                
R12  22887464.83825-122352028.31825      1612.10025        33.20025
E21  25717384.22525   4090585.07325      1075.81125        31.70025  25717410.90724   2749314.36724       801.82824        25.40024
R07  22191360.54125-118883581.77025     -5280.85625        31.40025
C09  39220198.12225     18112.44125     -1500.00025        30.00025                                                                
C14  24473817.22925    996507.07825      1193.93425        31.30025                                                                
R01  20745733.42824-110989197.66124      1667.31224        25.90024
R10  21020215.00824-112140681.08724     -4384.78124        28.10024
C29  26409195.19523   3437965.76623       -80.06523        21.90023                                                                
E19                                                                  26338964.61423   4569361.56523       733.21323        20.80023
> 2025 09 29 13 20 16.9999998  0 29                      
G14  20244876.46407     89138.84307      -641.12207        44.70007  20244893.55205     74218.03005      -479.45105        34.60005
G07  22430067.58707   -110118.42007     -2789.46507        44.00007                                                                
G22  20775639.82407    162233.28107       263.19407        42.60007                                                                
G17  23697876.70115    242165.05615      1555.47015        35.40015                                                                
G21  21525459.43526    647530.79826     -3003.92226        39.50026  21525472.62525   1238741.00925     -2246.06625        31.30025
G05  22279212.02205     40980.18705     -1329.23905        33.60005                                                                
G09  23173847.57915   -180129.26515     -4460.27815        33.80015  23173841.58324   3287725.43524     -3336.07824        24.80024
G13  22268956.42225   4063560.70125      1391.40925        34.60025                                                                
G08  24319551.52523   6323664.60223     -3258.62823        19.40023                                                                
G30  21004333.20306    -26479.12706     -1891.84506        41.40006  21004348.49225    -13558.15025     -1414.31825        33.70025
C26  22057596.14407     43350.99407     -1131.34707        46.70007  22057606.33706    665408.86306      -852.54706        38.00006
E29  23814831.13507    764871.21907      -199.33907        46.40007  23814848.52316    701462.50116      -149.05016        37.60016
C21  22338455.80907    -81279.60507     -3047.32907        44.60007  22338467.50106    576672.22706     -2296.68606        37.60006
R11  19611852.39707-104892911.71107     -1300.42207        45.10007
E27  23520905.61607    698894.45807     -1245.68707        42.00007  23520916.10925    842674.75325      -929.23425        30.70025
E07  24313012.15206    617447.37606     -2524.25306        39.70006  24313024.14425   1228053.58125     -1885.93025        31.80025
R08  19247399.50306-103162264.76706     -2254.09306        39.60006
C10  38621156.73006   1074211.59606      -504.20806        35.50006                                                                
E30  25600229.53026    547510.28626     -3618.24626        39.90026  25600252.31425    767157.44825     -2706.82925        30.00025
R12  22886849.66415-122350529.47115      1611.13815        33.20015
C07  38681743.58606     82401.99306      -710.99106        38.00006                                                                
R07  22192034.17425-118888979.30125     -5285.41725        31.40025
E21  25716834.10625   4091662.66125      1078.04225        32.20025  25716876.37724   2750110.33324       793.04324        25.30024
C09  39220145.05925     16609.03925     -1504.77325        30.10025                                                                
C14  24473254.21925    997698.51625      1192.32225        31.00025                                                                
R01  20745069.08824-110987435.41324      1664.30724        25.60024
R10  21020681.18524-112144949.99024     -4383.31724        27.50024
C29  26408894.80323   3437886.96523       -77.85923        21.70023                                                                
E19  26338396.50824   6796346.91624       976.36724        25.60024  26338440.57723   4570093.25623       733.07623        21.00023
> 2025 09 29 13 20 17.9999999  0 29                      
G14  20244775.43407     88494.30307      -646.24107        44.80007  20244789.52405     73736.79505      -482.41105        35.00005
G07  22430369.47807   -112909.73607     -2792.17407        43.90007                                                                
G22  20775364.31507    162492.41007       257.22807        42.60007                                                                
G30  21004462.41306    -28373.71806     -1895.96206        40.80006  21004482.79925    -14974.11525     -1416.99525        33.30025
G21  21525794.00316    644522.32816     -3010.89216        38.90016  21525815.88825   1236492.58125     -2249.76225        30.60025
G17  23697374.54925    243717.78425      1551.59125        35.10025                                                                
G05  22279250.99505     39647.33705     -1334.52905        33.60005                                                                
G09  23174456.75715   -184594.12615     -4466.83715        33.70015  23174493.03224   3284390.27724     -3334.70524        28.00024
G13  22268450.37325   4064946.37925      1382.81025        33.90025                                                                
G08  24319940.95523   6320405.80723     -3258.87423        19.40023                                                                
C26  22057587.75007     42216.40907     -1136.12707        46.60007  22057597.64306    664554.10806      -855.78806        37.60006
E29  23814645.56407    764668.87207      -203.64507        46.30007  23814659.95406    701311.43306      -152.02606        37.20006
C21  22338816.15907    -84330.40307     -3052.49107        44.60007  22338827.25206    574373.20206     -2300.21606        37.40006
R11  19611867.68707-104894204.64007     -1305.27607        45.00007
E27  23520918.80707    697645.23407     -1250.91807        42.10007  23520928.10025    841742.12125      -934.11725        30.70025
R08  19247589.87106-103164497.48706     -2259.72206        39.70006
E07  24313259.18116    614921.71116     -2526.64816        39.70016  24313279.56715   1226167.02815     -1886.95815        32.20015
C10  38621023.02226   1073704.84026      -508.02626        35.50026                                                                
E30  25600710.69726    543891.33226     -3619.57926        39.00026  25600721.78925    764443.66225     -2717.53225        29.70025
R12  22886322.62925-122348924.38825      1606.78725        33.30025
C07  38681667.73916     81690.39716      -712.21916        37.30016                                                                
E21  25716422.79115   4092737.95215      1074.89215        32.30015  25716447.37424   2750898.38424       784.09224        25.10024
R07  22192810.33725-118894346.96725     -5288.49825        31.70025
C14  24472825.51525    998884.97425      1183.96625        30.90025                                                                
C09  39220222.70525     15106.42225     -1502.22425        30.10025                                                                
R10  21021306.55224-112149490.41524     -4391.23624        27.00024
R01  20744572.03224-110985989.05624      1663.61424        25.50024
C29  26408669.95823   3437802.53823       -87.24023        21.50023                                                                
E19  26338002.88024   6940042.40924       972.08724        28.70024  26338026.56424   4570820.39124       724.85824        24.10024
> 2025 09 29 13 20 18.9999998  0 29                      
G14  20244596.75707     87844.80107      -651.98307        44.80007  20244608.14905     73251.86205      -486.78105        34.70005
G07  22430601.21807   -115705.27807     -2796.90207        43.90007                                                                
G22  20775009.06107    162747.18607       252.59907        42.60007                                                                
G30  21004534.66326    -30273.94526     -1903.04326        40.30026  21004538.26125    -16393.03925     -1420.40425        33.50025
G21  21526066.21406    641508.28206     -3016.83206        38.50006  21526083.30325   1234241.38525     -2252.57825        35.20025
G05  22279212.62225     38309.70925     -1340.01525        33.90025                                                                
G09  23175018.86825   -189062.47425     -4470.08725        33.60025  23175040.15424   3281052.52424     -3339.04824        27.70024
G17  23696763.57225    245268.41925      1549.58825        34.80025                                                                
G13  22267893.95825   4066327.59125      1378.97825        33.40025                                                                
G08  24320247.34323   6317144.90923     -3261.94723        19.40023                                                                
C26  22057499.31107     41077.14907     -1141.59607        46.50007  22057511.00306    663695.30506      -860.82506        36.80006
E29  23814379.94807    764461.62707      -209.69407        46.10007  23814394.03806    701156.70506      -156.55706        36.70006
C21  22339097.06507    -87386.19007     -3058.27907        44.70007  22339108.75706    572070.43306     -2304.63806        37.10006
R11  19611806.82907-104895507.50507     -1310.26507        44.90007
E27  23520845.35807    696391.29307     -1256.29907        42.10007  23520858.54825    840806.79625      -936.67225        30.00025
R08  19247708.28906-103166763.14906     -2265.51906        39.90006
E07  24313440.25606    612390.27906     -2534.31306        39.70006  24313456.74405   1224276.57005     -1892.40805        35.00005
R07  22193495.96226-118899647.99626     -5296.48426        38.90026
C10  38620820.96216   1073192.82016      -514.65216        35.50016                                                                
E30  25601109.42126    540268.93026     -3624.12326        38.20026  25601113.01824    761727.38024     -2717.52724        29.30024
R12  22885707.45425-122347265.03425      1599.70625        33.40025
C07  38681514.24526     80976.99226      -714.30926        36.60026                                                                
E21  25715914.94315   4093810.10615      1069.58415        32.60015  25715938.32624   2751684.16124       784.63924        24.90024
E19  26337500.72825   6941012.57525       970.16525        31.40025  26337539.70124   4571542.23424       719.19524        23.80024
C09  39220208.91425     13600.99725     -1506.82725        30.20025                                                                
C14  24472312.57125   1000066.90425      1179.66425        30.80025                                                                
R10  21021830.59024-112153907.28724     -4398.77224        26.80024
R01  20744015.31724-110984641.36324      1665.54524        25.30024
C29  26408379.16023   3437706.74323      -101.47823        21.30023                                                                
> 2025 09 29 13 20 20.0000000  0 28                      
G14  20244484.33507     87189.03407      -658.89807        44.70007  20244500.22405     72761.74305      -492.71205        34.50005
G07  22430904.90807   -118506.40507     -2804.16707        43.80007                                                                
G22  20774723.05817    162995.04417       244.39917        42.60017                                                                
G30  21004656.07926    -32180.46726     -1909.66826        39.90026  21004669.27025    -17816.62225     -1425.91125        33.90025
G21  21526410.97626    638488.34726     -3022.87526        38.20026  21526427.16515   1231986.10815     -2257.31515        34.60015
G09  23175622.95015   -193537.81315     -4478.82915        33.30015  23175657.72625   3277710.63525     -3343.95325        32.00025
G05  22279233.00825     36964.27825     -1349.33225        33.90025                                                                
G17  23696248.82825    246813.69625      1542.59725        34.30025                                                                
G13  22267408.59425   4067702.39825      1371.60325        33.10025                                                                
G08  24320636.77423   6313878.24723     -3269.53923        19.40023                                                                
E29  23814188.08107    764248.10007      -216.66807        46.00007  23814202.17116    700997.29116      -161.75816        36.40016
C26  22057487.91907     39931.69407     -1148.55307        46.30007  22057499.31106    662832.13806      -865.34906        36.70006
C21  22339453.21807    -90447.67007     -3064.32207        44.70007  22339464.01106    569762.85006     -2309.98806        36.80006
E27  23520851.95307    695130.74607     -1263.84907        42.10007  23520869.04125    839865.37925      -944.46125        30.00025
R11  19611821.81807-104896831.01107     -1319.06607        44.10007
E07  24313688.78406    609852.18906     -2541.41806        39.80006  24313704.67315   1222381.22015     -1897.79415        34.70015
R08  19247896.85806-103169020.38106     -2273.72306        39.90006
R07  22194221.46016-118904777.44616     -5300.65616        38.40016
C10  38620683.05706   1072675.63406      -519.76906        35.50006                                                                
R12  22885182.21825-122345703.51225      1592.56125        33.50025
C07  38681407.21926     80254.19126      -727.49826        36.00026                                                                
E21  25715461.35725   4094874.32525      1061.25025        32.60025  25715501.22924   2752472.41224       789.48724        24.70024
E19  26337124.18825   6941976.26025       960.44425        31.40025  26337125.38724   4572261.22324       717.56324        23.50024
C14  24471819.41225   1001243.74725      1174.30025        30.70025                                                                
C09  39220270.97125     12091.52425     -1511.49625        30.20025                                                                
R10  21022422.08024-112158302.03024     -4403.40824        26.70024
R01  20743476.59024-110983006.85024      1654.05624        25.10024
E30  25601552.21426    536638.88626     -3634.61126        37.50026  25601573.79924    759010.20324     -2717.62224        28.90024
> 2025 09 29 13 20 20.9999999  0 28                      
G30  21004712.14016    -34088.09116     -1908.17216        39.90016  21004725.33116    -19241.75516     -1425.90616        35.80016
G14  20244305.05907     86530.73007      -659.57207        44.70007  20244320.04905     72270.51705      -491.77805        34.80005
G07  22431128.85307   -121310.03907     -2804.88407        43.80007                                                                
G22  20774371.70217    163241.66717       246.00517        42.50017                                                                
G21  21526678.09126    635465.35326     -3024.52126        37.90026  21526699.37625   1229728.32825     -2259.03025        34.10025
G09  23176179.66505   -198014.75305     -4477.73805        33.80005  23176205.44725   3274368.11925     -3342.82725        31.20025
G05  22279182.94325     35615.28625     -1350.77125        33.80025                                                                
G17  23695659.13725    248352.05625      1534.90025        34.00025                                                                
G13  22266835.69025   4069077.39325      1375.08925        32.80025                                                                
G08  24320943.46123   6310609.37023     -3269.98223        19.30023                                                                
E29  23813924.26307    764031.32507      -217.64907        45.80007  23813938.65316    700836.51016      -161.46316        36.30016
C26  22057406.67527     38784.45227     -1148.13427        46.00027  22057413.57006    661967.49206      -865.38506        36.10006
C21  22339739.22027    -93511.97527     -3065.71527        44.60027  22339746.71516    567453.41516     -2310.35916        36.20016
E27  23520788.39707    693868.15707     -1263.61007        42.10007  23520805.78525    838922.91725      -942.98425        30.00025
R11  19611761.56007-104898138.46007     -1318.08407        43.60007
R08  19248020.67306-103171315.92306     -2273.90106        39.80006
E07  24313866.56006    607313.71406     -2538.66406        39.80006  24313882.15015   1220484.24015     -1897.79415        34.30015
R07  22194916.67906-118910132.08506     -5300.47206        38.20006
C10  38620468.40625   1072157.97225      -517.89925        35.40025                                                                
R12  22884586.83025-122344151.92425      1592.30025        33.70025
C07  38681240.83416     79531.18316      -723.11216        35.50016                                                                
E21  25714961.30325   4095939.43025      1065.29825        32.50025  25714995.17924   2753261.50724       789.51624        24.50024
E30  25601932.35126    533004.49926     -3636.30526        36.70026  25601957.83324    756292.20624     -2718.40524        28.40024
E19  26336624.43425   6942931.92225       951.64925        31.30025  26336637.02623   4572981.54123       720.98023        23.30023
C14  24471280.08525   1002417.50625      1172.21525        30.60025                                                                
C09  39220247.28825     10577.59625     -1516.15325        30.10025                                                                
R10  21022943.71924-112162708.21224     -4401.25824        26.60024
R01  20742764.28324-110980828.52024      1648.12124        25.00024
> 2025 09 29 13 20 21.9999998  0 28                      
G07  22431355.49607   -124111.94407     -2801.03807        44.00007                                                                
G14  20244125.18407     85872.56707      -658.09207        44.60007  20244141.67215     71779.08815      -491.53215        34.70015
G30  21004769.70107    -35994.46907     -1905.75507        44.80007  21004783.79116    -20665.40416     -1422.90616        38.50016
G21  21526956.29826    632446.67226     -3016.52226        37.50026  21526971.28825   1227472.17925     -2255.33025        33.70025
G22  20774037.43317    163488.43417       246.83917        42.30017                                                                
G05  22279140.07225     34268.52925     -1345.63825        33.80025                                                                
G17  23695050.25825    249893.40825      1542.84625        33.80025                                                                
G13  22266273.87925   4070453.29025      1376.34625        32.60025                                                                
G08  24321262.74023   6307344.32423     -3263.12823        19.30023                                                                
G09  23176729.18426   -202491.77326     -4477.05426        36.00026  23176753.46725   3271026.26725     -3341.51725        30.70025
C21  22340023.42417    -96575.41517     -3063.00517        44.50017  22340031.51826    565145.01926     -2307.87426        36.10026
E27  23520727.23907    692606.00107     -1261.93807        42.20007  23520741.62925    837980.79725      -941.94925        30.00025
R11  19611704.59907-104899461.96707     -1317.48207        43.20007
R08  19248134.59406-103173557.06406     -2272.76806        39.80006
E07  24314059.62706    604776.04406     -2538.01606        39.70006  24314062.32525   1218589.68425     -1893.34225        34.00025
C26  22057320.03517     37637.28717     -1147.12517        45.10017  22057329.92806    661103.19906      -864.11506        36.00006
R07  22195579.22006-118915309.02706     -5297.65806        38.00006
C10  38620281.93525   1071642.64225      -514.16425        35.30025                                                                
R12  22883995.34025-122342618.68125      1599.27225        33.70025
C07  38681061.55825     78809.14225      -721.55625        35.10025                                                                
E21  25714475.93925   4097001.93625      1061.20525        32.40025  25714492.72724   2754056.85824       798.47924        24.20024
E29  23813664.64327    763814.34727      -217.32927        44.40027  23813675.73526    700676.47526      -159.66326        36.10026
C09  39220216.40925      9065.65125     -1510.95225        30.10025                                                                
C14  24470746.75525   1003590.86925      1173.16525        30.50025                                                                
E30  25602316.98526    529371.05526     -3632.97026        35.60026  25602340.66824    753573.83024     -2718.56424        27.90024
E19  26336127.97825   6943892.42125       962.91725        31.00025  26336144.16723   4573706.08023       726.65023        23.00023
R10  21023473.75224-112167157.10924     -4397.03224        26.60024
R01  20742163.19924-110979243.71324      1650.85624        24.80024
> 2025 09 29 13 20 23.0000000  0 28                      
G30  21004918.09807    -37903.53107     -1910.40207        44.70007  21004933.08706    -22091.04506     -1426.63606        38.00006
G07  22431668.17927   -126918.38727     -2809.46027        44.00027                                                                
G14  20244032.84807     85211.67107      -662.26107        44.50007  20244053.53325     71284.92025      -495.53625        34.70025
G22  20773772.41727    163731.50427       241.22127        41.80027                                                                
G09  23177367.74216   -206970.42916     -4479.47116        36.40016  23177391.42625   3267680.98725     -3346.99025        30.40025
G17  23694540.31115    251431.51815      1536.48815        33.70015                                                                
G05  22279170.35125     32920.82225     -1348.18125        33.70025                                                                
G13  22265797.80925   4071824.29325      1368.55525        32.50025                                                                
G08  24321668.35923   6304079.37623     -3264.89523        19.30023                                                                
G21  21527323.54426    629420.41126     -3030.04726        37.20026  21527329.54025   1225210.99225     -2263.70525        33.20025
C21  22340397.86427    -99642.98527     -3069.63127        44.30027  22340406.55826    562836.15726     -2309.09326        35.90026
E27  23520750.32307    691341.03707     -1266.36707        42.20007  23520768.01125    837034.40525      -948.52725        29.70025
R11  19611737.87627-104900787.00327     -1323.08227        42.70027
C26  22057326.93007     36487.86307     -1150.55307        44.10007  22057336.22416    660236.94316      -867.23616        35.90016
R08  19248348.64606-103175852.60706     -2277.63506        39.80006
E07  24314320.44626    602234.35726     -2542.69426        39.60026  24314331.83825   1216693.87925     -1896.42725        33.70025
R07  22196354.18406-118920605.45506     -5303.26506        37.90006
C10  38620169.81325   1071121.90125      -523.44725        35.20025                                                                
E29  23813500.65727    763593.80327      -222.32727        43.10027  23813504.55426    700514.23826      -163.33826        35.80026
C07  38680993.50525     78082.38125      -729.12025        34.80025                                                                
R12  22883467.70525-122340947.09625      1589.76525        33.60025
E21  25714078.71425   4098063.28325      1060.76725        32.40025  25714080.21324   2754848.68424       790.06324        24.00024
C09  39220299.15225      7549.82525     -1517.76625        30.10025                                                                
E30  25602796.35325    525737.14425     -3634.14125        34.70025                                                                
C14  24470342.33525   1004759.94825      1166.93525        30.40025                                                                
E19  26335734.05125   6944852.16725       959.36925        30.70025                                                                
R10  21024079.33324-112171530.50324     -4402.12824        26.80024
R01  20741675.13724-110977782.05824      1654.83724        24.70024
> 2025 09 29 13 20 23.9999999  0 28                      
G30  21004956.47107    -39816.34107     -1914.68207        44.60007  21004974.15916    -23519.13316     -1429.30916        37.60016
G07  22431885.52917   -129727.85317     -2810.72417        44.00017                                                                
G14  20243841.28027     84548.39127      -664.47227        44.40027  20243855.37125     70788.17625      -498.03125        34.10025
G22  20773395.27826    163972.80226       240.41226        41.40026                                                                
G09  23177903.77106   -211451.66506     -4482.52206        36.60006  23177919.36025   3264333.50325     -3348.58425        33.80025
G21  21527566.67626    626392.14626     -3029.26526        36.90026  21527578.66725   1222948.03925     -2263.83325        32.40025
G17  23693928.73425    252964.83125      1530.91325        33.70025                                                                
G05  22279109.19425     31566.96825     -1356.92725        33.70025                                                                
G13  22265215.91225   4073193.61325      1368.47725        32.40025                                                                
G08  24321967.25223   6300810.11823     -3271.41023        19.30023                                                                
C21  22340667.37827   -102711.42727     -3068.87627        44.00027  22340671.27525    560522.29725     -2316.35725        35.40025
E27  23520664.58307    690072.67207     -1270.06507        42.20007  23520689.46625    836087.55725      -947.07525        29.50025
R11  19611663.22817-104902115.09717     -1324.39917        42.30017
C26  22057222.30307     35335.48207     -1153.86007        43.60007  22057234.29406    659368.52106      -869.50506        35.70006
R08  19248449.37606-103178122.86406     -2281.19106        39.80006
E07  24314480.53516    599689.67716     -2547.17316        39.50016  24314493.42625   1214794.07725     -1901.79925        33.40025
R07  22197041.30806-118926015.23906     -5305.89306        37.70006
C10  38619939.57215   1070598.11915      -525.30115        35.10015                                                                
C07  38680801.03925     77350.73425      -734.09025        34.70025                                                                
R12  22882874.71515-122339505.57215      1589.02915        33.60015
E21  25713513.60525   4099122.64125      1058.36325        32.30025  25713558.87424   2755633.83924       781.81824        23.70024
C09  39220267.97325      6030.47525     -1521.10925        30.50025                                                                
E30  25603164.49825    522097.94825     -3641.83625        33.90025                                                                
C14  24469809.00425   1005925.18925      1163.32225        30.30025                                                                
R10  21024597.07424-112176012.95824     -4409.02024        27.20024
E19  26335221.40625   6945807.78725       953.55625        30.00025                                                                
R01  20741029.68424-110976060.35324      1639.50224        24.50024
E29  23813217.35327    763369.49527      -226.19027        41.50027  23813228.14526    700343.91126      -174.37126        35.50026
> 2025 09 29 13 20 25.0000000  0 28                      
G30  21005096.77407    -41732.62907     -1918.02607        44.50007  21005111.76426    -24943.49426     -1422.49726        37.30026
G07  22432189.21907   -132540.10707     -2813.64607        43.90007                                                                
G14  20243742.34927     83880.28827      -670.51327        43.20027  20243757.93825     70289.91925      -499.01325        34.00025
G22  20773130.26116    164207.99816       232.14516        41.00016                                                                
G21  21527916.83326    623361.86026     -3031.29326        36.60026  21527932.12325   1220685.40925     -2262.46725        32.00025
G05  22279138.87325     30208.21425     -1361.20225        33.60025                                                                
G17  23693415.49025    254494.58225      1527.96925        33.60025                                                                
G13  22264739.54225   4074555.32225      1357.90325        32.30025                                                                
G08  24322360.28023   6297534.11723     -3279.36923        19.30023                                                                
G09  23178524.64106   -215938.36206     -4488.67406        36.80006  23178548.62525   3260983.59425     -3351.11825        33.40025
C21  22341029.52727   -105784.70927     -3075.69927        43.80027  22341035.82325    558205.67625     -2317.99925        34.80025
E27  23520686.76707    688800.49707     -1274.07807        42.10007  23520702.95624    835129.00524      -964.40424        29.20024
C26  22057219.60507     34178.85407     -1158.75007        43.20007  22057230.09706    658496.76406      -873.42306        36.00006
R11  19611683.91407-104903435.55007     -1330.40007        42.10007
C09  39220334.82716      4507.45616     -1524.85316        35.50016                                                                
R08  19248640.64306-103180360.17906     -2285.05706        39.70006
E07  24314749.14916    597142.24016     -2548.56416        39.40016  24314752.14725   1212893.14725     -1901.49225        33.10025
R07  22197796.48506-118931268.78406     -5313.09406        37.60006
C10  38619811.26125   1070072.79225      -526.09925        35.10025                                                                
C07  38680715.29825     76616.51025      -735.51225        34.70025                                                                
R12  22882309.30705-122337695.65005      1582.47405        33.60005
E29  23813047.07126    763144.39326      -225.49826        40.00026  23813039.57625    700171.23725      -173.84825        33.40025
E30  25603639.66925    518457.54425     -3641.00525        33.30025                                                                
C14  24469374.30525   1007084.97725      1157.05925        30.20025                                                                
R10  21025197.85824-112180422.20124     -4409.63124        27.20024
E19  26334804.09424   6946759.79124       950.19624        29.20024                                                                
R01  20740548.21724-110974695.83824      1631.26524        24.40024
E21  25713144.56025   4100178.40125      1053.96025        32.20025  25713133.16824   2756420.98224       788.13724        23.50024
> 2025 09 29 13 20 26.0000000  0 28                      
G30  21005171.42207    -43651.20307     -1919.71507        44.40007  21005184.01426    -26374.16926     -1433.83126        37.00026
G07  22432432.05027   -135356.38727     -2818.29027        43.90027                                                                
G14  20243575.06517     83208.99817      -672.88317        42.70017  20243587.05625     69794.09325      -494.61025        33.50025
G22  20772793.59406    164441.13406       232.10606        40.60006                                                                
G09  23179080.75626   -220428.44226     -4492.76726        37.10026  23179109.23725   3257631.23525     -3353.58025        33.10025
G21  21528208.53126    620327.63926     -3036.18626        36.30026  21528217.22525   1218418.83525     -2268.54425        32.60025
G05  22279102.89825     28847.56225     -1361.60025        33.60025                                                                
G17  23692831.49425    256021.60825      1525.66125        33.50025                                                                
G13  22264183.12725   4075911.05825      1352.74825        32.10025                                                                
G08  24322733.22223   6294251.78323     -3285.49823        19.20023                                                                
E27  23520638.50107    687525.41107     -1276.54107        42.10007  23520645.99624    834171.88124      -956.40924        28.60024
C26  22057150.05307     33019.54207     -1160.65307        42.90007  22057158.74716    657623.00616      -874.75916        35.50016
R11  19611638.64507-104904759.81707     -1332.40707        42.00007
C21  22341331.11827   -108861.26727     -3078.19327        42.80027  22341333.81625    555887.98325     -2318.22725        34.70025
R08  19248782.74506-103182690.96506     -2289.29606        39.60006
C09  39220332.42906      2981.94406     -1526.75606        39.20006                                                                
E07  24314941.61626    594589.62726     -2555.19726        39.30026  24314941.91625   1210986.69025     -1909.21825        32.80025
R07  22198511.19006-118936664.77806     -5314.06706        37.40006
C10  38619622.39225   1069543.76725      -530.87425        35.20025                                                                
C07  38680570.19825     75880.07625      -737.53825        34.60025                                                                
R12  22881748.09525-122336263.29225      1584.86925        33.60025
E29  23812786.85126    762916.90526      -228.68226        38.80026  23812789.84925    700000.43625      -169.86425        33.20025
E21  25712614.82725   4101229.02225      1048.05025        32.00025  25712644.20723   2757209.91523       789.82623        23.30023
C14  24468870.95325   1008241.69225      1155.17825        30.10025                                                                
E30  25604038.09325    514812.86025     -3646.81925        32.70025                                                                
R10  21025727.89124-112184810.07424     -4410.73824        27.10024
E19  26334348.71024   6947712.34524       952.82724        28.50024                                                                
R01  20739953.42924-110973083.49624      1637.96524        24.20024
> 2025 09 29 13 20 26.9999999  0 28                      
G30  21005233.18007    -45570.71807     -1919.98207        44.30007  21005246.37126    -27802.41126     -1427.02326        36.60026
G07  22432657.49417   -138173.41417     -2817.39817        43.80017                                                                
G14  20243398.18707     82536.92907      -672.45807        42.50007  20243414.07625     69292.18325      -504.95125        33.50025
G22  20772438.94006    164672.95206       231.16006        40.30006                                                                
G09  23179636.57216   -224919.32516     -4491.03016        37.10016  23179657.55725   3254278.94825     -3352.24825        32.90025
G21  21528490.33616    617291.55516     -3037.01316        36.00016  21528490.63615   1216151.22615     -2268.12515        32.30015
G05  22279068.42225     27485.11525     -1363.34425        33.50025                                                                
G17  23692210.32425    257546.37725      1523.64025        33.40025                                                                
G13  22263626.41225   4077271.48325      1362.76825        31.90025                                                                
G08  24323059.09723   6290965.35023     -3288.48023        19.20023                                                                
E27  23520572.84607    686249.41807     -1276.44507        42.10007  23520586.93625    833219.00425      -950.75225        32.30025
R11  19611581.98407-104906085.61907     -1332.62707        41.80007
C26  22057070.30807     31860.65807     -1158.66907        42.60007  22057077.80305    656748.97805      -874.16005        35.30005
C21  22341608.42617   -111938.25717     -3077.20317        42.30017  22341619.81825    553572.75825     -2313.98825        34.60025
R08  19248905.36006-103184977.31506     -2289.04806        39.50006
C09  39220319.83806      1456.30606     -1525.70006        39.20006                                                                
E07  24315110.39916    592038.01516     -2550.36116        39.10016  24315123.29025   1209080.61025     -1905.89025        32.80025
R07  22199183.62506-118941893.80506     -5314.34606        37.30006
C10  38619431.12425   1069014.27225      -529.72825        35.20025                                                                
C07  38680410.10915     75145.16015      -734.15615        34.50015                                                                
R12  22881146.11225-122334674.25825      1582.44825        33.60025
E29  23812509.54326    762689.78226      -226.93926        37.70026  23812525.73125    699830.60125      -169.35325        32.90025
E21  25712125.26625   4102282.80125      1055.35725        31.90025  25712144.15323   2757955.92923       724.55523        23.00023
C14  24468313.33925   1009399.12025      1157.78425        29.90025                                                                
E30  25604435.61825    511168.18125     -3644.67525        32.10025                                                                
R10  21026238.13824-112189153.72424     -4409.63724        27.10024
E19  26333859.44824   6948668.11424       957.37724        27.80024                                                                
R01  20739316.97024-110971309.00924      1637.05024        24.10024
> 2025 09 29 13 20 28.0000000  0 28                      
G30  21005352.79707    -47494.83007     -1926.40907        44.20007  21005364.18926    -29237.20126     -1438.06326        36.40026
G07  22432948.29307   -140995.17807     -2824.13007        43.70007                                                                
G14  20243283.36707     81859.42207      -680.22607        42.30007  20243299.55525     68784.12225      -511.13625        33.40025
G22  20772156.83506    164899.55806       223.99906        40.10006                                                                
G09  23180234.65706   -229414.47406     -4497.27906        37.00006  23180270.93225   3250921.47325     -3360.06625        32.80025
G21  21528820.70806    614249.78606     -3044.60906        35.80006  21528824.00505   1213879.59605     -2273.63805        31.90005
G05  22279079.51425     26116.71325     -1371.37825        33.50025                                                                
G13  22263136.55125   4078627.93225      1354.46125        31.80025                                                                
G17  23691681.19025    259065.30625      1516.00725        32.30025                                                                
G08  24323413.75123   6287671.06423     -3298.20923        19.10023                                                                
E27  23520574.04507    684968.53307     -1283.33007        42.00007  23520586.63725    832263.74425      -956.45025        31.80025
R11  19611596.37427-104907469.53427     -1344.51627        41.70027
C26  22057050.22217     30696.38417     -1166.96717        42.30017  22057057.71725    655876.08325      -872.32825        35.00025
C21  22341962.18107   -115019.01407     -3082.63907        41.80007  22341966.07925    551249.30025     -2327.57425        34.30025
R08  19249082.83706-103187238.38106     -2296.79406        39.50006
C09  39220372.00106       -73.66906     -1532.14206        39.10006                                                                
E07  24315353.53106    589482.31406     -2558.74306        39.10006  24315366.12225   1207173.04625     -1908.30425        32.60025
R07  22199951.39306-118947313.55206     -5321.77606        37.10006
C10  38619274.33315   1068479.22815      -537.81915        35.30015                                                                
C07  38680316.57415     74404.54515      -743.46515        34.50015                                                                
R12  22880590.59715-122333013.37615      1571.71115        33.60015
E29  23812299.08826    762456.47026      -236.40726        36.70026  23812320.97325    699663.05225      -166.40625        32.50025
E21  25711676.17725   4103330.19025      1044.19425        31.80025  25711696.26323   2758724.55523       779.93123        22.80023
E30  25604878.11225   7929378.05425     -3650.05425        31.40025                                                                
C14  24467819.58125   1010554.89725      1154.95025        29.80025                                                                
R10  21026825.13224-112193585.84624     -4423.81624        27.60024
R01  20738785.13824-110969774.69424      1632.89724        24.00024
E19  26333422.05124   6949625.74424       958.55824        27.10024                                                                
> 2025 09 29 13 20 28.9999999  0 27                      
G30  21005416.35307    -49424.02407     -1931.73407        44.10007  21005428.34526    -30677.85026     -1443.57726        36.20026
G07  22433180.63217   -143821.41417     -2828.46917        43.50017                                                                
G14  20243108.28807     81176.86407      -685.08107        42.20007  20243123.57725     68274.40625      -510.54425        34.70025
G22  20771806.67706    165120.84106       218.62206        39.90006                                                                
G09  23180802.16526   -233913.89526     -4501.55326        37.00026  23180818.95325   3247559.60625     -3364.06025        32.70025
G21  21529098.01626    611203.21526     -3048.96926        35.50026  21529101.91315   1211603.84115     -2277.81515        31.70015
G05  22279015.05925     24743.50625     -1375.60825        33.40025                                                                
G17  23691103.19125    260579.06225      1511.16925        31.50025                                                                
G08  24323730.63223   6284366.44823     -3309.77823        19.00023                                                                
E27  23520510.19017    683682.81617     -1288.13217        42.00017  23520525.17925    831299.17225      -969.22725        31.10025
C26  22056966.58007     29525.93807     -1173.53107        42.00007  22056976.47325    654997.70425      -881.12025        34.70025
C21  22342238.29007   -118106.18107     -3090.36807        41.50007  22342258.67625    548919.84825     -2332.44625        34.10025
R11  19611534.61716-104908768.57316     -1344.55016        41.00016
E07  24315529.50906    586921.18606     -2563.58806        39.10006  24315548.09625   1205261.12525     -1914.09725        35.30025
R08  19249215.94506-103189584.49406     -2301.75306        39.40006
C09  39220366.00626     -1607.31726     -1535.48426        39.10026                                                                
R07  22200653.80706-118952704.95906     -5328.34106        37.00006
C10  38619077.36906   1067940.33206      -540.82206        35.80006                                                                
R10  21027339.87625-112197955.42625     -4426.33925        30.70025
C07  38680142.09525     73660.51325      -745.74025        34.50025                                                                
R12  22879999.10605-122331483.19105      1571.10305        33.90005
E29  23812051.46026    762219.48926      -238.81526        35.90026  23812059.25425    699491.40225      -173.70125        32.10025
E21  25711157.53625   4104370.18225      1036.29225        31.70025  25711189.91423   2759503.70723       784.41323        22.50023
C14  24467317.42925   1011702.88625      1144.09425        29.60025                                                                
E30  25605278.03525   7925726.68125     -3651.37025        30.40025                                                                
R01  20738201.14224-110968281.68524      1619.91924        23.90024
E19  26332936.08824   6950576.14424       946.78624        26.50024                                                                
> 2025 09 29 13 20 30.0000000  0 27                      
G30  21005537.76907    -51357.12407     -1935.05107        44.10007  21005552.45926    -32122.01326     -1445.91826        36.00026
G07  22433476.22807   -146651.26607     -2831.65707        43.40007                                                                
G14  20242987.47107     80491.66307      -686.52307        42.10007  20243009.05625     67763.31325      -511.78025        33.20025
G22  20771530.26906    165339.23406       216.94806        39.80006                                                                
G09  23181409.54426   -238419.99326     -4509.43326        36.90026  23181433.82725   3244196.83125     -3363.22525        32.50025
G21  21529408.60125    608154.28125     -3050.11325        35.30025  21529433.48325   1209327.62225     -2276.44925        30.70025
G05  22279032.74725     23368.53425     -1375.85225        33.40025                                                                
G17  23690577.65425    262092.15525      1512.75925        30.90025                                                                
G13  22262071.08924   4081331.96224      1350.82424        28.00024                                                                
G08  24324118.56323   6281056.07523     -3313.24823        19.00023                                                                
C26  22056945.89407     28352.29907     -1175.23507        42.00007  22056957.88625    654113.23725      -887.51125        34.50025
C21  22342594.14406   -121196.69206     -3092.18206        41.20006  22342603.43725    546590.68925     -2329.01025        33.50025
R11  19611544.51006-104910128.01506     -1348.86406        40.80006
E07  24315764.54606    584356.43406     -2566.56206        39.10006  24315790.02915   1203345.72715     -1917.13415        35.00015
C09  39220417.27016     -3145.29316     -1540.13816        39.00016                                                                
C10  38618933.16906   1067397.22206      -545.21606        36.50006                                                                
C07  38680048.56025     72911.61925      -751.32525        34.40025                                                                
R12  22879466.97505-122329946.89105      1566.53105        34.10005
E27  23520506.89227    682393.31227     -1290.64627        41.60027  23520527.87725    830336.17225      -962.21425        30.70025
R10  21027913.07915-112202315.08415     -4429.40415        33.30015
E29  23811850.89925    761978.43325      -243.09325        35.30025  23811863.49025    699314.32725      -179.78725        31.60025
E21  25710737.82725   4105407.11425      1035.40225        31.60025  25710738.12623   2760285.89923       783.71223        22.30023
R08  19249418.30526-103191977.34226     -2304.29526        39.20026
C14  24466901.91625   1012848.59625      1144.56925        29.50025                                                                
E30  25605709.43624   7922071.38024     -3657.26124        29.40024                                                                
R01  20737644.12824-110966611.98624      1616.58724        23.80024
E19  26332493.29424   6951520.76124       941.72424        25.80024                                                                
> 2025 09 29 13 20 30.9999999  0 28                      
G30  21005598.32707    -53285.78807     -1926.44407        44.70007  21005612.71725    -33565.52325     -1443.18325        35.20025
G07  22433708.26707   -149476.46107     -2822.11407        43.30007                                                                
G14  20242818.98807     79809.66907      -680.38907        42.00007  20242832.77825     67254.84025      -507.16325        32.00025
G22  20771181.01106    165561.15406       223.68306        39.70006                                                                
G21  21529716.48725    605108.33525     -3044.44925        35.10025  21529711.99125   1207051.99725     -2275.32725        30.60025
G05  22279001.26815     21995.73115     -1371.71915        33.40015                                                                
G09  23181937.17926   -242926.97326     -4507.41626        36.60026  23181984.54625   3240836.64625     -3358.88725        32.20025
G13  22261525.76624   4082687.11124      1355.14924        27.90024                                                                
G17  23689968.47625    263608.00625      1517.23025        30.30025                                                                
G08  24324467.22223   6277748.55923     -3306.08523        18.90023                                                                
C26  22056861.35307     27181.63007     -1169.18407        42.20007  22056877.54126    653231.20326      -880.81626        37.00026
R11  19611489.04906-104911459.92806     -1342.27506        41.30006
C21  22342887.34106   -124283.30006     -3084.65306        41.10006  22342890.03925    544266.38025     -2321.88125        33.00025
E07  24315959.41206    581797.11506     -2556.59906        39.40006  24315972.00306   1201434.22706     -1909.55006        35.50006
C09  39220398.98306     -4677.23506     -1528.92306        38.80006                                                                
C10  38618730.80906   1066859.68906      -534.74506        37.10006                                                                
E27  23520454.42816    681109.16116     -1281.72316        40.60016  23520467.31925    829385.10225      -945.10525        30.20025
C07  38679870.48315     72168.69015      -739.94515        34.40015                                                                
R08  19249534.92426-103194233.03626     -2297.12526        38.00026
R12  22878838.61025-122328217.97325      1576.50625        34.10025
R10  21028456.00315-112206832.62215     -4420.56715        33.10015
E29  23811597.27425    761739.32925      -238.12825        34.70025  23811606.86825    699140.79625      -171.75825        31.20025
E21  25710224.28225   4106451.51025      1048.12725        31.60025  25710234.47523   2761071.59323       787.44623        22.10023
R07  22202077.52225-118963267.16525     -5319.07525        33.30025
C14  24466370.08424   1013999.64724      1153.72124        29.30024                                                                
E30  25606127.34724   7918418.87624     -3651.10224        28.70024                                                                
R01  20737025.35624-110964933.86224      1625.23324        23.70024
E19  26331995.63924   6952466.65124       946.52524        25.30024                                                                
> 2025 09 29 13 20 31.9999999  0 29                      
G30  21005673.57507    -55211.71107     -1924.55107        45.20007  21005687.66525    -35005.10425     -1437.61425        34.70025
G07  22433951.09907   -152297.46807     -2819.16007        43.30007                                                                
G14  20242658.29907     79132.76707      -674.35607        41.80007  20242674.48825     66746.75125      -507.89625        31.90025
G22  20770848.24126    165789.12226       230.99326        39.60026                                                                
G05  22278964.69425     20624.18125     -1370.92125        33.90025                                                                
G21  21530000.99025    602068.98825     -3036.04425        34.90025  21529997.39325   1204784.32425     -2263.69425        30.40025
G09  23182527.17026   -247425.88726     -4494.87726        35.60026  23182517.87725   3237477.89925     -3358.02525        30.90025
G13  22260972.05024   4084048.77024      1364.91124        27.90024                                                                
G17  23689392.57525    265124.31125      1516.52925        29.80025                                                                
G08  24324781.70423   6274447.91223     -3297.21023        18.90023                                                                
C26  22056797.79727     26015.18327     -1164.33427        42.20027  22056808.58916    652352.05516      -877.70316        36.60016
R11  19611444.08026-104912785.72426     -1339.47326        41.40026
C21  22343179.03906   -127363.98506     -3077.72006        41.00006  22343191.93025    541943.44925     -2322.24025        32.90025
E07  24316143.48406    579243.50106     -2550.76006        40.20006  24316166.26805   1199527.26505     -1904.69105        35.30005
E27  23520403.46406    679829.25106     -1277.78806        40.30006  23520416.35525    828430.08225      -956.99325        31.50025
C10  38618541.34006   1066327.62906      -529.32306        38.50006                                                                
C09  39220399.28306     -6205.55106     -1526.50106        38.70006                                                                
R08  19249661.43716-103196481.06516     -2291.67716        37.70016
C07  38679731.37905     71429.62305      -737.13505        35.00005                                                                
R12  22878262.10925-122326704.60125      1582.75525        34.00025
R10  21028997.42825-112211281.51425     -4420.84225        33.00025
E29  23811381.12425    761504.72325      -232.35625        34.20025  23811359.23925    698969.80725      -169.71925        30.80025
E21  25709720.33125   4107498.33025      1048.03025        31.50025  25709742.21623   2761849.38623       773.84023        21.90023
R07  22202787.73025-118968638.65025     -5321.84825        32.90025
C14  24465871.82924   1015156.79024      1160.18724        29.10024                                                                
E30  25606519.77524   7914769.71324     -3647.49024        28.20024                                                                
C22  25494884.25924   8148560.38924     -4775.21424        24.40024                                                                
R01  20736423.97224-110963286.33224      1639.10024        23.60024
E19  26331519.56824   6953423.07324       961.68824        24.80024                                                                
> 2025 09 29 13 20 33.0000000  0 28                      
G30  21005794.09107    -57133.65407     -1919.95107        45.20007  21005804.58425    -36437.92525     -1429.44025        33.90025
G07  22434244.89507   -155114.68807     -2815.32407        43.30007                                                                
G14  20242538.68227     78460.20427      -670.39227        41.70027  20242549.77425     66243.20925      -501.26925        31.60025
G22  20770551.74616    166020.58116       233.20316        39.60016                                                                
G13  22260465.40025   4085411.78525      1363.69225        32.20025                                                                
G21  21530319.07025    599030.91425     -3037.43625        34.70025  21530333.16125   1202517.21925     -2266.81825        30.10025
G05  22278994.37325     19255.72725     -1366.90625        33.90025                                                                
G09  23183142.94425   -251918.00625     -4488.71725        34.70025  23183134.85025   3234118.94725     -3359.05225        29.70025
G17  23688878.43124    266645.96524      1524.32724        29.30024                                                                
G08  24325172.03423   6271151.30323     -3294.58723        19.10023                                                                
C21  22343526.19906   -130441.02906     -3075.22106        41.10006  22343538.19025    539624.25225     -2317.32725        33.10025
C26  22056780.40917     24852.62117     -1160.61817        42.10017  22056787.60426    651475.42326      -875.37326        36.20026
E27  23520401.96506    678552.64306     -1274.95606        40.90006  23520415.75525    827477.54225      -951.30025        31.10025
E07  24316388.41516    576693.24116     -2548.57916        40.50016  24316407.30205   1197623.27605     -1902.50105        35.20005
R11  19611451.57516-104914133.69516     -1334.53616        41.30016
C10  38618395.04106   1065798.67106      -527.40606        39.20006                                                                
C09  39220455.04406     -7730.27406     -1522.92606        38.60006                                                                
R08  19249854.80306-103198826.40906     -2289.48906        37.70006
C07  38679609.06425     70696.45825      -730.21425        35.00025                                                                
R12  22877716.18725-122325094.15925      1579.17725        33.90025
E29  23811157.17925    761276.13725      -225.57625        33.80025  23811161.07625    698795.87725      -175.40025        30.40025
E21  25709272.44125   4108552.93925      1058.50425        31.50025  25709300.62224   2762624.04424       773.09024        25.00024
R10  21029533.75725-112215445.15125     -4412.18225        32.70025
R07  22203537.21125-118973959.58325     -5315.17625        32.50025
C14  24465397.85824   1016315.47724      1159.45824        29.00024                                                                
E19  26331236.56424   8402713.83924       953.99424        26.70024                                                                
E30  25606966.76624   7911122.24224     -3646.62124        27.70024                                                                
R01  20735861.56224-110961587.57024      1637.37724        23.60024
> 2025 09 29 13 20 33.9999999  0 28                      
G30  21005854.05027    -59053.80927     -1919.26027        45.20027  21005868.14025    -37871.95525     -1434.63425        33.90025
G07  22434472.73807   -157930.71007     -2815.42107        43.30007                                                                
G14  20242359.40617     77787.80917      -672.31017        41.50017  20242375.89526     65744.45126      -496.36526        35.50026
G22  20770200.38906    166253.06706       232.99906        39.60006                                                                
G13  22259908.98625   4086775.12425      1363.50025        34.80025                                                                
G21  21530582.88825    595992.83925     -3038.07225        34.50025  21530606.87125   1200249.59825     -2267.87725        29.70025
G05  22278962.59525     17891.73025     -1361.76625        33.80025                                                                
G09  23183696.96125   -256409.68325     -4491.45225        34.00025  23183703.85624   3230763.75724     -3353.30524        29.20024
G17  23688286.64024    268171.17124      1526.98124        28.80024                                                                
G08  24325494.01123   6267856.59223     -3293.76023        19.30023                                                                
E27  23520340.20706    677277.25106     -1274.78306        41.20006  23520354.29825    826524.50725      -953.28225        30.80025
C21  22343808.30306   -133516.96106     -3075.37306        41.30006  22343822.69316    537306.23716     -2317.42216        37.50016
C26  22056691.67027     23691.72127     -1160.06827        41.90027  22056707.85926    650599.97326      -874.85826        35.70026
E07  24316574.88606    574144.88806     -2547.39906        40.50006  24316587.17706   1195719.92306     -1903.03306        39.70006
R11  19611400.91006-104915492.37006     -1334.20406        41.10006
C10  38618193.28106   1065271.89306      -525.68606        39.20006                                                                
R08  19249970.22306-103201076.74206     -2289.34106        38.00006
C09  39220437.35606     -9253.24606     -1522.09506        38.50006                                                                
C07  38679453.77125     69962.34225      -734.59025        34.90025                                                                
R12  22877112.10525-122323495.94825      1582.48425        33.80025
E29  23810885.86725    761048.13025      -227.71725        33.40025  23810897.25925    698624.05925      -170.76125        29.50025
E21  25708775.38525   4109608.27125      1055.69225        31.50025  25708790.97424   2763406.05924       785.69424        24.80024
R10  21030090.77125-112220038.96425     -4411.28325        32.40025
R07  22204204.54925-118979164.86725     -5318.96525        32.20025
E19  26330750.00124   8403669.38824       955.54824        28.50024                                                                
C14  24464848.93824   1017476.11924      1161.61824        28.90024                                                                
E30  25607355.89624   7907473.81024     -3648.91024        27.30024                                                                
R01  20735253.58324-110959966.04824      1635.96924        23.90024
> 2025 09 29 13 20 34.9999998  0 28                      
G30  21005915.50717    -60973.15017     -1918.93117        45.10017  21005929.59825    -39305.20825     -1432.86425        34.00025
G07  22434705.67607   -160744.78707     -2813.10307        43.80007                                                                
G14  20242180.13006     77116.16806      -671.26406        41.40006  20242199.61725     65250.38525      -491.72025        35.00025
G22  20769852.63006    166485.77806       232.82406        39.50006                                                                
G13  22259345.97515   4088141.46915      1367.84615        34.60015                                                                
G05  22278917.02725     16526.46625     -1365.89725        33.70025                                                                
G21  21530864.69325    592956.06625     -3036.12025        33.90025  21530881.78124   1197980.65824     -2269.59824        29.40024
G09  23184247.38025   -260903.00525     -4494.14125        33.40025  23184265.66724   3227408.30024     -3355.58824        28.70024
G17  23687670.56724    269697.34624      1526.65924        28.50024                                                                
G08  24325817.78723   6264563.07923     -3292.91023        19.30023                                                                
E27  23520279.05007    676002.85807     -1273.89407        41.80007  23520291.64125    825568.78225      -957.06825        31.20025
C21  22344099.40206   -136592.11006     -3074.75406        41.30006  22344108.99516    534989.06016     -2316.75516        36.90016
E07  24316751.46306    571597.51306     -2546.88206        40.50006  24316767.35206   1193817.68306     -1901.68106        39.70006
C10  38617993.32006   1064746.48606      -524.72106        39.50006                                                                
R08  19250087.44206-103203336.27106     -2289.18206        39.10006
C09  39220421.76706    -10774.19806     -1519.94106        38.40006                                                                
R11  19611352.04326-104916858.69126     -1332.62926        40.20026
C07  38679290.98415     69229.22215      -732.62215        34.90015                                                                
R12  22876531.10725-122322020.78925      1582.23525        33.70025
E21  25708257.94325   4110663.36425      1054.97225        31.50025  25708290.32124   2764186.92124       780.28324        24.30024
E29  23810643.03525    760821.16525      -226.44425        33.10025  23810640.33724    698453.14524      -170.46324        29.20024
C26  22056623.01826     22531.42726     -1159.99026        40.40026  22056626.91525    649724.78025      -875.06525        35.20025
C14  24464313.20825   1018638.64325      1163.46425        29.60025                                                                
R10  21030625.60125-112224513.02125     -4410.98425        32.10025
E19  26330276.92925   8404624.14125       954.35525        29.60025                                                                
R07  22204940.24025-118984733.19725     -5321.58125        31.80025
E30  25607736.93324   7903826.36124     -3646.95324        27.00024                                                                
R01  20734644.70424-110958339.94424      1644.28124        24.10024
> 2025 09 29 13 20 36.0000000  0 28                      
G30  21006065.70307    -62888.30807     -1913.06607        45.00007  21006080.09325    -40735.91225     -1429.42725        34.00025
G07  22435025.55507   -163555.05907     -2808.36607        43.80007                                                                
G14  20242097.98706     76448.77306      -665.27206        41.30006  20242116.27525     64751.68725      -501.01325        34.50025
G22  20769590.01206    166722.37106       238.53406        39.50006                                                                
G21  21531238.23425    589923.37325     -3030.65025        33.70025  21531246.62824   1195714.47824     -2264.79724        29.20024
G05  22278945.80725     15165.16025     -1359.32525        33.50025                                                                
G13  22258867.80625   4089509.66425      1369.12025        34.40025                                                                
G09  23184875.14525   -265390.72725     -4484.91725        32.90025  23184870.34824   3224054.72024     -3352.63824        28.00024
G17  23687145.33124    271226.34924      1530.41624        28.10024                                                                
G08  24326234.79823   6261272.56023     -3289.02023        19.40023                                                                
E27  23520306.63107    674732.87607     -1267.77407        42.30007  23520318.92225    824619.27125      -946.40325        31.00025
C21  22344472.34406   -139662.43306     -3067.90806        41.20006  22344480.73806    532675.29906     -2312.05106        36.30006
E07  24317029.37106    569054.29406     -2541.13906        40.40006  24317035.96606   1191918.89606     -1897.06006        39.40006
R08  19250298.79506-103205617.24906     -2283.36306        40.00006
C10  38617877.30006   1064225.69706      -518.48006        39.70006                                                                
C09  39220489.82006    -12290.86106     -1514.51606        38.30006                                                                
C26  22056618.52116     21375.80716     -1153.28216        39.70016  22056631.71225    648855.28425      -866.64525        33.40025
R11  19611380.52416-104918156.96516     -1326.87616        39.40016
C07  38679218.73406     68501.40006      -725.17206        35.60006                                                                
R12  22876003.47225-122320347.67025      1592.11325        33.60025
E21  25707838.83425   4111720.36725      1057.95825        31.40025  25707868.81324   2764974.66324       791.18324        24.20024
C14  24463886.00425   1019805.79825      1169.46925        30.90025                                                                
E29  23810455.36525    760601.66525      -215.76625        32.80025  23810468.25624    698286.44324      -164.59624        28.80024
E19  26329861.41625   8405584.27425       962.82125        30.40025                                                                
R10  21031266.25725-112229073.27225     -4405.16525        31.80025
R07  22205689.12125-118989890.97825     -5308.04125        31.50025
E30  25608217.50024   7900187.90424     -3633.95924        26.70024  25608227.39323   5907761.41823     -2716.07923        18.50023
R01  20734111.67324-110956638.88224      1641.18424        24.10024
> 2025 09 29 13 20 36.9999999  0 28                      
G30  21006123.56307    -64795.73307     -1903.55707        44.80007  21006137.35426    -42161.93826     -1423.68626        36.00026
G07  22435249.50007   -166357.17907     -2798.79107        43.80007                                                                
G14  20241918.41106     75788.92606      -656.07106        41.30006  20241938.19825     64260.13725      -487.97625        34.10025
G22  20769238.05616    166966.94716       248.56616        39.40016                                                                
G21  21531503.85015    586898.64315     -3020.74515        33.50015  21531521.53824   1193455.53824     -2255.31824        28.90024
G13  22258312.29125   4090885.43825      1379.56125        34.10025                                                                
G05  22278888.24725     13811.61725     -1349.66025        33.40025                                                                
G09  23185422.56625   -269869.69225     -4474.58225        32.50025  23185432.45924   3220712.17224     -3337.02824        27.60024
G17  23686578.72324    272769.77624      1550.63724        27.80024                                                                
G08  24326551.97923   6257991.34623     -3276.55823        19.50023                                                                
E27  23520242.47507    673469.81907     -1259.59407        42.50007  23520251.46925    823680.07525      -934.03925        30.00025
C21  22344755.94706   -142725.52306     -3059.46906        41.20006  22344767.04006    530366.76806     -2305.91406        35.90006
R08  19250415.71506-103207875.24206     -2275.17106        40.00006
E07  24317204.15026    566518.11426     -2531.90926        40.30026  24317214.34306   1190025.27206     -1891.04006        38.90006
C10  38617670.14306   1063711.56706      -510.80006        39.70006                                                                
C26  22056536.97706     20226.69106     -1145.86306        39.40006  22056548.36925    647993.26125      -858.28725        33.00025
C09  39220489.22006    -13800.65706     -1506.36206        38.20006                                                                
R11  19611321.76406-104919473.58506     -1319.75206        39.10006
C07  38679050.25126     67780.48526      -717.46026        36.00026                                                                
R12  22875391.29615-122318706.65315      1600.49615        33.50015
E29  23810175.65825    760390.63525      -206.79625        32.50025  23810200.24124    698132.12724      -148.12224        28.50024
E21  25707330.08625   4112786.92925      1071.34125        31.40025  25707363.66224   2765773.96124       805.07424        23.90024
C14  24463365.26525   1020982.31125      1181.19025        30.90025                                                                
R10  21031784.89825-112233462.67625     -4396.14825        31.50025
E19  26329385.64625   8406551.23625       970.37725        30.40025                                                                
R07  22206342.06925-118995018.12825     -5297.73425        31.20025
E30  25608605.43124   7896557.18524     -3626.84624        26.50024  25608611.72723   5905042.56523     -2718.85123        18.90023
R01  20733505.19324-110955026.53524      1656.74224        24.40024
> 2025 09 29 13 20 38.0000000  0 29                      
G30  21006256.67117    -66697.66217     -1899.17817        44.70017  21006274.05926    -43583.18726     -1418.85826        36.60026
G07  22435560.08517   -169153.58417     -2793.29617        43.70017                                                                
G14  20241816.18206     75134.16306      -652.22106        41.20006  20241827.27525     63771.09225      -487.79125        32.90025
G22  20768964.04506    167216.99206       252.78006        39.40006                                                                
G13  22257819.73215   4092269.71915      1388.53315        34.00015                                                                
G21  21531848.01225    583878.79425     -3017.40625        33.40025  21531868.69724   1191202.45824     -2250.14724        28.50024
G05  22278931.71725     12463.99425     -1344.66225        33.20025                                                                
G09  23186056.62725   -274343.86625     -4471.77625        32.20025  23186068.01924   3217373.80724     -3336.27124        27.40024
G17  23686060.38224    274324.64524      1560.59024        27.50024                                                                
G08  24326965.99223   6254718.98423     -3267.93323        19.70023                                                                
E27  23520247.57107    672212.39207     -1254.61107        42.60007  23520269.15625    822740.13825      -940.30725        29.90025
C21  22345118.69607   -145783.53407     -3055.47007        41.50007  22345127.69006    528062.27306     -2302.47506        35.60006
R08  19250629.76626-103210234.37726     -2270.99026        40.00026
C10  38617538.23506   1063203.86106      -504.49306        39.70006                                                                
E07  24317456.87526    563987.67826     -2527.81126        40.20026  24317469.76606   1188136.17906     -1886.82606        38.40006
C05  37381280.47816   8463543.90016     -1484.84016        39.90016                                                                
C26  22056531.88106     19083.24406     -1140.61206        39.30006  22056544.77225    647135.32725      -855.88825        32.60025
R11  19611343.64906-104920799.38406     -1314.52206        38.80006
C09  39220550.97806    -15303.73506     -1499.71806        38.10006                                                                
C07  38678959.41416     67065.50716      -712.00916        36.00016                                                                
R12  22874877.45205-122317170.35205      1602.87705        33.50005
E29  23810008.37425    760181.58225      -208.06325        32.30025  23810015.56924    697980.41824      -150.40624        28.10024
C14  24462892.79225   1022163.01225      1182.79525        30.90025                                                                
E21  25706927.76425   8864958.05825      1077.81025        30.90025  25706929.26324   2766581.20524       811.21624        23.70024
R10  21032368.59425-112237780.38525     -4399.93725        31.20025
R07  22207133.52125-119000466.97625     -5293.17825        30.90025
E19  26328993.21725   8407523.22025       974.49425        30.20025                                                                
E30  25609065.91324   7892931.08924     -3623.78124        26.40024  25609068.31124   5902333.57024     -2704.06424        23.70024
R01  20732940.98424-110953220.69124      1659.40724        24.80024
> 2025 09 29 13 20 38.9999998  0 29                      
G30  21006280.05507    -68591.15307     -1889.27107        44.50007  21006299.84116    -44997.74516     -1411.21216        37.60016
G07  22435760.04707   -171941.52407     -2783.70407        43.60007                                                                
G14  20241607.52706     74487.57706      -642.49806        41.20006  20241617.42025     63290.95425      -475.68425        32.30025
G22  20768581.21006    167474.81206       261.70806        39.70006                                                                
G13  22257235.13705   4093663.12705      1397.97205        34.10005                                                                
G21  21532086.94615    580867.91215     -3006.39615        33.40015  21532099.83724   1188955.32124     -2244.16424        27.70024
G05  22278846.27615     11122.29115     -1338.74115        33.10015                                                                
G09  23186554.28225   -278810.44125     -4462.77225        32.00025  23186561.47824   3214042.51524     -3327.75424        26.90024
G17  23685421.22424    275882.75124      1559.72224        27.30024                                                                
G08  24327259.18923   6251455.68823     -3258.76123        19.70023                                                                
E27  23520156.43507    670963.43307     -1244.72307        42.60007  23520168.42624    821807.31124      -929.27124        29.40024
C21  22345365.72507   -148833.37407     -3045.75207        42.00007  22345378.31605    525764.15905     -2294.92205        35.30005
R08  19250705.91416-103212433.36516     -2260.82016        40.00016
C05  37381232.21106   8462068.01906     -1475.88006        39.80006                                                                
C26  22056409.26606     17947.76006     -1131.50206        39.30006  22056428.75225    646283.12625      -849.33425        32.10025
C10  38617317.28806   1062705.42706      -493.79706        39.60006                                                                
R11  19611255.21106-104922114.47206     -1306.01106        38.70006
E07  24317605.87226    561468.86526     -2513.75026        39.10026  24317615.76506   1186253.67606     -1879.20606        38.00006
C09  39220504.21006    -16797.91206     -1489.72506        38.00006                                                                
C07  38678750.75806     66359.24306      -701.90706        36.10006                                                                
R12  22874247.28805-122315592.00605      1615.09205        33.50005
E29  23809710.38025    759980.39325      -197.25825        32.10025  23809719.97424    697831.72624      -147.18424        27.70024
C14  24462308.49625   1023351.76525      1192.77825        30.80025                                                                
R10  21032853.05925-112242146.89725     -4384.11325        31.00025
R07  22207791.56625-119005779.47525     -5295.27025        30.60025
E19  26328440.40025   8408506.20625       988.48625        30.00025                                                                
E21  25706367.45225   8866041.77825      1083.71825        30.40025  25706399.83024   2767389.33224       808.56924        23.50024
E30  25609410.67424   7889309.98924     -3618.59924        26.40024  25609425.06423   5899632.97623     -2696.39023        23.10023
R01  20732298.22924-110951573.15724      1668.18124        24.90024
> 2025 09 29 13 20 39.9999999  0 29                      
G07  22436058.04017   -174719.99617     -2773.73617        43.60017                                                                
G30  21006413.16307    -70475.28407     -1879.45107        44.30007  21006430.85126    -46403.04026     -1400.66226        37.20026
G14  20241501.70006     73849.88506      -633.24406        41.30006  20241514.29125     62812.74825      -477.24025        32.10025
G22  20768310.49806    167741.58206       271.24506        39.70006                                                                
G13  22256732.68525   4095064.29525      1405.04725        34.20025                                                                
G21  21532433.80625    577864.16125     -3000.18325        33.90025  21532448.19624   1186717.55824     -2233.07324        27.40024
G05  22278860.96525      9789.61925     -1328.15625        33.00025                                                                
G09  23187193.74025   -283267.65125     -4452.52325        31.80025  23187195.83824   3210717.94224     -3321.21024        27.20024
G17  23684886.09524    277446.30524      1566.27724        27.10024                                                                
G08  24327620.43923   6248202.91323     -3247.51223        19.70023                                                                
E27  23520166.92707    669723.46307     -1235.47607        42.60007  23520180.11824    820882.29224      -921.11424        29.30024
C21  22345726.67507   -151874.48707     -3036.74607        42.60007  22345735.36905    523472.46105     -2288.48705        34.60005
R08  19250903.47706-103214705.15306     -2251.81606        40.20006
C05  37381287.07306   8460601.02406     -1462.55106        39.80006                                                                
C10  38617175.18626   1062215.46326      -485.72926        39.40026                                                                
C26  22056406.56726     16823.25026     -1119.02126        39.20026  22056417.96025    645445.72125      -830.00625        31.60025
R11  19611281.59226-104923466.26826     -1295.60926        38.50026
C09  39220577.95916    -18282.14316     -1479.25716        37.80016                                                                
C07  38678670.71326     65662.32826      -692.23926        36.10026                                                                
R12  22873722.35225-122313998.38025      1624.11125        33.70025
E07  24317858.59726    558956.58026     -2508.76826        38.30026  24317865.79226   1184378.45926     -1871.57226        37.10026
E29  23809529.00625    759788.27525      -187.58225        31.90025  23809531.40425    697687.68825      -141.71125        31.70025
C14  24461876.79525   1024549.85125      1202.75125        30.80025                                                                
E21  25705910.86825   8867133.01425      1094.99425        30.30025  25705954.03824   2768219.41924       841.06624        24.00024
R10  21033434.95625-112246456.97525     -4370.24325        30.70025
R07  22208547.94225-119011042.19525     -5274.52725        30.40025
E30  25609896.03824   7885702.22824     -3601.08824        26.70024  25609888.24323   5896935.50823     -2695.90323        22.70023
E19  26328058.16525   8409501.24225      1001.06025        29.60025                                                                
R01  20731778.98824-110950008.24024      1682.14024        25.20024
> 2025 09 29 13 20 40.9999998  0 29                      
G07  22436281.08607   -177486.21907     -2760.09607        43.60007                                                                
G30  21006459.63107    -72347.20007     -1865.80507        44.20007  21006483.01416    -47800.60416     -1393.69716        36.90016
G14  20241312.53107     73223.76107      -620.34007        41.60007  20241327.22125     62344.77825      -462.85225        32.10025
G22  20767954.34426    168021.48426       286.46726        39.60026                                                                
G13  22256159.18225   4096478.62525      1420.90925        34.80025                                                                
G21  21532698.22325    574873.07125     -2984.75725        33.90025  21532712.91324   1184488.74624     -2224.33524        27.20024
G05  22278813.29825      8472.77425     -1308.93025        32.90025                                                                
G09  23187731.56725   -287711.47525     -4437.12725        31.60025  23187732.46724   3207399.41924     -3315.49524        26.80024
G17  23684297.90224    279018.81224      1576.98324        26.90024                                                                
G08  24327927.72623   6244964.24123     -3231.61923        19.70023                                                                
E27  23520096.47607    668495.13507     -1222.50507        42.70007  23520109.96724    819965.56324      -912.58224        29.20024
C21  22346004.58307   -154903.77307     -3023.37007        42.60007  22346013.57715    521189.78415     -2278.16515        34.50015
R08  19251015.29906-103216934.78806     -2238.91906        40.50006
C05  37381260.09226   8459145.59526     -1449.64426        39.80026                                                                
C10  38616958.73626   1061738.21326      -470.89226        39.20026                                                                
C26  22056311.23316     15710.95416     -1106.18816        39.00016  22056327.42225    644611.82025      -832.14925        30.80025
R11  19611203.34616-104924676.60516     -1283.53916        38.40016
C09  39220547.98026    -19754.99026     -1467.15326        37.70026                                                                
C07  38678492.93726     64976.98926      -679.55126        36.30026                                                                
E07  24318017.78726    556454.03326     -2497.67526        37.60026  24318036.97326   1182517.76926     -1853.42526        36.70026
R12  22873165.93715-122312653.14715      1637.71315        33.70015
E29  23809249.00025    759608.14325      -174.13925        31.80025  23809262.19125    697551.77925      -131.84325        30.90025
C14  24461345.26325   1025759.87025      1215.98425        30.90025                                                                
E21  25705415.31125   8868235.86925      1108.66325        30.50025  25705443.49224   2769054.17324       837.08724        23.70024
R07  22209271.94125-119016548.47325     -5263.65125        30.20025
R10  21033973.08325-112250948.57025     -4352.27425        30.50025
E19  26327529.93024   8410508.31224      1013.08724        29.10024                                                                
R01  20731168.01124-110948370.65124      1691.22124        25.80024
E30  25610262.68424   7882104.87524     -3592.14624        27.20024  25610267.78123   5894252.53723     -2675.72023        22.30023
> 2025 09 29 13 20 42.0000000  0 29                      
G07  22436595.26807   -180238.71707     -2745.63207        43.50007                                                                
G30  21006607.12807    -74205.29807     -1851.18807        44.00007  21006622.41806    -49189.44706     -1384.48106        36.60006
G14  20241216.89707     72610.62507      -606.64107        41.80007  20241232.18725     61885.43825      -455.02425        31.90025
G22  20767678.83526    168312.46926       296.52626        39.50026                                                                
G13  22255669.02125   4097907.14425      1435.61225        34.90025                                                                
G21  21533057.67425    571897.69825     -2967.51225        33.80025  21533057.97424   1182267.90024     -2216.86024        27.10024
G05  22278859.76625      7165.73925     -1302.13025        32.80025                                                                
G09  23188340.14625   -292140.41525     -4421.49425        31.40025  23188374.62224   3204090.87724     -3303.54824        26.80024
G17  23683768.16824    280607.36024      1596.56624        26.80024                                                                
G08  24328322.85323   6241742.96823     -3212.57023        19.60023                                                                
C21  22346368.23107   -157920.00307     -3009.70007        42.80007  22346379.32405    518916.71205     -2268.26705        34.40005
E27  23520111.16607    667280.03707     -1208.48307        42.80007  23520125.25624    819059.95524      -900.04724        29.10024
R08  19251224.55506-103219204.26906     -2225.17106        40.70006
C05  37381320.95016   8457703.81916     -1434.94816        39.80016                                                                
C26  22056307.93606     14610.00306     -1095.27806        38.80006  22056326.82325    643788.48025      -818.05925        30.30025
C10  38616837.02026   1061273.41326      -458.57426        39.00026                                                                
R11  19611233.32606-104925984.04806     -1268.34806        38.20006
C07  38678451.26526     64302.69826      -668.76726        36.30026                                                                
E07  24318298.09316    553966.91116     -2479.40816        37.00016  24318296.29426   1180666.21026     -1846.99226        36.40026
R12  22872605.02515-122310803.46515      1651.70715        33.60015
C14  24460908.16625   1026983.15625      1229.91925        31.80025                                                                
E29  23809061.33025    759441.61125      -159.73225        31.80025  23809076.91925    697427.16925      -118.96125        30.90025
E21  25705000.99825   8869350.08125      1119.89025        30.50025  25705016.28824   2769891.47824       838.57924        23.50024
C09  39220605.54026    -21214.79226     -1453.27826        37.00026                                                                
R07  22210058.29725-119021906.92525     -5244.83025        30.00025
R10  21034576.86525-112255311.27325     -4343.61725        30.20025
E30  25610722.26624   7878518.12824     -3581.44124        27.20024  25610733.65823   5891579.39023     -2668.23123        22.10023
R01  20730616.69324-110946571.67924      1705.73624        26.30024
E19  26327121.91324   8411525.56824      1022.34724        28.90024                                                                
> 2025 09 29 13 20 43.0000001  0 29                      
G30  21006729.74407    -76052.72307     -1842.08807        43.80007  21006746.53216    -50570.23116     -1376.75416        36.00016
G07  22436888.76517   -182980.83417     -2736.92617        43.40017                                                                
G14  20241099.97807     72007.61307      -597.19907        41.80007  20241122.46325     61431.44825      -451.31425        31.70025
G22  20767392.83316    168614.40816       307.41616        39.50016                                                                
G13  22255163.87125   4099344.61725      1441.94925        35.00025                                                                
G21  21533392.84225    568930.90225     -2962.50625        33.70025  21533397.63924   1180054.83324     -2209.17724        26.90024
G05  22278881.65125      5868.08725     -1292.95825        32.70025                                                                
G09  23188968.21125   -296563.54625     -4420.22425        31.30025  23188989.79624   3200788.78124     -3298.87024        26.70024
G17  23683257.62224    282206.22424      1604.02124        26.80024                                                                
G08  24328711.38423   6238536.27623     -3199.39823        19.60023                                                                
C21  22346718.38907   -160925.66007     -3000.36707        43.80007  22346729.78125    516652.20125     -2260.22925        34.30025
E27  23520115.06307    666075.57007     -1199.15007        42.90007  23520128.55424    818161.07224      -895.52024        29.00024
R08  19251410.12606-103221412.46106     -2215.96806        40.70006
C05  37381367.71826   8456273.50826     -1424.57626        40.10026                                                                
C26  22056293.24606     13519.33406     -1085.52706        38.70006  22056302.24025    642971.72625      -813.46025        29.80025
C10  38616698.21616   1060819.31416      -448.74916        38.80016                                                                
E29  23808864.36626    759284.45726      -153.21526        35.70026  23808875.45825    697310.68325      -112.42425        30.60025
R11  19611242.61906-104927243.32706     -1260.06006        38.00006
C07  38678321.75526     63639.27026      -657.99626        36.20026                                                                
E07  24318519.33906    551490.80406     -2470.59706        36.60006  24318542.72326   1178810.43926     -1857.87626        36.20026
R12  22872031.22225-122308949.20725      1660.76825        33.60025
C14  24460427.59825   1028217.66325      1240.11725        32.30025                                                                
E21  25704557.90525   8870476.50825      1132.53425        30.50025  25704565.10023   2770742.85823       858.41723        23.30023
R07  22210787.09225-119027021.82425     -5240.54725        29.90025
C09  39220674.79226    -22660.35326     -1438.43926        35.80026                                                                
R10  21035156.06425-112259606.86025     -4333.51425        30.00025
R01  20730074.96824-110944885.91124      1716.85624        26.90024
E30  25611194.13924   7874943.04724     -3569.24524        27.10024  25611183.94624   5888912.92524     -2663.12224        24.70024
E19  26326680.01924   8412553.13224      1032.71824        28.70024                                                                
> 2025 09 29 13 20 43.9999999  0 29                      
G30  21006770.81507    -77893.59907     -1837.60007        43.60007  21006779.50925    -51941.60125     -1366.66125        35.40025
G14  20240899.41707     71411.35807      -593.12707        42.00007  20240914.10725     60984.71425      -443.10625        31.50025
G22  20767015.69406    168923.02906       311.96106        39.40006                                                                
G07  22437102.81727   -185715.08427     -2730.31327        42.20027                                                                
G13  22254573.57925   4100788.31925      1446.81425        34.90025                                                                
G21  21533625.48115    565969.59415     -2958.56115        33.70015  21533643.76924   1177843.42724     -2210.57424        26.60024
G05  22278812.39925      4574.04025     -1292.24425        32.60025                                                                
G17  23682637.35124    283815.54424      1614.54524        26.80024                                                                
G08  24329016.57223   6235337.83623     -3194.31323        19.50023                                                                
G09  23189495.84625   -300979.81025     -4412.82625        31.20025  23189516.23224   3197489.61324     -3297.70124        26.60024
C21  22346978.00907   -163924.98007     -2996.15007        44.80007  22346988.80226    514392.28426     -2257.61826        36.90026
E27  23520020.62907    664877.46307     -1194.92507        43.00007  23520040.71525    817265.75825      -893.52925        32.60025
R08  19251507.85806-103223629.84806     -2211.80106        40.80006
C05  37381327.54516   8454849.98616     -1420.12716        40.10016                                                                
C26  22056184.72106     12434.91106     -1081.29806        38.70006  22056195.51424    642157.80924      -812.49724        28.80024
E29  23808569.37016    759133.59116      -147.47116        37.70016  23808590.65625    697198.56225      -109.93825        30.20025
C10  38616464.07806   1060372.49506      -443.17706        38.70006                                                                
R11  19611156.87906-104928476.61106     -1255.98206        37.90006
E07  24318676.43106    549022.58606     -2464.27206        36.40006  24318692.91926   1176965.61726     -1839.34626        36.10026
C07  38678124.79116     62984.80716      -649.98116        36.10016                                                                
R12  22871412.75015-122307334.17815      1663.71115        33.50015
C14  24459873.88215   1029457.84715      1243.02115        32.50015                                                                
E21  25704008.68525   8871608.31725      1134.49825        30.60025  25704041.96224   2771590.97224       846.47924        24.60024
C09  39220650.50925    -24099.18925     -1435.47225        34.70025                                                                
R10  21035659.71625-112263977.96025     -4330.72925        29.80025
R07  22211428.64825-119032148.21125     -5237.49425        29.70025
R01  20729433.41224-110943148.13624      1716.26624        27.40024
E19  26326120.30624   8413587.87824      1038.33624        28.40024                                                                
E30  25611566.18224   7871373.77624     -3566.36324        27.00024  25611548.49424   5886250.86524     -2659.85524        24.30024
> 2025 09 29 13 20 45.0000000  0 29                      
G14  20240769.60707     70818.48307      -591.18407        42.50007  20240783.99725     60539.32725      -444.71425        31.10025
G30  21006880.83927    -79729.84927     -1833.93527        43.40027  21006884.13725    -53312.13425     -1370.11425        34.50025
G22  20766714.70306    169234.59706       313.04206        39.40006                                                                
G07  22437371.73126   -188446.65326     -2730.22726        41.20026                                                                
G13  22254053.14025   4102239.26325      1454.56525        34.90025                                                                
G21  21533941.76205    563011.31205     -2956.76505        34.00005  21533960.94925   1175630.49325     -2213.69525        29.50025
G05  22278808.50225      3283.07825     -1289.41925        32.50025                                                                
G09  23190092.13325   -305394.84925     -4414.42325        31.10025  23190112.21924   3194192.03924     -3296.77424        26.50024
G17  23682104.62024    285425.93924      1610.93224        26.80024                                                                
G08  24329401.20623   6232140.93323     -3196.13023        19.50023                                                                
C21  22347307.78107   -166920.98107     -2994.33907        45.20007  22347319.77226    512134.35526     -2256.93426        40.60026
E27  23520007.43807    663683.06207     -1192.54807        43.40007  23520024.22625    816372.62325      -892.04525        32.10025
R08  19251678.44006-103225851.83106     -2210.06006        41.10006
C05  37381358.42406   8453430.87806     -1416.90106        40.40006                                                                
E29  23808361.61406    758986.43106      -145.30806        39.00006  23808372.10725    697087.83225      -110.03525        32.50025
C26  22056146.34806     11354.52506     -1078.36806        38.60006  22056158.33924    641346.16624      -810.50524        28.70024
C10  38616298.59306   1059929.66806      -440.83006        38.60006                                                                
R11  19611150.58306-104929748.88906     -1254.57406        37.90006
E07  24318906.07226    546557.22426     -2463.18226        36.40026  24318918.96326   1175124.18326     -1839.73826        37.30026
C07  38678011.47026     62336.24926      -645.60426        36.00026                                                                
R12  22870873.42425-122305761.18825      1668.91525        33.40025
C14  24459390.31625   1030699.83725      1242.89325        32.50025                                                                
E21  25703542.20825   8872743.90725      1137.48125        30.90025  25703580.28224   2772438.16324       846.72924        27.40024
C09  39220652.30725    -25535.93325     -1435.69625        33.80025                                                                
R07  22212135.55925-119037241.66625     -5234.68725        29.50025
R10  21036215.53125-112268243.80225     -4327.67825        29.60025
R01  20728894.38524-110941574.04124      1726.37024        27.50024
E19  26325708.99124   8414622.59824      1034.70524        28.20024                                                                
E30  25611979.29624   7867811.93924     -3558.11724        27.00024  25611981.69424   5883588.88924     -2661.93224        29.10024
> 2025 09 29 13 20 45.9999999  0 29                      
G14  20240596.32707     70229.35707      -587.25207        43.00007  20240613.71525     60098.03925      -439.23725        31.10025
G22  20766366.64406    169550.57106       318.17706        39.90006                                                                
G07  22437608.26726   -191174.44426     -2725.90026        40.70026                                                                
G13  22253500.32215   4103692.99015      1455.11615        34.80015                                                                
G30  21006940.49817    -81561.49917     -1829.34817        42.20017  21006947.39325    -54680.06125     -1366.62425        34.40025
G21  21534223.56705    560056.89905     -2952.47705        34.10005  21534242.45424   1173419.57824     -2209.90324        29.00024
G05  22278778.22325      1998.10325     -1281.98025        32.50025                                                                
G09  23190644.35125   -309805.13625     -4407.90725        31.00025  23190667.43524   3190896.54524     -3294.45124        26.40024
G17  23681492.74424    287038.28924      1613.32724        26.90024                                                                
G08  24329743.26923   6228943.26123     -3198.05423        19.40023                                                                
C21  22347595.58207   -169913.04607     -2990.09307        45.60007  22347607.87316    509879.69216     -2253.02716        39.90016
E27  23519943.58207    662492.25007     -1189.01607        44.10007  23519961.86925    815483.73125      -886.77025        31.90025
R08  19251800.15607-103228038.57007     -2206.64607        41.50007
C05  37381338.63806   8452015.50306     -1413.50606        40.90006                                                                
E29  23808097.79706    758843.69706      -140.52106        39.60006  23808113.98625    696981.07125      -104.77725        32.00025
C10  38616101.92906   1059490.05406      -438.00706        38.50006                                                                
C26  22056064.50406     10277.74506     -1074.97606        38.60006  22056079.19424    640534.64824      -811.45524        28.50024
R11  19611102.01706-104931021.16506     -1249.66606        37.80006
E07  24319085.04816    544095.33616     -2460.39716        36.40016  24319100.93716   1173286.14116     -1836.34416        37.00016
C07  38677841.78726     61690.01426      -645.07326        35.90026                                                                
R12  22870253.45325-122303979.53625      1672.80425        33.40025
C14  24458863.58125   1031944.31125      1245.71425        32.50025                                                                
E21  25703042.75425   8873886.70125      1146.39425        30.90025  25703073.03324   2773287.81324       850.87924        26.70024
C09  39220652.30725    -26968.28525     -1430.15525        33.10025                                                                
R07  22212840.67024-119042550.34324     -5221.56424        29.40024
R10  21036737.76925-112272556.16925     -4321.27925        29.50025
R01  20728295.10024-110939902.04624      1723.97224        27.50024
E30  25612379.21924   7864253.12124     -3557.30624        27.00024  25612375.92124   5880928.19624     -2660.04924        28.40024
E19  26325224.52624   8415658.25724      1036.12824        27.90024                                                                
> 2025 09 29 13 20 47.0000000  0 29                      
G14  20240477.90907     69646.54907      -579.64807        43.40007  20240495.89625     59661.76825      -433.76225        32.50025
G22  20766076.74406    169872.62206       325.08806        40.40006                                                                
G07  22437894.56926   -193894.60926     -2716.34926        40.30026                                                                
G13  22252991.57405   4105153.33305      1463.65005        34.90005                                                                
G30  21007069.40826    -83387.46126     -1823.11726        41.00026  21007067.01025    -56043.54725     -1361.26325        33.90025
G21  21534557.53615    557109.25915     -2944.25015        34.10015  21534577.02324   1171213.17824     -2204.14124        28.50024
G05  22278788.71625       724.33325     -1268.16725        32.40025                                                                
G17  23680949.82024    288658.15324      1623.61824        27.30024                                                                
G08  24330118.90923   6225748.93923     -3192.64423        19.40023                                                                
G09  23191252.33025   -314208.99125     -4400.63525        30.90025  23191281.41024   3187602.46624     -3293.36824        26.20024
C21  22347943.94007   -172898.89807     -2982.74407        45.90007  22347954.13306    507629.62806     -2247.76306        39.30006
E27  23519948.37907    661308.06707     -1180.86707        44.60007  23519960.67025    814598.61525      -883.22625        31.80025
R08  19251985.42807-103230243.70007     -2198.85107        41.90007
C05  37381388.10406   8450607.39306     -1404.47606        41.20006                                                                
E29  23807899.33406    758707.66206      -132.68406        39.60006  23807914.02425    696881.03825       -96.66825        31.80025
C10  38615954.43116   1059057.67116      -428.76716        38.70016                                                                
C26  22056046.51706      9207.38406     -1067.15106        38.50006  22056059.70824    639726.70124      -806.16024        28.40024
R11  19611108.01206-104932263.62506     -1242.00706        37.90006
E07  24319320.98406    541640.28206     -2451.63706        36.60006  24319341.07106   1171452.86806     -1830.88806        38.70006
C07  38677735.36116     61049.48916      -637.66916        36.30016                                                                
C14  24458390.20915   1033197.38215      1257.36915        32.80015                                                                
R12  22869729.71615-122302391.26215      1677.64115        33.30015
E21  25702602.65825   8875036.03025      1152.59625        30.90025  25702623.04424   2774139.26224       852.34824        28.70024
C09  39220685.88425    -28393.70825     -1421.95825        32.80025                                                                
R07  22213603.64224-119047846.76624     -5228.08724        29.30024
R10  21037334.35624-112276942.52624     -4312.77924        29.30024
E30  25612830.10724   7860701.71924     -3547.69024        27.30024  25612822.91225   5878273.48925     -2651.71225        34.20025
R01  20727723.09624-110938055.66024      1736.52124        27.50024
E19  26324821.00624   8416705.93324      1053.68424        27.60024                                                                
> 2025 09 29 13 20 48.0000000  0 29                      
G14  20240333.10907     69064.32207      -581.93607        43.70007  20240346.00015     59227.17315      -433.75715        32.30015
G22  20765758.36506    170195.18006       322.81206        40.80006                                                                
G07  22438156.28826   -196615.42026     -2721.13326        40.00026                                                                
G30  21007146.75516    -85213.14216     -1825.53916        40.30016  21007158.14725    -57406.24925     -1362.30925        33.80025
G13  22252459.74305   4106614.84305      1462.09305        35.20005                                                                
G21  21534870.51925    554160.24725     -2949.69725        34.00025  21534877.11524   1169005.90924     -2207.70124        28.10024
G05  22278771.02825      -551.39825     -1276.70925        32.40025                                                                
G09  23191820.43725   -318608.71225     -4397.65125        30.80025  23191831.22924   3184312.54624     -3287.83924        25.80024
G17  23680374.21824    290282.86324      1627.13224        27.30024                                                                
G08  24330473.26423   6222551.99823     -3198.24823        19.50023                                                                
C21  22348259.92207   -175884.13507     -2984.92707        46.30007  22348271.31406    505379.95206     -2249.48006        38.90006
E07  24319530.24007    539186.19007     -2453.60807        43.90007  24319552.42406   1169620.10806     -1832.50106        38.40006
E27  23519912.40307    660124.48707     -1183.27807        44.70007  23519927.99325    813714.48525      -883.63725        33.20025
R08  19252141.62007-103232452.66407     -2201.48007        42.00007
C05  37381398.59606   8449200.25306     -1406.65506        41.20006                                                                
E29  23807668.49406    758572.55706      -134.64206        39.70006  23807683.18425    696780.66525      -100.54325        31.70025
C10  38615784.74906   1058626.33006      -430.82006        39.10006                                                                
C26  22055991.35506      8137.99906     -1068.89606        38.50006  22056007.24425    638920.81925      -804.85025        30.60025
R11  19611080.73106-104933486.97406     -1244.80906        38.20006
C07  38677605.85106     60410.85506      -637.68906        37.70006                                                                
C14  24457904.84505   1034452.56005      1256.23105        33.60005                                                                
R12  22869137.32605-122300596.62505      1677.45705        33.30005
E21  25702128.68725   8876184.19425      1147.58025        31.10025  25702145.77525   2774992.40125       853.98225        29.60025
C09  39220714.36425    -29820.63225     -1427.67325        32.40025                                                                
R10  21037883.57624-112281236.59424     -4317.87524        29.20024
R07  22214338.73324-119053154.68224     -5215.31124        29.20024
E30  25613228.83124   7857150.77424     -3550.71424        27.90024  25613242.32125   5875620.16725     -2652.62825        34.00025
R01  20727129.50724-110936252.11224      1731.82824        27.80024
E19  26324380.31124   8417760.90924      1058.62624        27.40024                                                                
> 2025 09 29 13 20 48.9999999  0 29                      
G14  20240161.02807     68479.18307      -586.59507        44.00007  20240174.51925     58788.99525      -439.96825        32.10025
G22  20765413.00406    170514.35406       318.23206        40.90006                                                                
G07  22438379.63316   -199337.07316     -2722.07016        39.80016                                                                
G30  21007206.71306    -87041.57106     -1829.80106        39.90006  21007217.80625    -58771.92225     -1367.15625        32.90025
G13  22251903.62826   4108073.89026      1457.81526        35.50026                                                                
G21  21535137.93425    551208.96325     -2952.41625        33.90025  21535151.72524   1166795.80024     -2211.52724        27.50024
G05  22278715.86625     -1831.02825     -1281.57925        32.30025                                                                
G09  23192392.14125   -323006.70825     -4397.12825        30.70025  23192413.42624   3181024.61524     -3286.93224        25.60024
G17  23679792.92024    291904.91324      1620.71924        27.30024                                                                
G08  24330814.42823   6219344.73023     -3212.42823        19.50023                                                                
C21  22348545.92407   -178871.82907     -2988.91907        46.30007  22348558.51506    503128.41306     -2252.46806        38.30006
E27  23519858.14107    658938.25007     -1187.56407        44.90007  23519870.43325    812827.16425      -888.91625        32.80025
E07  24319726.00407    536730.22507     -2456.90007        44.40007  24319731.70006   1167785.76206     -1835.13806        38.60006
R08  19252262.13607-103234630.21707     -2206.42107        42.10007
C05  37381380.30916   8447791.20216     -1410.00416        41.20016                                                                
E29  23807404.97606    758434.53506      -139.48006        39.80006  23807421.16515    696677.64615      -104.34215        31.60015
C10  38615575.49306   1058192.83206      -434.57606        39.50006                                                                
C26  22055913.10906      7065.70006     -1073.75406        38.80006  22055928.09925    638112.89225      -808.94825        30.30025
R11  19611023.77106-104934711.85406     -1249.79106        38.70006
C07  38677440.06506     59769.77606      -642.30006        38.00006                                                                
E30  25613614.66425   7853593.64525     -3560.21725        31.30025  25613632.05225   5872964.73925     -2656.47725        35.20025
C14  24457372.41305   1035706.29905      1253.01805        34.10005                                                                
R12  22868547.03405-122298971.66705      1675.50805        33.50005
E21  25701622.33725   8877326.40125      1139.22825        31.10025  25701643.92224   2775848.97724       858.29424        29.00024
C09  39220701.47325    -31247.98025     -1427.55925        32.20025                                                                
R10  21038394.12324-112285484.14324     -4322.20824        29.20024
R07  22215013.86624-119058301.00124     -5227.68124        29.10024
R01  20726530.22224-110934578.59524      1724.03224        27.80024
E19  26323891.94924   8418812.57924      1050.01524        27.30024  26323937.51723   7012702.18023       770.36823        18.30023
> 2025 09 29 13 20 50.0000000  0 29                      
G14  20240043.21007     67891.22207      -589.37107        44.20007  20240058.79925     58349.89325      -439.56425        33.50025
G22  20765130.00006    170831.43206       315.77806        41.10006                                                                
G07  22438676.12806   -202061.13406     -2725.26406        39.80006                                                                
G30  21007326.33106    -88872.45006     -1832.10306        39.70006  21007342.22025    -60139.30925     -1368.24425        32.90025
G13  22251385.28726   4109528.64326      1452.60326        35.50026                                                                
G21  21535476.10025    548256.60725     -2952.89025        33.90025  21535498.58524   1164585.18924     -2210.86024        27.30024
G05  22278750.34225     -3114.43025     -1285.28725        32.30025                                                                
G09  23192985.13125   -327415.84125     -4414.69825        30.50025  23193023.80424   3177803.52624     -3187.66624        25.30024
G17  23679273.98024    293523.06424      1616.20024        27.30024                                                                
G08  24331199.96123   6216126.74023     -3223.34823        19.40023                                                                
C21  22348895.18207   -181862.63207     -2992.35507        46.30007  22348906.57406    500874.43906     -2255.19006        38.00006
E27  23519857.24207    657749.11007     -1190.59007        45.00007  23519869.83325    811938.66825      -889.08325        33.10025
E07  24319954.74607    534271.40507     -2460.99407        44.20007  24319973.93206   1165949.29906     -1837.52006        38.40006
R08  19252446.80807-103236833.05107     -2209.11307        42.20007
C05  37381424.07926   8446380.87026     -1410.97126        41.20026                                                                
E29  23807209.51206    758294.07206      -141.68306        39.90006  23807223.60205    696572.71905      -105.88105        31.60005
C10  38615434.89106   1057756.33806      -437.99206        39.80006                                                                
C26  22055896.62006      5990.78206     -1076.22706        39.40006  22055907.71325    637302.67625      -811.36025        31.40025
R11  19611034.26306-104935980.31406     -1252.41506        38.90006
C07  38677338.13606     59125.96206      -645.18106        38.20006                                                                
E30  25614060.15516   7850036.04616     -3557.83116        37.10016  25614082.93915   5870307.79115     -2657.70615        34.60015
C14  24456912.53225   1036956.29425      1248.12325        34.30025                                                                
R12  22868021.79815-122297376.52015      1668.31915        33.50015
E21  25701190.03625   8878470.50325      1145.04825        31.10025  25701200.82924   2776702.66324       852.24224        28.40024
C09  39220750.93925    -32678.35625     -1431.88825        31.90025                                                                
R10  21038978.41824-112289806.43924     -4326.39324        29.10024
R07  22215746.55924-119063435.81924     -5235.11124        29.00024
R01  20725973.20724-110932812.52524      1720.87924        27.80024
E19  26323465.34424   8419858.65324      1043.27724        27.20024  26323487.22922   7013445.24822       729.41722        15.30022
> 2025 09 29 13 20 51.0000001  0 29                      
G07  22438963.32907   -204786.21207     -2725.58307        41.90007                                                                
G14  20239930.48807     67301.84607      -590.08307        44.60007  20239946.67625     57909.99925      -440.29025        33.30025
G22  20764841.89906    171147.47006       315.51906        41.20006                                                                
G30  21007446.54706    -90704.38206     -1832.45706        39.60006  21007462.43625    -61507.99525     -1369.33425        32.20025
G13  22250881.33516   4110984.43316      1456.30816        35.50016                                                                
G21  21535812.16715    545302.10415     -2955.57415        33.90015  21535821.46124   1162379.32524     -2203.48924        28.80024
G05  22278777.02425     -4395.05625     -1279.23725        32.20025                                                                
G17  23678755.33924    295137.41424      1612.44824        27.20024                                                                
G08  24331587.89223   6212900.27723     -3230.69723        19.30023                                                                
G09  23193594.60925   -331826.10525     -4410.82625        30.30025                                                                
C21  22349242.04207   -184854.71807     -2992.72507        46.40007  22349253.43406    498619.55706     -2255.33406        38.00006
E27  23519854.24407    656558.76307     -1190.94907        45.00007  23519869.83325    811051.68125      -886.23125        32.80025
E07  24320197.57817    531810.97417     -2460.98617        44.00017  24320216.76406   1164111.95306     -1837.78506        38.20006
R08  19252631.78007-103239035.88507     -2210.70007        42.20007
C05  37381477.14216   8444968.21516     -1413.81616        41.10016                                                                
E29  23807008.05106    758152.57906      -142.00906        40.20006  23807024.54005    696466.96105      -106.17305        32.00005
C10  38615293.38906   1057319.18706      -437.48006        39.90006                                                                
C26  22055873.23706      4914.69306     -1076.67506        39.80006  22055887.32725    636491.29125      -811.96925        31.40025
R11  19611038.76006-104937213.60106     -1253.15506        39.20006
E30  25614518.23806   7846477.06806     -3559.66506        38.60006  25614533.52705   5867650.18405     -2657.93505        34.40005
C07  38677237.70606     58481.07406      -645.42406        38.60006                                                                
C14  24456450.55225   1038202.48025      1244.28025        34.30025                                                                
R12  22867497.46125-122295785.19125      1666.61525        33.40025
E21  25700748.74225   8879613.14325      1141.90925        31.10025  25700758.03524   2777555.04724       851.73124        28.00024
C09  39220800.70525    -34110.08225     -1432.40025        31.60025                                                                
R10  21039566.91124-112294150.08024     -4324.05924        29.00024
R07  22216542.80724-119068910.70324     -5224.37924        28.90024
R01  20725426.98524-110931102.28624      1727.17924        27.90024
E19  26323027.94724   8420906.69924      1049.03024        27.20024  26323068.71922   7014235.70522       814.15122        15.20022
> 2025 09 29 13 20 51.9999999  0 29                      
G14  20239723.63107     66713.04907      -588.50607        45.00007  20239742.51825     57469.06425      -441.45425        33.10025
G07  22439167.48807   -207509.69207     -2722.67907        43.10007                                                                
G22  20764464.76006    171463.36306       315.82006        41.40006                                                                
G30  21007483.42206    -92535.13506     -1830.16206        39.60006  21007498.41125    -62875.29425     -1366.60425        32.10025
G13  22250289.24506   4112441.29206      1457.39206        35.60006                                                                
G21  21536048.70405    542348.23605     -2953.54805        34.10005  21536066.99124   1160174.43724     -2204.39924        28.60024
G05  22278694.88025     -5678.93025     -1285.49725        32.10025                                                                
G09  23194148.02525   -336231.10725     -4402.36725        30.10025  23194136.63324   7601577.88624     -3285.21624        26.80024
G17  23678129.07224    296758.09324      1623.84124        27.20024                                                                
G08  24331873.29523   6209671.56323     -3229.83723        19.30023                                                                
C21  22349502.26207   -187846.05507     -2990.96007        46.50007  22349513.05406    496365.40106     -2253.79106        37.80006
E27  23519765.20507    655369.17207     -1189.21307        45.10007  23519781.09415    810163.51415      -888.75515        32.50015
E07  24320350.77207    529351.49407     -2459.00107        43.90007  24320366.66106   1162275.31206     -1836.28706        38.20006
R08  19252731.91107-103241265.53707     -2209.38507        42.30007
E29  23806719.05106    758012.24606      -139.75206        40.40006  23806734.04105    696362.33605      -104.05805        33.70005
C05  37381425.57816   8443556.90516     -1410.63716        41.00016                                                                
C26  22055761.41406      3839.64606     -1074.52506        40.20006  22055776.40425    635680.59225      -810.35625        30.90025
C10  38615061.64906   1056883.08206      -435.58106        40.10006                                                                
E30  25614876.79006   7842919.18506     -3557.33306        39.60006  25614895.07705   5864993.46205     -2656.27805        34.70005
R11  19610961.71406-104938491.23506     -1251.39306        39.40006
C07  38677044.63906     57837.19506      -643.37406        38.80006                                                                
C14  24455889.04015   1039452.46415      1251.88115        34.80015                                                                
R12  22866849.01025-122294011.18925      1672.84225        33.30025
E21  25700201.32125   8880756.67625      1143.97825        31.10025  25700225.90424   2778403.51824       846.51324        27.60024
C09  39220782.11825    -35537.34225     -1425.02625        31.40025                                                                
R10  21040057.07224-112298450.24824     -4319.21224        28.90024
R01  20724774.93724-110929308.68524      1726.99924        28.10024
R07  22217188.86024-119074061.60424     -5220.42824        28.80024
E19  26322512.90424   8421954.09124      1047.06424        27.20024  26322535.38822   7015094.15222       892.44122        15.10022
> 2025 09 29 13 20 53.0000000  0 30                      
G14  20239588.72407     66121.56607      -592.82707        45.20007  20239606.11225     57027.23725      -442.27425        33.10025
G07  22439442.69707   -210236.08607     -2727.85007        43.10007                                                                
G22  20764158.07207    171776.82507       312.24607        41.60007                                                                
G30  21007587.45006    -94368.30906     -1834.38306        39.80006  21007601.24025    -64243.31625     -1368.38325        32.10025
G13  22249754.41616   4113895.52716      1452.92316        35.60016                                                                
G21  21536363.78625    539391.96925     -2957.46425        34.10025  21536387.46924   1157966.98724     -2208.72724        28.30024
G05  22278698.17825     -6967.89925     -1291.51525        32.10025                                                                
G09  23194711.63525   -340640.26825     -4411.23825        30.00025  23194720.32924   7598296.94924     -3280.93424        26.10024
G17  23677593.34324    298378.79624      1620.71524        27.10024                                                                
G08  24332234.24523   6206440.48523     -3232.25623        19.40023                                                                
C21  22349830.53407   -190840.13407     -2995.44807        46.90007  22349842.82606    494108.99306     -2257.53206        37.70006
E27  23519744.52007    654176.84407     -1193.69407        45.10007  23519761.60805    809272.99005      -891.70205        34.40005
E07  24320564.22407    526889.22907     -2463.65707        43.70007  24320591.20506   1160436.60006     -1839.74606        38.10006
R08  19252898.59607-103243469.90307     -2214.02507        42.40007
E29  23806503.50106    757869.32406      -144.21606        40.60006  23806516.99105    696255.48805      -107.96105        33.50005
C26  22055726.03906      2762.15906     -1078.70506        40.40006  22055738.93025    634870.97925      -809.06925        30.70025
C10  38614902.16006   1056444.14006      -440.36106        40.20006                                                                
C05  37381452.25916   8442143.45716     -1414.51516        40.90016                                                                
E30  25615313.58706   7839358.50706     -3562.07206        40.00006  25615327.67806   5862334.39506     -2660.23606        36.00006
R11  19610953.61906-104939757.39806     -1255.93106        39.50006
C07  38676918.42706     57190.99906      -647.35306        39.30006                                                                
C14  24455400.97825   1040700.75725      1247.44725        35.20025                                                                
R12  22866291.39625-122292340.36925      1668.32325        33.30025
E21  25699745.93625   8881896.11025      1137.38325        31.10025  25699767.22124   2779252.69724       849.53324        27.30024
C09  39220827.38625    -36967.23125     -1431.20325        31.20025                                                                
R10  21040636.57024-112302844.23224     -4325.96424        28.90024
R01  20724221.82024-110927661.16424      1717.90524        28.20024
R07  22217969.82024-119079553.34924     -5225.70224        28.60024
E19  26322054.52124   8422998.05524      1042.24924        27.20024  26322038.03222   7016035.63622       983.00122        15.10022
C29  26399905.82624  10261943.64624       -26.13124        27.40024                                                                
> 2025 09 29 13 20 53.9999999  0 30                      
G14  20239422.04007     65524.96607      -599.15607        45.40007  20239435.83015     56581.87615      -447.12815        33.00015
G07  22439674.43707   -212967.12807     -2733.36207        43.00007                                                                
G22  20763815.70907    172085.08607       305.66007        41.90007                                                                
G30  21007651.90516    -96206.69816     -1840.99516        39.90016  21007665.39625    -65613.43325     -1371.16225        32.00025
G13  22249195.60206   4115345.81806      1448.31706        36.10006                                                                
G21  21536641.09425    536430.73225     -2963.72125        34.20025  21536664.47724   1155755.73224     -2213.15724        28.00024
G05  22278659.80525     -8260.37625     -1294.23025        32.00025                                                                
G17  23677003.95124    299992.65524      1610.43524        27.00024                                                                
G08  24332571.21123   6203204.02423     -3239.14923        19.40023                                                                
G09  23195268.94925   -345055.24325     -4417.87725        29.80025                                                                
C21  22350121.33307   -193839.05707     -3001.34207        47.10007  22350131.52606    491849.04006     -2261.72206        39.70006
E27  23519686.96007    652979.61907     -1199.67307        45.10007  23519703.44805    808379.06405      -895.62605        34.20005
E07  24320755.19207    524422.45007     -2469.03207        43.60007  24320774.07806   1158594.68306     -1843.51806        38.00006
R08  19253024.20907-103245675.80807     -2220.60807        42.50007
E29  23806240.88206    757721.43906      -150.36706        40.70006  23806258.27005    696145.08705      -112.17605        33.40005
C26  22055647.19306      1679.40206     -1085.39106        40.60006  22055662.18325    634055.75225      -818.03325        30.50025
C10  38614697.40106   1056001.30706      -444.77806        40.40006                                                                
E30  25615706.61506   7835793.48706     -3567.18706        40.20006  25615719.80606   5859672.17206     -2663.79806        36.90006
C05  37381438.46906   8440725.77006     -1419.80606        40.80006                                                                
C07  38676759.83606     56540.35406      -652.87006        39.50006                                                                
R11  19610903.25406-104941018.21506     -1262.76406        39.70006
C14  24454870.34616   1041944.03316      1240.76516        36.20016                                                                
R12  22865689.11325-122290651.97625      1661.85525        33.20025
E21  25699251.87825   8883028.39425      1128.70925        31.10025  25699259.67324   2780103.95224       852.29324        26.70024
C09  39220782.11825    -38403.60525     -1439.61525        31.00025                                                                
R10  21041212.47224-112307439.58224     -4329.59024        28.80024
R01  20723606.04624-110925899.69224      1720.26024        28.20024
R07  22218611.07624-119084518.90624     -5240.21324        28.50024
C29  26399597.93924  10261909.57924       -39.14124        27.40024                                                                
E19  26321586.24524   8424039.08724      1039.56524        27.10024  26321507.69922   7016991.57922       963.17222        15.00022
> 2025 09 29 13 20 55.0000000  0 30                      
G14  20239309.31807     64920.29107      -608.71407        45.60007  20239325.50705     56130.39005      -454.54805        33.50005
G07  22439968.83307   -215705.78907     -2742.46907        43.00007                                                                
G22  20763532.70507    172385.65107       295.96707        42.10007                                                                
G30  21007774.52006    -98052.62106     -1848.93906        40.10006  21007790.11025    -66991.21625     -1381.61625        32.30025
G13  22248690.45216   4116787.86616      1437.92616        36.10016                                                                
G21  21536977.46125    533460.12325     -2975.29125        34.20025  21537003.84224   1153537.48624     -2221.73924        27.90024
G05  22278676.59325     -9559.15325     -1301.92725        32.00025                                                                
G09  23195880.22625   -349475.63625     -4423.09725        29.70025                                                                
G17  23676458.02924    301594.76024      1596.22724        27.00024                                                                
G08  24332918.97123   6199959.95323     -3247.87423        19.50023                                                                
C21  22350472.99007   -196846.10607     -3011.10907        47.20007  22350483.18206    489582.94706     -2269.16206        39.40006
E27  23519689.35807    651774.32007     -1209.33507        45.10007  23519705.84605    807478.96405      -903.18705        34.00005
E07  24320995.02607    521947.88207     -2478.46107        43.50007  24321018.70906   1156746.76006     -1850.92506        38.30006
R08  19253222.07207-103247947.60507     -2230.72407        42.50007
E30  25616160.20106   7832220.41106     -3577.10106        40.50006  25616173.69206   5857004.02906     -2671.10006        37.60006
C26  22055627.70706       589.41406     -1093.60206        40.70006  22055644.19525    633230.32925      -830.52025        29.70025
E29  23806046.91706    757566.23306      -158.86506        40.70006  23806061.90605    696029.16705      -118.68005        33.20005
C10  38614561.59506   1055550.32006      -455.06406        40.60006                                                                
C05  37381490.63326   8439302.32626     -1426.32126        40.70026                                                                
C07  38676668.40006     55881.93806      -662.30006        39.90006                                                                
R11  19610910.74906-104942267.56306     -1271.86906        39.80006
C14  24454409.86426   1043178.41126      1229.92926        36.20026                                                                
R12  22865154.58325-122289007.15025      1652.33425        33.10025
E21  25698798.59225   8884156.72425      1126.35225        31.00025  25698816.57924   2780948.45824       841.13124        26.40024
C09  39220835.78025    -39848.22325     -1448.73825        30.90025                                                                
R01  20723045.43424-110924112.98024      1700.05024        28.70024
R10  21041754.79624-112311538.40324     -4338.79924        28.70024
R07  22219336.87324-119089614.67124     -5253.65624        28.40024
C29  26399385.08624  10261866.76324       -42.81624        27.40024                                                                
E19  26321145.25024   8425081.07724      1042.46824        27.10024                                                                
