     4.01           OBSERVATION DATA    M                   RINEX VERSION / TYPE
GnssLogger          samsung 15          20251005 091533 UTC PGM / RUN BY / DATE
Google GnssLogger                                           MARKER NAME
Unknown                                                     MARKER NUMBER
Unknown             Unknown                                 OBSERVER / AGENCY
Unknown             GnssLogger          v3.1.1.1            REC # / TYPE / VERS
Unknown             Unknown                                 ANT # / TYPE
        0.0000        0.0000        0.0000                  ANTENNA: DELTA H/E/N
G    8 C1C L1C D1C S1C C5Q L5Q D5Q S5Q                      SYS / # / OBS TYPES
R    4 C1C L1C D1C S1C                                      SYS / # / OBS TYPES
C    8 C2I L2I D2I S2I C5P L5P D5P S5P                      SYS / # / OBS TYPES
E    8 C1C L1C D1C S1C C5Q L5Q D5Q S5Q                      SYS / # / OBS TYPES
  2025    10    05    09    15   33.0000000     GPS         TIME OF FIRST OBS
 9 R03  5 R04  6 R05  1 R14 -7 R15  0 R16 -1 R19  3 R20  2  GLONASS SLOT / FRQ #
   R21  4                                                   GLONASS SLOT / FRQ #
samsung SM-S711B (Android 15) HW Year: 2021 HW Model:       COMMENT
S.LSI,K040,SPOTNAV_4.6.2_7_E23                              COMMENT
                                                            END OF HEADER
> 2025 10 05 09 15 33.0000000  0 33                      
G03  21403093.14707    -22598.50207     -2538.13707        47.00007  21403097.34405    -24554.87305     -1895.31705        34.40005
G16  22672695.91907    -48523.14307        23.91607        43.50007                                                                
G04  21461878.85007    -39277.49707     -1435.17707        41.80007  21461883.04824    -36938.58524     -1070.85024        28.50024
G07  21594010.57806    -48366.28906      1461.80506        41.20006                                                                
G01  24710207.47925    -14657.39225     -3789.03625        30.50025  24710205.68123   2071169.19023     -2827.66123        22.10023
G30  23820644.41125   -159812.60825      2794.35425        31.40025  23820652.50505   -126729.76105      2090.16905        31.30005
G09  20719505.48525    -51101.71225       418.44525        30.50025  20719472.20823   -219784.91123       317.26423        23.40023
G06  22481703.54125    -56305.22125      -248.61125        29.80025  22481729.02324   2040118.59824      -180.57324        25.10024
G11  24573815.40224   -117309.54924      1912.82924        27.10024                                                                
C21  22315982.76708   -105583.71208        28.26608        52.60008  22315982.76705    -87119.55405        21.25005        35.10005
E29  23912064.32207    -44206.84807      -657.89807        42.60007  23912068.51906   2049372.01806      -491.32006        35.90006
R14  20718569.23326 110442070.31626     -1849.45926        39.10026
E12  26176549.35206    -84091.58606      1109.49906        37.10006  26176545.15505    -70400.64805       828.47805        33.90005
R15  20128897.25405 107563162.12705      2212.73205        35.30005
C13  40414470.24405   -118488.43505     -1163.61205        34.80005                                                                
R04  20710112.38815 110902149.78815      -954.16815        33.00015
E33  24392249.09705    -38013.80105     -1647.50405        34.10005  24392234.70725   2053841.08825     -1228.40425        32.90025
C26  23090800.27205   -127623.06805      2290.55205        32.50005  23090817.36023   -103809.68523      1719.09123        23.20023
R20  21865521.51425 116925208.44925     -1992.05925        32.90025
R19  23234866.73625 124291308.89125     -4059.19825        30.90025
E26  26336536.59525   -518140.46925     -3272.95725        30.70025                                                                
C34  25613112.21125   -140745.08725     -2439.61225        29.70025                                                                
E19  24393118.79524   -159095.48124       804.26724        29.10024                                                                
E27  26112315.52024   -123325.79124      1330.91324        28.20024                                                                
R05  20777300.37425 111067016.21225      1226.92525        35.10025
C09  38064557.85524   -120463.85724      -790.63424        28.00024                                                                
E21  27334864.06724   -451418.38524      2488.52124        25.50024                                                                
R16  23471748.04724 125382303.38024      4220.14424        25.40024
R03  23661334.09924 126661412.74424     -2473.68324        25.40024
C14  26194654.11823   -334404.43923      2154.93923        23.20023                                                                
C16  40012120.58523   -410472.78423     -1095.66223        23.30023                                                                
E07  26635845.78823   -134640.01423     -1916.24923        22.20023  26635900.65023   -108356.41923     -1441.07523        22.60023
E30  27419767.99024   -121641.86824      -777.66524        28.90024                                                                
> 2025 10 05 09 15 34.0000002  0 33                      
G03  21403580.60907    -20057.05007     -2543.50907        47.30007  21403586.30605    -22656.97505     -1899.46905        34.40005
G04  21462157.05807    -37839.14307     -1440.27207        41.90007  21462157.95724    -35864.78624     -1075.61424        28.20024
G16  22672697.71807    -48543.80407        18.57007        43.30007                                                                
G07  21593735.96806    -49824.62506      1456.23106        41.20006                                                                
G01  24710930.57925    -10865.12125     -3794.16325        30.40025  24710931.47823   2073999.39223     -2831.73523        22.30023
G30  23820093.39225   -162603.67525      2787.86425        31.10025  23820124.27105   -128817.66905      2086.50105        31.30005
G06  22481749.10925    -56054.60925      -252.67225        29.70025  22481788.98124   2040304.21724      -188.01724        24.90024
G09  20719422.14325    -51524.22125       422.74225        30.20025  20719393.36224   -220098.66924       312.00524        23.80024
G11  24573455.95024   -119222.39824      1912.16824        27.20024                                                                
C21  22315982.16708   -105608.81908        23.18308        52.60008  22315983.36605    -87138.60805        17.68405        35.00005
E29  23912196.23107    -43545.83607      -662.88507        42.90007  23912201.02806   2049865.51506      -494.82706        36.10006
E12  26176341.59606    -85197.63406      1103.94306        37.30006  26176338.89805    -71226.68705       824.51505        33.90005
R15  20128498.23105 107561002.91705      2206.96405        35.30005
C13  40414687.29405   -117321.78605     -1168.48705        34.80005                                                                
R04  20710295.26105 110903102.94905      -960.47905        33.70005
E33  24392562.08105    -36362.79805     -1653.15805        33.90005  24392552.48725   2055074.10125     -1235.28725        33.60025
R14  20718995.53826 110444314.98326     -1857.96726        38.00026
C26  23090356.87905   -129910.22005      2285.05905        32.60005  23090385.35923   -105524.50023      1712.20323        23.10023
R19  23235623.41325 124295328.75625     -4061.67425        30.80025
C34  25613585.58425   -138301.18325     -2445.92225        30.00025  25613585.58423   1976144.14823     -1842.89823        20.60023
E26  26337176.35225   -514863.34725     -3279.20325        30.60025                                                                
E19  24392953.61024   -159894.22924       795.90324        29.20024                                                                
R05  20777053.04525 111065666.99925      1222.72125        34.10025
E27  26112069.69024   -124657.58624      1330.64324        28.30024                                                                
C09  38064708.65124   -119668.24824      -798.06324        28.10024                                                                
R16  23471048.93124 125378540.60224      4218.21124        25.30024
E21  27334411.98024   -453903.73824      2483.76924        25.40024                                                                
R03  23661710.03924 126663398.04824     -2471.49524        25.20024
C14  26194251.49724   -336551.79024      2143.63924        24.00024                                                                
C16  40012354.42324   -409375.49324     -1098.10624        23.60024                                                                
E07  26636183.95423   -132716.61823     -1928.11323        22.20023  26636272.99223   -106913.98923     -1443.81123        22.10023
E10  28154301.78223   -546004.20523      1956.29723        19.90023                                                                
E30  27419906.49424   -120858.19124      -786.96524        28.90024  27419925.68023   1992216.85123      -583.95223        19.40023
> 2025 10 05 09 15 35.0000003  0 34                      
G03  21404050.38408    -17511.91008     -2546.98408        47.50008  21404063.57505    -20756.37805     -1901.94605        34.30005
G04  21462433.16707    -36397.32907     -1443.54307        42.20007  21462429.56924    -34789.64824     -1075.80824        28.10024
G16  22672690.82307    -48560.19007        14.24907        43.10007                                                                
G07  21593461.05806    -51279.15706      1452.63106        41.10006                                                                
G01  24711646.78325     -7073.52525     -3791.25925        30.30025  24711649.48123   2076832.16223     -2834.05323        22.30023
G30  23819570.85425   -165396.55925      2793.79125        30.80025  23819587.34305   -130902.35105      2083.06805        32.60005
G09  20719297.42925    -51942.78825       416.59725        29.90025  20719311.51924   -220410.50324       310.87124        23.70024
G06  22481830.05325    -55801.36525      -254.56125        29.60025  22481824.05724   2040494.94624      -193.28424        24.80024
G11  24573070.71724   -121129.50724      1904.23924        27.20024                                                                
C21  22315970.17508   -105630.14508        19.43508        52.50008  22315973.47306    -87154.58106        14.43206        35.50006
E29  23912308.35307    -42881.16507      -666.50107        42.90007  23912320.64506   2050362.00506      -497.98706        36.30006
E12  26176117.65106    -86299.79606      1100.21906        37.30006  26176123.64705    -72049.63505       821.40105        34.10005
R15  20128096.50906 107558893.40906      2202.93106        35.50006
R14  20719304.32416 110445997.53816     -1857.52216        37.50016
C13  40414929.82605   -116151.63505     -1171.90205        34.80005                                                                
R04  20710467.64205 110904063.01005      -963.71405        34.10005
E33  24392875.36405    -34708.02805     -1656.65305        33.70005  24392858.87525   2056308.21825     -1234.66825        34.90025
C26  23089904.19205   -132194.00405      2282.09905        32.60005  23089909.58824   -107235.22024      1708.67324        24.00024
R19  23236365.09925 124299333.32225     -4069.83525        30.80025
C34  25614040.66925   -135851.74525     -2452.20525        30.10025  25614048.76323   1977988.65723     -1844.50823        23.30023
E26  26337776.83725   -511581.39925     -3284.36125        30.50025                                                                
E19  24392777.33224   -160686.90924       789.64724        29.20024                                                                
C09  38064867.54124   -118868.89724      -801.22224        28.20024                                                                
E30  27420054.59124   -120070.78224      -789.27524        28.80024  27420063.88523   1992796.37223      -577.30623        19.70023
R05  20776827.30225 111064497.52925      1222.81925        33.20025
E27  26111797.17924   -125989.54524      1332.04224        28.30024                                                                
R16  23470278.76424 125374463.68924      4212.35724        25.90024
C16  40012574.77124   -408271.67424     -1107.08324        24.70024                                                                
C14  26193843.47924   -338696.94424      2144.05524        24.70024                                                                
E21  27333870.25524   -456385.13024      2479.41124        25.30024                                                                
R03  23662183.41124 126665969.29524     -2476.84324        25.10024
C06  38597094.78724   -775023.10124     -1052.57324        25.40024                                                                
E07  26636532.31223   -130788.41423     -1930.60723        22.60023  26636629.74523   -105467.72623     -1448.17823        21.80023
E10  28153933.63723   -547960.36323      1956.15823        20.00023                                                                
> 2025 10 05 09 15 36.0000005  0 34                      
G03  21404557.63308    -14964.48008     -2548.57308        47.50008  21404553.73605    -18854.01105     -1903.25305        34.20005
G16  22672695.02007    -48574.71307        13.59107        42.90007                                                                
G04  21462706.87707    -34953.49807     -1444.84007        42.30007  21462711.07424    -33710.87124     -1080.59524        28.00024
G09  20719217.68425    -52359.93425       416.43525        30.90025  20719232.67424   -220720.41224       308.94724        23.60024
G07  21593202.63706    -52731.00506      1450.50606        41.00006                                                                
G06  22481923.88825    -55545.99725      -256.42925        33.40025  22481859.43324   2040686.48824      -191.94924        26.00024
G01  24712390.56825     -3279.44125     -3795.32825        30.20025  24712373.78023   2079665.54023     -2833.68223        22.30023
G30  23819057.01025   -168185.87325      2787.52825        30.60025  23819058.80905   -132985.42605      2082.27305        32.10005
G11  24572705.87024   -123038.12224      1909.36824        27.40024                                                                
E29  23912457.65007    -42215.53607      -666.85807        42.80007  23912451.05506   2050859.64606      -498.21706        35.90006
C21  22315976.47108   -105649.53808        18.42708        52.00008  22315975.27206    -87169.23906        14.00006        36.80006
E12  26175905.69806    -87400.15106      1099.45106        37.40006  26175918.28905    -72871.32205       821.05705        34.00005
R14  20719659.27806 110447862.37206     -1859.81706        37.30006
R15  20127692.08906 107556705.14206      2201.50906        35.60006
C13  40415151.67305   -114979.80205     -1172.67405        34.90005                                                                
R04  20710677.19705 110905157.91605      -964.55005        34.10005
C26  23089491.67805   -134475.14805      2279.82405        33.50005  23089474.88924   -108946.80524      1712.01624        23.80024
E33  24393157.76805    -33050.70505     -1658.59905        33.70005  24393180.25315   2057545.62615     -1239.05315        34.90015
R19  23237048.02625 124302959.77725     -4079.34025        30.70025
C34  25614523.33425   -133403.62625     -2447.45925        30.10025  25614522.13523   1979830.39623     -1840.35523        23.00023
C09  38065028.52924   -118069.18024      -799.90124        29.00024                                                                
E26  26338246.31125   -886694.76125     -3280.81725        29.90025                                                                
E19  24392642.12524   -161478.06624       790.39424        29.10024                                                                
R05  20776623.44325 111063380.07225      1217.71425        32.40025
R16  23469477.71924 125370158.23824      4212.16324        27.60024
E27  26111558.84424   -127316.12124      1323.88424        28.20024                                                                
C06  38597300.74524   -773964.84324     -1058.25724        26.40024                                                                
C16  40012796.61724   -407164.61924     -1108.67324        25.60024                                                                
E21  27333372.60024   -458866.99524      2482.10124        25.30024                                                                
C14  26193438.16024   -340842.91024      2146.37224        24.70024                                                                
R03  23662690.06124 126668653.13124     -2480.06724        25.00024
E07  26636890.56423   -128861.17823     -1926.75123        23.20023  26636999.38923   -104021.44223     -1446.29523        21.40023
E10  28153552.90123   -549917.51423      1957.64623        20.00023                                                                
E30  27420220.37624   -119284.40224      -785.86624        28.70024  27420218.27823   1993375.33223      -578.67923        19.90023
> 2025 10 05 09 15 37.0000006  0 33                      
G03  21405022.91107    -12414.79007     -2550.82107        47.40007  21405031.60505    -16950.13005     -1904.63605        34.10005
G16  22672680.03007    -48586.59707        11.31607        42.90007                                                                
G04  21462968.59607    -33507.62707     -1446.89107        42.30007  21462981.18724    -32631.28024     -1079.99824        27.90024
G06  22482005.43216    -55289.90016      -256.46316        35.60016  22481909.79824   2040878.92524      -192.88424        25.70024
G01  24713111.56925       518.18125     -3799.38925        30.20025  24713088.48523   2082504.58823     -2841.88323        22.30023
G30  23818540.76725   -170974.13325      2787.73325        30.50025  23818525.17805   -135066.92405      2080.70905        32.00005
G11  24572318.53824   -124945.81224      1907.22724        27.40024                                                                
C21  22315957.28408   -105666.77708        16.16208        50.60008  22315965.97806    -87182.28306        12.23706        37.70006
R05  20776383.30925 111062131.82325      1216.87325        32.10025
E29  23912570.07207    -41547.32907      -669.24607        42.70007  23912573.07006   2051358.76506      -499.85706        36.50006
E12  26175689.84706    -88497.13806      1096.05506        37.40006  26175702.43806    -73691.62706       819.61406        36.20006
R14  20719943.18206 110449411.45406     -1863.76106        37.20006
R15  20127229.50906 107554267.62306      2199.24506        35.80006
R04  20710826.79305 110905993.08705      -966.33305        34.70005
C13  40415350.43505   -113806.17405     -1174.52505        34.90005                                                                
C26  23089062.67515   -136754.29615      2278.15015        33.90015  23089059.67724   -110658.71824      1712.07824        23.50024
E33  24393482.74315    -31392.20815     -1659.08515        33.70015  24393485.44105   2058785.30305     -1240.81305        34.40005
C34  25614968.22625   -130952.25025     -2453.00525        30.00025  25614985.01523   1981667.89023     -1835.37023        22.70023
C09  38065168.53225   -117267.81825      -802.18325        29.80025                                                                
C06  38597509.70024   -772900.46624     -1067.43624        28.40024                                                                
E19  24392511.71624   -162270.99224       793.81124        29.00024                                                                
E30  27420379.56624   -118496.80424      -788.20724        28.70024  27420362.77823   1993957.15723      -583.25823        19.90023
R16  23468685.36724 125365960.56524      4209.83824        28.00024
E26  26338898.66024   -883413.32224     -3281.43924        29.40024  26338868.98023   -667356.69323     -2444.83323        22.30023
C16  40013018.46424   -406053.33824     -1113.39424        25.80024                                                                
E21  27332879.44124   -461348.83824      2481.83124        25.60024  27332933.70423   -351735.54423      1846.06923        18.60023
C14  26193009.45724   -342987.80824      2144.36324        24.70024                                                                
R03  23663163.43324 126671223.61124     -2480.16524        24.80024
R19  23237844.57525 124307255.18825     -4082.86125        29.60025
E07  26637264.40623   -126934.88823     -1925.81723        23.30023  26637361.23923   -102574.23023     -1447.67623        21.10023
E10  28153140.68623   -551871.58123      1952.52623        19.90023                                                                
E27  26111320.20924   -128640.19724      1322.82524        28.20024                                                                
G09                                                                  20719133.14324   -221027.66724       305.92824        23.60024
> 2025 10 05 09 15 38.0000008  0 35                      
G03  21405514.87007     -9856.72207     -2562.25607        47.30007  21405524.16405    -15040.17505     -1912.99205        34.10005
G16  22672686.32607    -48590.86407         0.20807        42.80007                                                                
G04  21463258.19607    -32053.88007     -1457.68307        42.20007  21463263.29224    -31545.19324     -1089.33524        27.60024
G07  21592619.84026  -1053590.79326      1432.84626        37.30026                                                                
G09  20719086.67524    -53175.29424       401.13224        29.20024  20719059.69324   -221331.80724       302.58124        24.40024
G30  23818035.61725   -173754.61525      2776.59225        30.40025  23818001.74115   -137141.26515      2070.76215        32.00015
G01  24713824.47525      4324.06625     -3810.01725        30.10025  24713815.18223   2085345.63623     -2842.04823        22.30023
G11  24571955.18924   -126842.28824      1890.87024        27.30024                                                                
G06  22482051.30026    -55020.10726      -276.64026        35.80026  22481953.26824   2041078.58724      -203.27524        25.30024
C21  22315963.58008   -105675.57108         4.57108        50.20008  22315970.17506    -87188.45406         2.73606        38.10006
R05  20776153.96817 111060878.22317      1204.89817        43.30017
E29  23912700.48217    -40870.92617      -680.50017        42.60017  23912709.17626   2051864.91926      -509.67126        36.50026
E12  26175484.18906    -89586.51306      1084.56806        37.40006  26175500.67806    -74505.73806       811.01306        36.50006
R14  20720320.62126 110451396.80826     -1875.29326        37.10026
R04  20711012.06505 110906959.28405      -977.90005        35.20005
R15  20126849.67216 107552210.11616      2185.94216        35.80016
C13  40415571.98205   -112625.60305     -1184.04305        34.90005                                                                
C26  23088613.28625   -139025.84625      2267.75025        34.10025  23088619.88123   -112384.72923      1733.05923        23.30023
E33  24393838.59725  -1079716.78125     -1672.10125        33.10025  24393812.81505   2060032.00805     -1250.21805        34.30005
C34  25615449.09425   -128491.94625     -2464.76725        30.60025  25615459.58623   1983511.45423     -1846.59923        22.50023
C09  38065319.92725   -116461.20525      -809.23825        29.90025                                                                
C06  38597709.06224   -771827.98924     -1076.52724        28.90024                                                                
R20  21867360.14224 116935031.19324     -2018.49824        26.80024
E19  24392359.72124   -163056.26924       781.45224        28.90024                                                                
R16  23467825.26324 125361337.92624      4192.44624        28.00024
E30  27420552.84624   -117697.46124      -805.21524        28.50024  27420524.06623   1994542.80423      -587.55623        19.80023
E27  26111092.96624   -129958.53524      1315.46824        28.10024                                                                
E26  26339511.73524   -880123.96124     -3293.32224        29.00024                                                                
C16  40013256.49924   -404938.14624     -1117.14724        25.90024                                                                
E21  27332449.23924   -463823.69924      2471.37124        25.60024  27332467.22723   -353583.08823      1848.28123        18.80023
C14  26192599.34124   -345125.49224      2134.07724        24.80024                                                                
R03  23663598.43224 126673523.71424     -2482.23824        24.70024
E07  26637658.63323   -125004.81623     -1931.96323        23.30023  26637734.78023   -101126.58323     -1447.86523        21.00023
R19  23238646.82024 124311519.98824     -4090.48324        28.70024
E10  28152774.64023   -553820.58523      1946.47123        19.90023                                                                
> 2025 10 05 09 15 39.0000010  0 35                      
G03  21406005.03107     -7290.58907     -2570.16507        47.10007  21406017.92205    -13124.03605     -1919.23105        34.50005
G16  22672692.32207    -48586.79607        -8.23607        42.90007                                                                
G04  21463531.00707    -30591.24107     -1467.08607        42.10007  21463547.49524    -30451.69824     -1097.19924        27.50024
G06  22482089.97326    -54741.29526      -283.32226        35.70026  22482018.32324   2041286.84524      -212.55624        25.10024
G07  21592345.83026  -1055020.20526      1429.41126        36.80026                                                                
G09  20719014.72525    -53570.70225       395.40825        33.00025  20718997.03724   -221626.63424       290.17224        26.00024
G01  24714576.65525      8139.24725     -3819.82725        30.10025  24714545.47623   2088198.19323     -2858.31023        22.20023
G30  23817484.89825   -176521.54025      2760.14725        30.40025  23817481.60115   -139209.16515      2064.67915        31.90015
G11  24571578.35024   -128722.78924      1872.51224        27.30024                                                                
C21  22315967.77708   -105675.94608        -3.83308        49.70008  22315975.57216    -87188.31816        -3.29016        38.50016
R05  20775931.22207 111059662.86307      1195.74607        43.90007
E29  23912855.17507    -40186.32007      -688.70707        42.50007  23912846.18126   2052378.74026      -517.65426        36.40026
E12  26175280.93006    -90667.06706      1077.14306        37.40006  26175299.81706    -75313.72406       804.92406        37.40006
R14  20720677.97316 110453275.37816     -1884.26716        37.00016
R04  20711192.24006 110907897.12506      -987.15106        35.60006
R15  20126454.24606 107550071.55306      2176.61806        35.70006
C13  40415802.22215   -111436.91915     -1192.74015        34.80015                                                                
C26  23088177.68725   -141286.85625      2255.74025        34.10025  23088184.28323   -114102.44323      1713.56423        23.10023
E33  24394121.30125  -1078038.15925     -1678.62125        33.00025  24394137.79015   2061285.40715     -1256.74515        34.20015
C34  25615945.25025   -126023.34325     -2472.75225        31.40025  25615942.25223   1985367.13723     -1861.74323        22.20023
R20  21867712.39825 116936888.92925     -2023.42825        30.20025
C09  38065477.31825   -115640.19125      -828.21625        29.90025                                                                
C06  38597912.92124   -770744.66924     -1088.74124        28.90024                                                                
E26  26340164.68324  -1175031.39124     -3304.96024        28.70024                                                                
E19  24392226.91324   -163828.31624       765.43224        28.80024                                                                
R16  23467077.88024 125357320.62924      4194.69324        28.20024
E30  27420678.45924   -116883.29924      -821.57224        28.40024  27420680.25823   1995137.71923      -599.55023        19.90023
E27  26110834.24624   -131270.17624      1308.29324        28.00024                                                                
C16  40013473.24924   -403814.93024     -1127.22824        25.90024                                                                
R19  23239481.74224 124315960.82024     -4095.34124        27.90024
C14  26192210.81024   -347253.44424      2123.08524        24.80024                                                                
R03  23664097.28624 126676169.25324     -2494.51424        24.60024
E07  26638012.08823   -123063.71523     -1946.61523        23.30023  26638109.82023    -99670.75523     -1459.91723        20.90023
E10  28152436.77423   -555762.29223      1938.05823        19.90023                                                                
E21  27331991.75624   -466283.06624      2451.61924        25.60024  27331997.15223   -355435.45223      1854.77323        18.70023
> 2025 10 05 09 15 40.0000011  0 34                      
G03  21406491.59407     -4718.22807     -2575.47607        47.00007  21406501.78705    -11202.95905     -1923.54505        34.50005
G16  22672691.42207    -48576.17707       -13.89507        43.10007                                                                
G06  22482143.63626    -54457.72426      -285.95026        35.60026  22482065.39024   2041497.76224      -212.24724        24.80024
G07  21592081.41326  -1056446.58026      1424.85826        36.50026                                                                
G09  20718930.78325    -53960.27325       386.65325        34.10025  20718916.99224   -221913.15824       282.37224        25.60024
G30  23816965.95825   -179283.41325      2759.34625        30.30025  23816949.16925   -141271.27525      2059.21525        31.70025
G01  24715274.57125     11958.81325     -3821.76025        30.10025  24715272.17323   2091046.98523     -2846.91023        22.20023
G11  24571205.40824   -130598.17024      1872.82124        27.20024                                                                
R05  20775719.26917 111058564.52917      1188.23617        43.70017
E29  23912966.39807    -39494.39607      -694.83307        42.10007  23912961.90126   2052894.85926      -517.26926        36.10026
E12  26175090.26226    -91740.40526      1069.48126        37.30026  26175087.86406    -76116.67706       800.43706        37.00006
R14  20721020.63606 110455136.40706     -1888.99806        36.90006
R04  20711375.71306 110908916.18606      -991.95206        35.60006
R15  20126050.42506 107547949.04506      2173.52606        35.60006
C13  40416031.26425   -110239.12925     -1202.34225        34.70025                                                                
C26  23087748.68425   -143541.92725      2252.10125        34.00025  23087746.58623   -115804.10123      1693.63123        22.90023
E33  24394456.76915  -1076353.55215     -1686.85015        33.30015  24394450.17425   2062540.81825     -1256.41725        33.00025
C34  25616433.91225   -123551.15225     -2473.98525        32.00025  25616412.02723   1987232.72023     -1870.53223        22.00023
R20  21868127.01125 116939141.47425     -2032.47925        30.20025
C09  38065639.20625   -114814.92525      -827.39125        29.80025                                                                
C06  38598119.17824   -769662.43124     -1081.69724        29.20024                                                                
R16  23466273.83724 125353061.04624      4183.01324        28.40024
E26  26340781.95624  -1171723.41624     -3307.97424        28.60024                                                                
E19  24392093.20524   -164595.64724       764.97224        28.70024                                                                
E30  27420802.87324   -116066.19724      -818.57224        28.20024  27420825.05823   1995732.09723      -594.11023        19.90023
E27  26110561.43424   -132568.67724      1291.93024        27.80024                                                                
E21  27331510.88924   -468736.33024      2450.21224        25.70024  27331500.09623   -357304.84423      1877.90723        18.30023
C16  40013683.10424   -402681.34124     -1138.77424        25.90024                                                                
R19  23240244.11424 124320073.30224     -4094.72824        27.40024
C14  26191784.80524   -349367.82224      2107.59124        24.70024                                                                
R03  23664641.41024 126679116.57424     -2503.98724        24.50024
E07  26638388.32824   -121109.63124     -1960.57524        23.60024  26638471.07023    -98210.41323     -1462.60023        21.10023
E10  28152062.03323   -557701.34523      1937.72623        19.80023                                                                
G04                                                                  21463821.80524    -29352.85324     -1101.51924        27.40024
> 2025 10 05 09 15 41.0000013  0 35                      
G03  21406982.35407     -2138.62507     -2583.22307        46.80007  21406997.64405     -9276.66705     -1928.90005        34.50005
G16  22672690.82307    -48558.11207       -21.78707        43.10007                                                                
G07  21591812.49926  -1057864.62526      1413.87826        36.30026                                                                
G06  22482177.81226    -54165.70226      -296.24726        35.60026  22482125.04924   2041714.64724      -219.86924        24.50024
G09  20718857.33425    -54344.17925       381.07225        34.30025  20718849.53924   -222197.73424       283.60124        25.20024
G30  23816418.53725   -182042.31825      2757.42125        30.30025  23816428.13025   -143328.27125      2054.43725        32.60025
G01  24716029.44925     15787.30525     -3832.95325        30.10025  24716013.86023   2093902.50123     -2858.87723        22.30023
G04  21464128.19326  -1378957.80726     -1476.90026        39.40026  21464102.71124    -28250.16224     -1104.61324        27.00024
G11  24570861.54724   -132467.79924      1866.75324        27.20024                                                                
R05  20775489.62807 111057310.15807      1185.43007        43.50007
E29  23913104.30207    -38796.16607      -701.63307        42.10007  23913105.50226   2053418.69626      -527.69526        36.30026
R14  20721415.16306 110457212.52206     -1899.68206        36.90006
R04  20711611.05006 110910149.01306      -999.99406        35.70006
C13  40416255.50915   -109037.61715     -1203.37215        34.70015                                                                
R15  20125604.63426 107545539.81426      2169.81226        35.50026
C26  23087349.96025   -145790.98425      2246.05025        34.00025  23087320.28123   -117494.89323      1685.35823        22.70023
E33  24394784.44225  -1074662.01425     -1695.25425        33.50025  24394777.54725   2063803.27925     -1265.98625        33.30025
C34  25616888.39725   -121070.97925     -2484.16525        32.00025  25616895.89223   1989100.92423     -1869.51523        21.80023
E12  26174881.60726    -92807.14526      1063.44026        36.40026  26174889.10106    -76914.29006       794.94306        36.20006
R20  21868499.95325 116941107.85825     -2035.39025        30.40025
C09  38065809.78825   -113984.78625      -832.57525        29.90025                                                                
C06  38598343.72324   -768572.78024     -1093.35724        29.20024                                                                
E19  24391920.82524   -165357.50124       759.11624        28.60024                                                                
R16  23465443.41224 125348598.14724      4177.99824        28.40024
E30  27420960.86424   -115250.06724      -815.64324        28.20024  27420982.14923   1996332.95723      -604.10023        19.80023
E27  26110352.77924   -133861.35524      1289.76824        27.60024                                                                
R19  23240969.01224 124323924.78424     -4100.12124        27.10024
E21  27331044.11224   -471187.42624      2450.01124        25.90024  27331022.52723   -359186.13823      1887.24423        17.90023
C16  40013918.14124   -401541.89524     -1142.37524        25.80024                                                                
C14  26191385.78124   -351473.39324      2101.16624        24.60024                                                                
R03  23665060.81924 126681335.48824     -2511.11624        24.40024
E07  26638765.76624   -119144.47124     -1970.69724        23.70024  26638847.61023    -96746.61023     -1465.53423        22.10023
C24  26575347.67023  -1211827.52123      3083.08123        21.60023                                                                
E10  28151706.77923   -559641.68823      1940.98723        19.70023                                                                
E26  26341391.73424  -1168410.30824     -3315.67524        28.60024                                                                
> 2025 10 05 09 15 42.0000015  0 33                      
G03  21407464.72107       445.89907     -2586.98407        46.70007  21407473.11505     -7346.92005     -1931.47305        34.60005
G16  22672675.83307    -48535.28607       -25.20707        43.20007                                                                
G04  21464370.12626  -1377479.70726     -1478.10026        38.40026  21464365.62924    -27144.82824     -1106.65624        26.40024
G09  20718778.18815    -54722.39315       375.36915        35.00015  20718768.59524   -222481.49524       283.35424        24.80024
G06  22482232.67426    -53870.52926      -296.74926        35.50026  22482316.01624   2041935.50424      -222.84224        24.20024
G30  23815891.80125   -184793.04525      2746.63725        30.30025  23815892.10115   -145382.06315      2052.19115        32.50015
G01  24716729.46425     19619.47025     -3834.00125        30.10025  24716733.36223   2096764.01223     -2864.50823        22.40023
G11  24570502.09524   -134333.65724      1863.97324        27.80024                                                                
G07  21591536.09116  -1059279.66916      1413.54516        36.30016                                                                
R05  20775239.90117 111056045.07717      1179.11017        43.40017
E29  23913224.81907    -38093.50107      -704.88207        42.00007  23913222.72026   2053942.66726      -524.03826        35.90026
R14  20721735.04126 110458988.11726     -1905.43926        36.80026
R04  20711762.14506 110911028.61206     -1000.84306        36.00006
C13  40416480.65305   -107831.75705     -1208.03305        35.20005                                                                
R15  20125222.09925 107543565.63625      2159.88125        35.40025
C26  23086868.49425   -148035.88425      2242.82025        33.90025  23086884.08323   -119175.39523      1675.35823        22.50023
E33  24395072.24325  -1072964.71225     -1700.18325        33.40025  24395086.93325   2065072.01925     -1271.87925        33.10025
C34  25617364.46825   -118582.53025     -2492.58625        32.00025  25617353.97523   1990972.60723     -1873.42223        21.60023
R20  21868829.12525 116942938.81125     -2045.57525        30.80025
C09  38065950.99025   -113151.83425      -834.35825        30.40025                                                                
E12  26174680.44625  -1475962.96625      1062.78725        35.00025  26174673.85006    -77708.79506       792.94906        35.60006
C06  38598542.48524   -767477.22124     -1098.51224        29.10024                                                                
R16  23464674.44424 125344560.20824      4172.41824        28.40024
E30  27421103.26524   -114427.67724      -825.52124        28.30024                                                                
E19  24391770.02924   -166112.51124       751.58824        28.60024                                                                
E27  26110052.38724   -135145.52824      1279.91924        27.50024                                                                
R19  23241743.07624 124328135.99524     -4111.98224        27.00024
E21  27330576.13624   -473634.00124      2444.31424        25.90024  27330550.65323   -361049.80723      1854.85523        17.60023
C16  40014109.10924   -400399.81724     -1143.39324        25.80024                                                                
R03  23665521.30124 126683869.96324     -2508.60424        24.30024
C14  26190988.25624   -353575.97224      2101.08424        24.50024                                                                
E10  28151340.43323   -561581.92423      1940.18223        19.60023                                                                
E07  26639111.12724   -117172.18624     -1975.84724        23.70024  26639209.15923    -95283.67323     -1462.50323        22.60023
> 2025 10 05 09 15 43.0000017  0 35                      
G03  21407963.57507      3027.86407     -2581.43407        46.50007  21407973.46805     -5417.42705     -1929.36605        34.60005
G16  22672690.82307    -48513.16807       -21.76407        43.30007                                                                
G09  20718692.74725    -55102.05525       380.38625        35.40025  20718702.94024   -222768.92924       289.27124        24.60024
G06  22482277.04326    -53575.52226      -294.92426        35.50026                                                                
G04  21464658.82626  -1376002.52626     -1476.72026        37.80026  21464660.02524    -26036.88924     -1109.24124        26.20024
G01  24717474.74825     23453.34125     -3834.72325        30.10025  24717469.35223   2099627.27523     -2864.13923        22.40023
G11  24570158.53324   -136200.53824      1867.39124        28.10024                                                                
G26  24637013.15124  -1540791.09624     -2614.36524        26.40024                                                                
G07  21591270.77426  -1060694.01726      1413.99926        36.20026                                                                
G30  23815383.65325   -187543.25425      2749.95025        30.20025  23815367.76425   -147434.64525      2051.97625        31.80025
R05  20775012.35807 111054803.70707      1182.54307        43.10007
E29  23913366.32127    -37394.50927      -697.15527        41.90027  23913363.02326   2054466.29026      -523.45026        35.90026
R14  20722101.38816 110460916.25916     -1900.64916        36.70016
R04  20711927.93116 110911890.59416     -1001.99816        36.00016
C13  40416712.99215   -106626.67115     -1204.70015        35.40015                                                                
R15  20124805.08725 107541313.14125      2161.46325        35.30025
C26  23086439.79025   -150282.22625      2247.06325        33.80025  23086452.38223   -120852.87023      1675.95923        22.20023
E33  24395393.62025  -1071268.50925     -1695.65325        33.40025  24395416.10525   2066339.79025     -1267.28625        33.40025
C34  25617845.03525   -116098.35425     -2482.03825        32.00025                                                                
C09  38066130.56625   -112320.28925      -830.84225        30.70025                                                                
R20  21869218.85525 116944997.77525     -2041.40425        30.70025
E12  26174476.58725  -1477025.83825      1062.87125        34.10025  26174476.58705    -78503.65605       795.03905        35.30005
C06  38598740.04824   -766379.88124     -1098.23124        29.10024                                                                
R16  23463912.07224 125340462.65824      4173.39324        28.30024
E19  24391637.82124   -166869.57624       758.09324        28.50024                                                                
R19  23242523.43624 124332283.67924     -4100.75224        26.90024
E21  27330094.66924   -476080.61724      2446.63724        26.10024  27330105.46222   -362881.18122      1815.22722        17.30022
E27  26109819.74824   -136426.13524      1278.82524        27.20024                                                                
C16  40014351.04124   -399257.56624     -1142.33824        25.80024                                                                
E26  26342643.96724  -1500478.15124     -3313.06624        25.40024                                                                
R03  23665985.67924 126686330.14524     -2504.38924        24.20024
C14  26190588.63324   -355681.69424      2107.29224        24.30024                                                                
E10  28150978.28323   -563523.26023      1941.88623        19.50023                                                                
E30  27421239.97124   -113606.67424      -820.30924        28.30024                                                                
E07                                                                  26639589.29623    -93822.65223     -1460.06223        23.40023
> 2025 10 05 09 15 44.0000019  0 34                      
G16  22672703.11407    -48490.90907       -22.32907        43.40007                                                                
G03  21408463.02907      5611.87307     -2584.78107        46.20007  21408470.52405     -3488.26205     -1929.00005        35.20005
G07  21591017.15026  -1062108.01726      1413.82526        36.30026                                                                
G06  22482360.68625    -53279.97925      -295.81125        35.40025                                                                
G04  21464943.32926  -1374521.69326     -1482.65926        37.30026  21464941.83025    -24931.94325     -1103.44925        30.50025
G30  23814863.21325   -190294.90925      2752.37725        30.20025  23814850.92225   -149488.76925      2054.89525        30.90025
G01  24718223.03025     27288.09125     -3835.19025        30.10025  24718209.83923   2102493.01723     -2866.98023        22.40023
G11  24569799.38224   -138066.81024      1865.96824        28.40024                                                                
G26  24637503.91124  -1538180.99024     -2610.10624        27.20024                                                                
G09  20718624.09516    -55481.38416       379.16316        35.50016  20718610.30524   -223057.50024       289.14024        24.90024
C13  40416947.72906   -105421.77106     -1204.80706        38.60006                                                                
R05  20774799.20607 111053636.52707      1181.40207        42.90007
E29  23913504.22627    -36692.97927      -702.79927        41.60027  23913504.82526   2054990.64726      -524.72326        35.80026
R14  20722455.14326 110462774.22826     -1900.75926        36.60026
R04  20712123.99526 110912912.71226      -998.83426        36.00026
R15  20124394.67125 107539092.76225      2161.75325        35.10025
C26  23086012.58625   -152527.49625      2244.73425        33.70025  23086026.37723   -122524.69123      1668.99523        22.00023
E33  24395754.27125  -1069570.44825     -1698.99125        33.40025  24395744.37815   2067607.43715     -1267.58515        34.20015
C34  25618319.30725   -113616.56725     -2480.59225        31.90025                                                                
C09  38066294.25325   -111488.57925      -831.79325        30.80025                                                                
R20  21869597.49325 116946994.76425     -2044.32425        30.70025
E12  26174269.73025  -1478089.34225      1063.82025        33.40025  26174279.02425    -79298.53125       794.88225        34.10025
E30  27421409.05424   -112787.69224      -817.97124        28.30024                                                                
E19  24391493.02124   -167628.89424       760.44424        28.40024                                                                
R16  23463229.14424 125336787.00524      4167.48224        28.30024
E07  26639945.45024  -1598448.89324     -1958.79324        24.80024  26639841.42223    -92361.39723     -1461.37323        22.60023
R19  23243310.39124 124336466.57324     -4099.82924        26.80024
E21  27329612.60324   -478531.79924      2453.46424        26.10024  27329631.49022   -364707.22422      1823.37722        17.20022
E26  26343291.51924  -1497163.85024     -3314.30024        25.70024                                                                
E27  26109622.78424   -137712.19924      1288.79224        27.00024                                                                
C16  40014574.08724   -398117.15224     -1139.49624        25.70024                                                                
R03  23666512.71424 126689125.04124     -2493.53924        24.10024
C14  26190171.02224   -357790.45724      2110.28424        24.20024                                                                
E10  28150613.73623   -565465.46723      1942.64323        19.40023                                                                
> 2025 10 05 09 15 45.0000021  0 34                      
G16  22672711.50807    -48468.95707       -21.79907        43.50007                                                                
G03  21408954.38917      8195.96717     -2584.13517        44.90017  21408965.78106     -1559.42006     -1928.68006        37.60006
G07  21590771.92026  -1063524.78126      1418.14626        36.40026                                                                
G09  20718550.34626    -55860.60226       379.16326        35.60026  20718544.35024   -223342.67424       283.47524        26.20024
G04  21465231.13026  -1373041.87226     -1479.31526        36.90026  21465232.02925    -23828.90825     -1102.07925        29.90025
G30  23814400.63425   -193049.48225      2756.03225        30.10025  23814334.37925   -151545.29925      2057.73225        30.80025
G01  24718918.84925     31117.78425     -3827.16325        30.00025  24718936.53623   2105349.55423     -2851.93423        22.30023
G11  24569419.54524   -139931.91724      1864.52324        28.70024                                                                
G26  24637986.27724  -1535571.76624     -2608.78224        27.10024                                                                
G06  22482384.06925    -52986.82825      -291.95425        35.30025  22482352.89124  -1224277.50724      -217.41224        23.80024
C13  40417182.76707   -104217.76107     -1203.56507        42.90007                                                                
R05  20774580.35707 111052439.51707      1183.39907        42.80007
E29  23913630.73826    -35993.39126      -699.36826        41.40026  23913644.22926   2055514.06026      -522.94126        35.80026
R14  20722816.99226 110464675.67426     -1899.97026        36.50026
R04  20712338.94616 110914037.49716      -999.24816        35.90016
R15  20123988.15325 107536893.02525      2163.82725        35.00025
E33  24396157.49225  -1067878.70925     -1688.57825        33.40025  24396069.95205   2068874.90605     -1267.38005        34.00005
C26  23085593.77615   -154770.51615      2241.89515        33.60015  23085597.97323   -124202.49123      1680.78923        21.70023
E12  26174230.15825  -1745671.63725      1063.06025        32.80025  26174077.56325    -80098.26325       802.16125        32.40025
C34  25618813.96425   -111133.07625     -2484.34325        31.80025                                                                
C09  38066443.54925   -110656.11025      -832.84925        30.80025                                                                
R20  21869975.83125 116948990.22225     -2041.59525        30.60025
E07  26640340.57624  -1596486.67524     -1962.21724        28.20024  26640345.67224    -90895.91724     -1467.59224        24.60024
E30  27421594.02524   -111969.32724      -818.05724        28.30024                                                                
E19  24391344.62324   -168388.12824       759.19324        28.40024                                                                
R16  23462435.89424 125332522.06424      4182.66024        28.30024
E26  26344010.12124  -1493848.19224     -3316.33624        26.80024                                                                
R19  23244156.10624 124340963.28124     -4098.11424        26.80024
E21  27329196.19124   -480985.04224      2454.27324        26.10024  27329172.20822   -366548.01622      1848.16522        17.20022
C16  40014792.33624   -396979.55124     -1136.19424        25.70024                                                                
E27  26109425.82124   -139006.27524      1298.08224        26.80024                                                                
R03  23666917.43424 126691264.29824     -2501.02124        24.00024
C14  26189778.29424   -359901.83424      2112.68424        24.00024                                                                
E10  28150221.30723   -567408.19123      1942.98123        19.40023                                                                
> 2025 10 05 09 15 46.0000022  0 35                      
G16  22672686.02607    -48449.24907       -18.58507        43.70007                                                                
G03  21409426.26317     10776.60617     -2578.91317        44.10017  21409430.46006       367.68406     -1926.23606        37.30006
G07  21590466.43126  -1064940.52026      1415.22726        36.50026                                                                
G09  20718448.41716    -56242.91416       383.85816        35.90016  20718451.71424   -223628.90024       286.75224        26.70024
G04  21465483.85526  -1371567.00826     -1472.38726        36.50026  21465488.05225    -22723.31525     -1106.87225        29.60025
G06  22482431.43715    -52693.71115      -293.10015        35.30015  22482386.76824  -1224063.38024      -214.12724        24.40024
G30  23813881.39325   -195810.74125      2764.60125        30.10025  23813785.45925   -153605.81825      2062.51425        30.60025
G11  24569050.80024   -141802.92824      1873.96324        28.90024                                                                
G26  24638462.34724  -1532963.77324     -2607.37924        27.00024                                                                
G01  24719611.36925     34942.87025     -3822.78325        30.00025  24719635.05323   2108205.62523     -2855.83723        22.20023
C21  22315965.97817   -105572.95217       -13.51417        47.20017  22315971.07526    -87115.86126        -8.27126        36.70026
C13  40417388.72407   -103016.37507     -1200.07407        42.90007                                                                
R05  20774325.23407 111051210.38307      1187.24407        42.80007
E29  23913742.86016    -35295.59316      -696.65216        41.30016  23913753.35326   2056035.15426      -519.93526        35.60026
R04  20712479.24926 110914923.22526      -995.25926        35.90026
R14  20723142.56726 110466545.84426     -1901.14326        36.40026
R15  20123565.44625 107534768.21725      2163.19325        34.80025
E33  24396440.49625  -1066188.31425     -1689.72225        33.70025  24396368.24625   2070140.08825     -1264.03825        33.50025
C26  23085135.39325   -157019.67125      2252.22325        33.60025  23085146.48623   -125890.88423      1693.69023        21.40023
C09  38066582.65325   -109826.21725      -828.60425        31.40025                                                                
C34  25619262.45425   -108652.04225     -2479.80525        31.70025                                                                
E12  26174005.61325  -1746736.54825      1064.91125        32.40025  26173849.12125    -80900.84525       804.00725        32.30025
R20  21870380.25125 116951288.67125     -2039.07125        30.50025
R16  23461590.77924 125328142.46924      4182.54324        28.60024
E30  27421710.64524   -111150.56224      -818.96624        28.40024                                                                
E19  24391171.94324   -169148.38224       760.76324        28.40024                                                                
R19  23244860.61824 124344866.80424     -4098.16024        27.10024
E26  26344654.67524  -1490537.24424     -3308.59224        26.80024                                                                
E21  27328698.83524   -483437.81824      2452.54324        26.40024  27328673.35323   -368375.87323      1821.39023        17.90023
C16  40014972.81124   -395844.79424     -1133.33524        25.90024                                                                
E27  26109179.99124   -140305.94524      1302.46724        26.60024                                                                
R03  23667378.21524 126693865.41224     -2507.42224        24.00024
C14  26189353.78824   -362016.47824      2116.27724        23.80024                                                                
E10  28149836.07423   -569348.57823      1939.21823        19.30023                                                                
E07  26640700.02724  -1594528.17624     -1956.63924        29.30024  26640694.03124    -89432.03624     -1463.08124        25.10024
> 2025 10 05 09 15 47.0000024  0 36                      
G16  22672716.30507    -48430.13507       -18.81807        43.70007                                                                
G09  20718399.25106    -56625.42206       382.60706        41.00006  20718398.65125   -223914.71725       285.61225        34.40025
G03  21409937.40907     13356.23507     -2579.12207        43.70007  21409946.70206      2294.11106     -1926.08806        37.10006
G06  22482548.05615    -52401.56415      -291.66215        35.20015  22482581.03324  -1223874.18224      -176.73224        24.10024
G04  21465780.05026  -1370096.36426     -1468.53326        36.30026  21465788.74425    -21621.14425     -1100.46025        32.50025
G30  23813334.27225   -198569.78325      2757.93325        30.10025  23813287.50425   -155664.56725      2057.86425        30.50025
G01  24720318.28025     38765.22825     -3820.99225        29.90025  24720384.53423   2111065.75323     -2862.15623        22.00023
G11  24568707.23824   -143676.30124      1874.55424        28.90024                                                                
G26  24638935.42024  -1530366.79724     -2591.46624        26.80024                                                                
G07  21590231.09426  -1066360.46626      1422.05026        36.60026                                                                
R05  20774137.56407 111050082.21707      1187.35907        43.90007
C21  22315998.65607   -105560.35607       -12.59607        46.90007  22315996.25726    -87105.64326       -10.21826        37.40026
C13  40417641.44907   -101816.08507     -1199.74207        42.80007                                                                
E29  23913902.35006    -34599.54206      -695.17806        41.10006  23913904.74825   2056550.45025      -512.39725        34.60025
R04  20712716.08526 110916066.40926      -994.06226        35.80026
R14  20723517.60726 110468419.83626     -1895.91926        36.30026
R15  20123186.50815 107532618.94515      2167.32515        34.70015
E33  24396750.78125  -1064500.67625     -1686.25925        33.90025  24396711.20815   2071405.31115     -1265.24215        33.10015
C26  23084728.57525   -159268.67225      2248.92325        33.50025  23084719.88124   -127580.08724      1689.60824        24.10024
C09  38066768.22525   -108998.17125      -827.12225        32.20025                                                                
C34  25619752.61425   -106170.41325     -2481.92625        31.60025                                                                
E12  26173822.74025  -1747804.23025      1069.06825        32.00025  26173668.64625    -81714.70625       819.50025        32.10025
R20  21870797.86225 116953396.60725     -2035.74925        30.40025
E30  27421877.92924   -110334.44624      -814.79024        28.70024                                                                
E07  26641087.35924  -1592571.85824     -1955.22624        29.30024  26641089.45824    -87971.42524     -1458.97524        25.50024
R16  23460817.91424 125323889.75924      4186.01424        28.80024
E19  24391070.91324   -169914.64624       769.26924        28.40024                                                                
R19  23245572.02524 124348547.60424     -4102.70324        27.10024
E21  27328255.44224   -485891.00724      2453.39524        26.80024  27328239.85323   -370204.62023      1829.19123        17.90023
E26  26345280.64224  -1487227.32324     -3309.40724        26.80024                                                                
C16  40015244.42324   -394713.56824     -1129.46124        26.00024                                                                
E27  26108963.84024   -141606.49524      1300.99024        26.50024                                                                
R03  23667848.58924 126696257.43024     -2506.81924        23.90024
C14  26188973.05124   -364132.74624      2117.08024        23.60024                                                                
E10  28149499.10723   -571287.35323      1937.96823        19.20023                                                                
C22                                                                  24125753.68824  -1438837.79724     -1517.87824        27.60024
> 2025 10 05 09 15 48.0000026  0 35                      
G09  20718329.39907    -57011.10607       387.27107        43.60007  20718329.69925   -224202.13825       288.22325        33.30025
G16  22672723.50007    -48413.20307       -15.84207        43.80007                                                                
G03  21410421.57427     15933.04127     -2575.39427        43.40027  21410441.36006      4218.56206     -1923.46206        39.50006
G04  21466065.15216  -1368623.09416     -1474.58316        36.10016  21466075.34525    -20520.85925     -1099.34225        32.10025
G06  22482621.50525    -52114.31825      -284.79625        35.20025  22482674.86824  -1223662.72124      -222.59324        26.60024
G30  23812837.81525   -201326.91225      2756.17125        30.10025  23812768.26425   -157724.67925      2060.79225        30.30025
G01  24721062.36525     42588.12025     -3823.15925        29.80025                                                                
G11  24568354.98224   -145550.38224      1874.43424        28.80024                                                                
G07  21589974.47226  -1067781.49726      1421.57326        36.60026                                                                
R05  20773913.91908 111048859.96508      1191.03908        49.60008
C21  22316001.05407   -105549.96107        -9.29407        46.60007  22316004.05226    -87097.31626        -7.38126        37.30026
C13  40417880.08427   -100617.66827     -1197.47927        42.70027                                                                
E29  23914040.25406    -33905.70706      -692.72506        41.00006  23914038.45625   2057068.45925      -519.36525        34.20025
E30  27422043.71426   -109519.39526      -814.51926        35.80026  27422055.10623  -1148992.24023      -612.91923        20.50023
R04  20712931.03626 110917190.42626      -993.57726        35.80026
R14  20723883.35426 110470343.39126     -1892.95826        36.10026
R15  20122774.59315 107530389.38815      2166.31415        34.70015
E33  24397042.47915  -1062810.43415     -1691.54415        34.10015  24397039.78125   2072667.53625     -1260.72725        32.40025
C26  23084287.58025   -161519.05825      2251.07825        33.50025  23084296.57424   -129271.79024      1692.95224        23.50024
C09  38066933.11115   -108170.18515      -827.95615        32.30015                                                                
C34  25620248.77125   -103692.44225     -2476.14125        31.50025                                                                
E12  26173629.67325  -1748872.00725      1067.82425        31.70025                                                                
R20  21871184.89425 116955437.97325     -2036.53625        30.30025
R16  23460076.82724 125319902.26724      4182.23924        28.80024
E07  26641495.37724  -1590617.08424     -1954.00324        29.10024  26641466.29724    -86513.16724     -1457.08124        25.70024
E19  24390916.22024   -170683.76324       770.54324        28.40024                                                                
E21  27327765.28224   -488348.43724      2459.54924        27.00024  27327773.67623   -372034.27023      1830.10223        18.90023
R19  23246403.94924 124352970.06724     -4100.19024        27.00024
E26  26345890.42024  -1483919.83524     -3306.27124        26.80024  26345834.35823  -1115914.80323     -2493.20623        20.10023
E27  26108710.51624   -142906.90324      1300.33624        26.40024                                                                
C16  40015431.49324   -393580.78624     -1133.55924        26.00024                                                                
R03  23668252.11024 126698391.32524     -2502.79024        23.90024
C14  26188564.13424   -366250.26924      2118.15024        23.50024                                                                
E10  28149112.37523   -573225.01023      1937.09823        19.10023                                                                
C22                                                                  24126142.81924  -1437319.70224     -1518.09524        27.60024
> 2025 10 05 09 15 49.0000027  0 37                      
G16  22672724.40007    -48396.86707       -16.03707        43.90007                                                                
G09  20718244.55807    -57396.80307       386.45507        43.60007  20718249.65425   -224491.75625       290.71725        32.90025
G03  21410917.13117     18509.50617     -2576.29417        43.00017  21410925.22506      6142.25606     -1923.31606        39.00006
G07  21589707.95616  -1069203.57916      1422.60616        36.90016                                                                
G04  21466336.76406  -1367150.18506     -1472.72706        36.00006  21466347.55725    -19423.84225     -1095.38325        31.80025
G06  22482663.77625    -51828.31525      -285.38025        35.10025  22482534.86524  -1223447.87024      -216.54624        25.60024
G30  23812312.57925   -204089.17925      2764.83625        30.00025  23812234.33325   -159787.62725      2064.36725        29.80025
G11  24567992.83224   -147423.01224      1871.90524        28.70024                                                                
G01  24721812.74525     46410.39925     -3821.97225        29.70025                                                                
R05  20773675.88308 111047621.65808      1191.43308        50.00008
R15  20122360.58007 107528213.35707      2170.12207        42.10007
E29  23914154.47507    -33213.33407      -691.64307        41.70007  23914167.96625   2057584.05125      -514.38325        34.10025
C13  40418097.43317    -99421.82117     -1194.56317        42.50017                                                                
E30  27422192.11116   -108707.11116      -810.15016        37.30016  27422202.60423  -1148380.69923      -610.85223        23.30023
C21  22316012.14627   -105543.00427        -5.23927        46.10027  22315999.55516    -87090.26616        -6.41316        37.20016
R04  20713119.00616 110918230.93316      -988.47316        35.80016
R14  20724220.92026 110472176.96326     -1894.64326        36.10026
E33  24397348.56715  -1061120.75615     -1689.39615        34.60015  24397354.86325   2073926.13125     -1256.77925        32.30025
C26  23083855.28025   -163773.66425      2256.71625        33.40025  23083858.27723   -130975.46723      1709.66323        23.00023
C34  25620693.36325   -101213.06725     -2480.07725        32.00025                                                                
C09  38067079.40925   -107345.08625      -823.65625        32.30025                                                                
C06  38600003.37425  -2148708.83425     -1083.67025        31.40025                                                                
R20  21871542.84625 116957387.52725     -2031.74525        30.20025
R16  23459347.13224 125316040.12524      4182.60724        28.90024
E07  26641859.62424  -1588666.53024     -1948.44324        29.00024  26641831.74424    -85054.53924     -1458.81324        26.70024
E19  24390765.72424   -171457.86324       776.59224        28.30024                                                                
E21  27327329.98324   -490809.29924      2462.57724        27.40024  27327293.70823   -373879.28023      1852.69023        19.10023
E26  26346527.77824  -1480614.74424     -3303.89224        26.80024  26346456.12823  -1113451.94923     -2447.67823        20.10023
R19  23247164.52324 124357074.12124     -4091.56624        27.00024
C16  40015639.84924   -392450.51424     -1129.01724        26.10024                                                                
E27  26108444.60024   -144207.36524      1300.48924        26.40024  26108458.99025  -1563339.38225       970.32925        31.90025
R03  23668712.29124 126700889.80724     -2498.47124        23.80024
C14  26188152.81923   -368366.58823      2115.71723        23.30023                                                                
E10  28148743.63023   -575160.58223      1934.52823        18.90023                                                                
E12  26173420.41825  -1749937.38625      1064.18025        31.50025  26173272.32124  -1584641.97724       833.76524        28.90024
C22                                                                  24126522.35624  -1435804.58924     -1513.62124        28.30024
C36                                                                  25626635.84924  -1567458.96624     -2269.03624        26.70024
> 2025 10 05 09 15 50.0000029  0 36                      
G16  22672730.09607    -48381.92307       -14.24907        44.20007                                                                
G09  20718172.60807    -57784.82307       388.93007        43.50007  20718181.60115   -224781.47315       289.76615        32.80015
G07  21589442.34026  -1070627.35026      1424.61626        37.50026                                                                
G04  21466621.26726  -1365680.93026     -1467.42826        35.90026  21466632.36025    -18324.82725     -1100.01325        31.50025
G01  24722532.24725     50229.48225     -3817.48425        29.60025                                                                
G11  24567659.46324   -149296.22724      1873.50824        28.70024                                                                
G03  21411407.59107     21083.78607     -2573.18807        42.70007  21411418.38306      8065.27506     -1922.68206        38.70006
G30  23811782.24625   -206855.74525      2768.71525        30.00025  23811713.89325   -161850.14125      2062.29625        29.50025
G06  22482731.52925    -51541.03125      -287.92425        35.20025  22482590.92624  -1223232.77724      -215.21424        24.70024
R05  20773470.22608 111046495.01608      1194.31908        49.80008
E29  23914301.37407    -32522.92807      -689.42207        42.70007  23914306.77025   2058100.05425      -516.20925        34.10025
C13  40418334.56917    -98226.98217     -1194.33417        42.30017                                                                
C21  22316003.15217   -105535.81417        -7.30617        45.30017  22316006.75006    -87084.50906        -5.11006        37.00006
R15  20121960.05707 107526044.96707      2170.34907        43.50007
E30  27422353.70006   -107894.98106      -812.30206        37.10006  27422365.69123  -1147766.65323      -615.29823        22.90023
R04  20713297.98226 110919163.41026      -991.96426        35.80026
R14  20724595.36126 110474145.52826     -1894.64526        36.00026
E33  24397681.33725  -1059430.82325     -1690.06025        34.80025  24397680.73725   2075186.36125     -1261.04825        31.50025
C26  23083470.34625   -166027.02225      2252.73425        33.30025  23083423.57823   -132689.89223      1719.80023        22.60023
C09  38067240.39825   -106522.14125      -821.86625        32.30025                                                                
C34  25621188.62025    -98735.67925     -2476.39425        32.00025  25621237.48623  -1212008.94823     -1876.66323        19.00023
E12  26173219.55725  -1751004.82225      1068.46425        31.30025                                                                
R16  23458507.41324 125311526.77424      4195.23624        29.30024
R20  21871926.88025 116959413.59125     -2037.53225        30.10025
E07  26642230.46824  -1586723.13124     -1939.82124        28.90024  26642209.48224    -83597.55324     -1456.16524        26.70024
E21  27326851.21524   -493265.95124      2454.54724        27.80024  27326832.62723   -375732.19523      1856.86623        19.10023
E19  24390645.50724   -172229.68124       770.67724        28.20024                                                                
R19  23247990.75124 124361465.97024     -4085.58024        27.00024
C36  25627190.16524  -2184357.30224     -3004.70524        26.50024  25627220.74424  -1565185.83724     -2273.12924        26.80024
E26  26347136.35724  -1477311.04124     -3303.00824        26.90024  26347084.79323  -1110984.63523     -2469.54223        20.10023
C16  40015846.40624   -391325.55024     -1122.31024        26.30024                                                                
E27  26108209.86224   -145508.57324      1301.58124        26.40024  26108218.25725  -1564309.34625       969.96425        31.90025
R03  23669231.23224 126703641.04524     -2492.36424        23.80024
C14  26187742.10323   -370482.00923      2114.97123        23.10023                                                                
E10  28148393.47323   -577095.58123      1934.71323        18.90023                                                                
C22                                                                  24126913.28524  -1434289.78124     -1514.65624        28.30024
> 2025 10 05 09 15 51.0000030  0 36                      
G16  22672705.51307    -48365.75007       -16.78607        44.80007                                                                
G03  21411879.46407     23659.89407     -2577.02207        42.50007  21411883.06206      9988.80806     -1923.78906        38.10006
G07  21589137.75116  -1072049.74516      1421.70716        37.60016                                                                
G04  21466876.39126  -1364207.97426     -1474.80626        35.90026  21466887.78325    -17225.68425     -1099.20725        31.20025
G06  22482766.60525    -51250.06125      -292.81425        35.20025  22482619.70624  -1223012.02424      -223.58224        23.80024
G30  23811209.04325   -209616.82325      2758.33325        30.00025  23811165.57324   -163910.52524      2059.31924        29.30024
G11  24567256.24224   -151172.77224      1878.21024        28.80024                                                                
G01  24723239.15825     54047.38225     -3817.30925        29.50025                                                                
G09  20718078.77307    -58171.73307       386.35607        44.00007  20718083.26905   -225070.23905       288.29105        34.40005
R05  20773220.49908 111045294.94908      1191.54608        49.70008
E29  23914413.19607    -31830.61807      -692.51107        42.90007  23914420.99125   2058614.19225      -513.20525        33.90025
R15  20121527.75607 107523869.70007      2167.87707        43.20007
C13  40418545.32327    -97029.84427     -1198.28827        42.00027                                                                
C21  22315988.76207   -105527.46707        -8.92707        44.50007  22315983.36606    -87077.89506        -7.04306        39.10006
E30  27422492.80306   -107081.63606      -813.95306        37.00006  27422498.79923  -1147152.60923      -614.04423        22.50023
R14  20724934.42626 110476088.16026     -1895.40826        35.90026
R04  20713477.55826 110920259.07726      -991.66526        35.70026
E33  24397978.13125  -1057739.74825     -1691.64525        34.90025  24397979.33025   2076446.40125     -1259.94425        30.80025
C26  23082995.77525   -168278.58425      2250.66325        33.30025  23082966.69523   -134401.80123      1710.64923        22.20023
C09  38067372.60625   -105697.32425      -825.75425        32.30025                                                                
C34  25621624.51825    -96258.92725     -2476.43425        32.00025                                                                
E12  26172988.41725  -1752072.97025      1068.50525        31.10025                                                                
R16  23457705.16925 125307377.24725      4191.83325        29.70025
R20  21872300.42225 116961546.77225     -2040.12925        30.00025
E21  27326331.07524   -495723.90824      2458.60824        28.10024  27326322.38123   -377589.57423      1859.61223        19.10023
E19  24390454.83924   -172996.18624       763.84824        28.20024                                                                
E07  26642571.93124  -1584780.59624     -1942.10324        28.70024  26642556.94224    -82140.00624     -1457.82624        26.60024
R19  23248637.10324 124365059.50924     -4090.73324        27.50024
E26  26347672.08624  -1474003.18124     -3309.93824        27.10024  26347695.77023  -1108508.18423     -2481.02023        20.00023
C16  40016043.07024   -390199.56424     -1126.49624        26.40024                                                                
C36  25627745.98124  -2181352.18624     -3005.11524        26.30024  25627772.06325  -1562917.67525     -2265.67725        29.90025
C22  24127284.42924  -2280820.85524     -2008.36524        25.20024  24127274.23625  -1432775.16625     -1514.51825        29.90025
R03  23669735.78324 126706476.53524     -2494.31524        23.80024
C14  26187328.09023   -372595.97523      2113.23823        22.80023                                                                
E10  28148006.44123   -579031.93523      1937.03223        18.80023                                                                
E27  26107930.45624   -146807.97024      1298.49124        26.40024  26107946.34515  -1565277.72615       967.58815        32.60015
> 2025 10 05 09 15 52.0000032  0 36                      
G09  20718006.22307    -58560.67107       389.95207        45.20007  20718014.31706   -225360.74806       291.38006        36.40006
G16  22672711.80807    -48350.37107       -14.98207        45.00007                                                                
G03  21412374.72127     26233.05127     -2571.68027        42.30027  21412378.61906     11911.79606     -1922.71606        37.80006
G07  21588863.14126  -1073472.49826      1422.93226        37.70026                                                                
G04  21467167.18926  -1362738.82826     -1467.24126        36.10026  21467170.18725    -16127.85525     -1097.17325        31.50025
G06  22482828.06225    -50961.17725      -287.84125        35.10025  22482677.56623  -1222789.89423      -222.81923        23.00023
G30  23810687.70425   -212379.62125      2763.65825        30.00025  23810644.53424   -165971.21624      2060.84324        29.10024
G01  24724001.53024     57862.46824     -3813.67724        29.40024                                                                
G11  24566941.76024   -153046.33324      1872.06924        28.80024                                                                
R05  20773007.34608 111044129.30108      1194.76408        49.50008
E29  23914557.09707    -31141.09007      -688.38807        43.00007  23914563.09225   2059129.39825      -515.74025        33.80025
R15  20121130.53107 107521719.66607      2169.31307        42.90007
C21  22315985.46507   -105521.36507        -4.97807        43.80007  22315989.36206    -87072.69206        -4.49806        39.80006
R14  20725266.89626 110477832.48826     -1893.10026        35.90026
R04  20713637.94726 110921091.18026      -987.30826        35.70026
E30  27422639.10226   -106270.46226      -810.08826        36.80026                                                                
E33  24398335.78425  -1056052.72525     -1685.74725        35.00025  24398304.60525   2077702.04425     -1253.44425        33.80025
C13  40418775.86426    -95835.67026     -1192.69226        40.50026                                                                
C26  23082573.36725   -170534.10925      2257.50625        33.30025  23082545.78623   -136100.37523      1691.90723        21.80023
C09  38067531.49625   -104874.11425      -822.40625        32.60025                                                                
C34  25622113.78025    -93785.14325     -2472.30025        31.90025                                                                
E12  26172810.34025  -1753142.77725      1070.63525        31.00025                                                                
R20  21872668.86625 116963490.20225     -2029.22525        29.90025
R16  23456913.11725 125303117.65425      4188.04725        29.70025
E21  27325852.90624   -498184.26024      2461.54924        28.30024  27325852.60623   -379440.28023      1847.37023        19.00023
R19  23249379.39024 124369002.83624     -4089.30524        27.80024
C22  24127657.97024  -2278814.89524     -2005.96024        27.90024  24127663.36624  -1431261.57924     -1513.07224        29.40024
E07  26642930.48324  -1582834.13324     -1948.42724        28.60024  26642927.78524    -80682.44624     -1457.56724        26.40024
E26  26348302.25024  -1470698.15424     -3303.60924        27.20024  26348324.13523  -1106027.89723     -2482.20423        19.90023
E27  26107692.42124   -148104.07124      1294.45224        26.60024  26107703.51325  -1566248.53325       972.02125        32.60025
C16  40016276.30824   -389071.28224     -1129.43024        26.50024                                                                
C36  25628356.05824  -2178349.54024     -3001.41124        26.20024  25628352.76125  -1560654.47925     -2260.71325        29.90025
R03  23670187.27024 126708866.25124     -2499.52724        23.80024
C14  26186923.67023   -374710.20523      2114.36123        22.60023                                                                
E10  28147652.98523   -580966.33323      1933.41923        18.80023                                                                
E19  24390294.45124   -173760.02624       762.50924        28.10024                                                                
> 2025 10 05 09 15 53.0000034  0 36                      
G09  20717944.46507    -58951.34607       391.54207        46.00007  20717944.76506   -225652.36806       292.17506        37.50006
G03  21412869.37917     28808.65517     -2576.82717        42.10017  21412875.67506     13835.61706     -1924.23606        37.60006
G07  21588573.54226  -1074894.79126      1422.06326        37.70026                                                                
G04  21467459.78716  -1361271.96216     -1465.72516        36.10016  21467456.78925    -15032.54025     -1094.05725        31.30025
G06  22482855.64325    -50673.41725      -287.19725        35.00025  22482781.59423  -1222570.72023      -217.69623        22.60023
G30  23810148.97725   -215143.49725      2764.41425        30.00025  23810123.79424   -168034.32724      2064.32124        28.80024
G01  24724725.82824     61678.73924     -3816.86324        29.30024                                                                
G11  24566581.70924   -154919.05624      1872.30324        28.80024                                                                
G16  22672727.99707    -48332.47907       -19.14907        45.10007                                                                
E33  24398625.68316  -1054366.28716     -1685.14516        40.60016  24398628.98125   2078954.61025     -1251.02725        33.40025
R05  20772784.90008 111042912.40408      1195.77208        49.30008
E29  23914692.00307    -30450.88307      -690.54607        43.00007  23914701.89625   2059645.85325      -517.07925        33.60025
R15  20120729.10907 107519548.22007      2167.09107        42.70007
C21  22315984.56507   -105515.69607        -5.45307        43.00007  22315993.85906    -87068.48106        -3.71406        40.30006
R04  20713819.32126 110922034.37626      -991.40726        35.70026
R14  20725615.25526 110479662.99826     -1899.08426        35.80026
E30  27422799.19116   -105457.05116      -815.27816        36.50016                                                                
C13  40419016.59726    -94639.75626     -1196.78326        39.60026                                                                
C26  23082105.09125   -172787.86025      2252.86525        33.30025  23082119.78123   -137790.77723      1686.31623        21.50023
C09  38067713.17125   -104052.63125      -820.61925        32.60025                                                                
C34  25622583.85425    -91314.69225     -2468.78325        31.70025  25622848.27123  -1796034.26323     -1903.98323        22.20023
E12  26172582.19825  -1754212.37225      1069.49025        30.80025                                                                
R20  21873014.82725 116965312.74125     -2042.21525        29.90025
R16  23456102.17825 125298759.46325      4192.08925        29.60025
E21  27325402.61724   -500644.47624      2460.14724        28.60024  27325405.61523   -381275.81623      1827.95023        18.90023
R19  23250145.95924 124373075.51224     -4092.01824        28.10024
C22  24128070.48424  -2276812.14124     -2001.15224        28.00024  24128054.89525  -1429750.78125     -1509.40425        29.50025
E07  26643310.02024  -1580888.87424     -1944.65724        28.50024  26643172.41624    -79230.88524     -1448.56124        25.20024
E19  24390173.63424   -174528.60824       770.95124        28.10024                                                                
E26  26348958.79524  -1467396.25624     -3300.33424        27.20024  26348976.18323  -1103561.15923     -2459.96323        20.20023
C16  40016485.86324   -387944.72724     -1125.69024        26.70024                                                                
C36  25628919.06924  -2175349.71124     -2998.42024        26.10024  25628934.65825  -1558394.73425     -2258.01925        29.60025
R03  23670658.24424 126711360.13524     -2491.05224        23.80024
C14  26186504.26023   -376821.51323      2109.84823        22.40023                                                                
E10  28147299.53023   -582900.07523      1933.41423        18.80023                                                                
E27                                                                  26107457.68325  -1567221.17825       973.56225        32.40025
> 2025 10 05 09 15 54.0000036  0 36                      
G09  20717869.21807    -59341.45707       389.82907        46.50007  20717874.91406   -225943.72506       291.22506        39.50006
G16  22672732.49417    -48311.66617       -23.02217        45.10017                                                                
G07  21588324.41426  -1076317.29826      1422.61226        37.70026                                                                
G04  21467722.70526  -1359804.22226     -1468.17826        36.10026  21467738.29426    -13935.01726     -1098.62626        36.40026
G06  22482953.37525    -50382.63825      -292.28825        34.90025  22482845.15023  -1222353.15523      -216.76223        22.40023
G30  23809636.63225   -217906.28425      2762.24225        29.90025  23809605.45324   -170100.24924      2067.32824        28.50024
G01  24725516.98124     65495.76824     -3817.40724        29.30024                                                                
G11  24566235.14924   -156794.11124      1876.22224        28.70024  24566073.56123  -1570793.12323      1419.83723        18.40023
G03  21413367.03427     31387.55127     -2580.54227        41.90027  21413373.33026     15758.68126     -1922.68526        37.30026
R05  20772563.35408 111041701.62808      1195.98408        49.10008
E33  24398938.06707  -1052678.24307     -1689.09707        46.80007  24398952.45725   2080214.87225     -1264.11125        33.40025
E29  23914842.49927    -29760.15227      -691.74327        42.90027  23914834.70425   2060162.86925      -517.29625        32.90025
R15  20120344.17617 107517465.46217      2165.15917        42.50017
C21  22315994.15907   -105509.75907        -6.07007        42.50007  22316000.75406    -87063.98006        -4.64706        39.90006
R04  20714018.68316 110923076.41516      -991.30516        35.90016
R14  20726013.08026 110481757.41126     -1894.68526        35.80026
E30  27422971.57226   -104637.29626      -822.67826        36.20026                                                                
C13  40419255.53226    -93442.18926     -1198.39426        38.70026                                                                
C26  23081685.98125   -175043.57225      2256.69125        33.20025  23081693.77623   -139481.55623      1690.96723        21.30023
C34  25623074.31525    -88842.31325     -2473.34325        31.80025  25623092.90223  -1794136.02023     -1898.24223        22.10023
C09  38067845.67925   -103228.94525      -824.78725        32.50025                                                                
R16  23455285.54425 125294371.47125      4185.86425        29.60025
R20  21873310.12225 116966865.19025     -2039.70625        29.80025
E12  26172397.22625  -1755283.37925      1071.71125        30.60025                                                                
C22  24128452.72024  -2274807.33024     -2005.83824        28.60024  24128444.92525  -1428239.94125     -1510.86125        29.50025
E21  27324927.44624   -503103.14624      2457.89624        28.60024  27324952.32923   -383099.62523      1817.94423        18.70023
R19  23250914.32724 124377160.43724     -4091.66824        28.20024
E07  26643667.67324  -1578942.82224     -1946.44724        28.40024  26643679.96424    -77790.61724     -1434.62224        25.20024
E26  26349594.95524  -1464092.44824     -3304.76224        27.30024  26349614.14223  -1101093.72123     -2467.78823        20.50023
C16  40016700.21524   -386817.46124     -1127.62124        26.90024                                                                
C36  25629503.96424  -2172352.50524     -2995.89324        25.90024  25629518.35424  -1556127.45024     -2271.05324        29.30024
R03  23671150.50424 126713968.91024     -2498.17524        23.80024
C14  26186107.33523   -378929.53623      2106.37923        22.10023                                                                
E10  28146918.49423   -584834.22623      1934.35423        18.80023                                                                
E19  24390025.23724   -175302.59024       776.68324        28.00024                                                                
E27                                                                  26107216.65025  -1568192.79525       971.10325        32.30025
> 2025 10 05 09 15 55.0000037  0 36                      
G09  20717790.07207    -59732.88107       392.08107        46.80007  20717793.97006   -226235.79506       292.42606        39.20006
G16  22672727.99707    -48291.44907       -19.67007        45.10007                                                                
G03  21413834.41117     33966.93217     -2579.62317        41.80017  21413859.89326     17682.89726     -1924.79226        36.90026
G07  21588062.39516  -1077739.64216      1422.26416        37.70016                                                                
G04  21468002.41116  -1358336.89116     -1467.12516        36.10016  21468012.00516    -12839.65216     -1094.28616        35.80016
G06  22483004.94015    -50092.24815      -290.19615        34.90015  22482894.61623  -1222135.12723      -218.25923        22.90023
G30  23809114.99325   -220668.84625      2762.45025        29.80025  23809075.42024   -172165.89724      2065.51124        28.40024
G01  24726232.88524     69316.73624     -3822.93724        29.30024  24726207.10323  -1564635.35823     -2844.52023        21.50023
G11  24565894.88524   -158670.24524      1876.67224        28.60024                                                                
R05  20772326.51808 111040471.73208      1198.18808        49.00008
E33  24399254.34807  -1050990.04707     -1688.27207        46.70007  24399269.63725   2081474.02725     -1258.60125        33.20025
C34  25623533.89715    -86369.51315     -2473.01015        33.80015                                                                
E29  23914962.71617    -29068.81317      -691.39417        42.80017  23914958.81925   2060679.75425      -516.82025        31.80025
R15  20119913.67417 107515199.97817      2164.42017        42.30017
C21  22315986.36407   -105503.91607        -5.79707        42.10007  22315995.65806    -87060.16306        -3.47406        39.60006
R04  20714182.97006 110923991.26506      -989.48206        36.20006
R14  20726375.82926 110483725.97626     -1897.89026        35.80026
C13  40419534.03926    -92245.96426     -1195.55326        37.90026                                                                
C09  38068012.96325   -102405.30225      -823.62225        32.50025                                                                
R16  23454467.41025 125290036.21225      4187.95425        29.60025
R20  21873659.98025 116968771.89625     -2038.55225        29.70025
R19  23251649.71824 124381129.78724     -4090.20624        28.70024
E07  26644045.11124  -1576997.69824     -1944.66024        28.40024  26644041.81424    -76347.56024     -1444.45124        25.20024
E21  27324462.46824   -505559.24324      2454.81124        28.60024  27324474.16023   -384913.53423      1808.95923        18.50023
C22  24128826.86124  -2272799.15224     -2009.86224        28.60024  24128822.66415  -1426730.38415     -1508.91515        29.60015
C26  23081265.07325   -177293.89425      2247.62625        32.40025  23081252.18223   -141175.15623      1695.01023        21.10023
E26  26350233.51324  -1460784.83924     -3309.50924        27.40024  26350234.11323  -1098629.14223     -2463.14823        20.50023
C16  40016927.45824   -385690.80524     -1126.35124        26.90024                                                                
E19  24389892.72924   -176082.76624       783.27224        27.80024                                                                
C36  25630052.28424  -2169351.23524     -3003.30224        26.30024  25630088.85924  -1553855.92524     -2273.64524        28.90024
R03  23671518.64924 126715974.89724     -2503.75124        23.80024
C14  26185698.71823   -381038.72223      2109.76723        21.90023                                                                
E10  28146527.26523   -586767.58823      1932.96923        18.80023                                                                
E30  27423123.26725   -103819.19125      -817.28025        35.40025                                                                
E12  26172172.08225  -1756354.45125      1071.10625        30.40025                                                                
E27                                                                  26106891.37525  -1569167.17425       975.76025        31.20025
> 2025 10 05 09 15 56.0000039  0 36                      
G09  20717718.72207    -60126.04507       394.03307        46.80007  20717722.91906   -226529.51106       294.54006        38.80006
G16  22672733.99307    -48272.72407       -17.97707        45.10007                                                                
G03  21414335.36407     36544.65307     -2576.89007        41.70007  21414357.84926     19610.62926     -1929.49026        36.60026
G06  22483042.41425    -49803.77325      -287.51825        34.90025  22482958.77224  -1221920.17124      -213.41924        24.00024
G01  24726928.10424     73133.09724     -3814.05824        29.30024  24726924.50624  -1561794.97024     -2840.38724        24.00024
G30  23808587.65825   -223434.72825      2767.54125        29.80025  23808555.28024   -174230.52524      2064.11624        28.20024
G07  21587787.48616  -1079162.12516      1422.55216        37.70016                                                                
G11  24565552.82224   -160542.18024      1869.83624        28.50024                                                                
G04  21468290.81206  -1356871.48906     -1464.43706        36.40006  21468297.10725    -11742.97725     -1097.32925        35.40025
R05  20772109.76808 111039286.19508      1200.59008        48.90008
E33  24399587.71707  -1049303.28207     -1686.04807        46.60007  24399595.51225   2082733.65025     -1259.85725        32.90025
C34  25624015.06307    -83896.48807     -2473.13707        44.10007                                                                
E29  23915088.62907    -28379.58707      -688.16807        42.70007  23915099.72125   2061195.26525      -514.82425        31.80025
R15  20119516.44907 107513049.17307      2166.41707        42.00007
C21  22315997.75607   -105499.92707        -3.06207        41.80007  22316001.05406    -87057.74306        -1.72106        39.30006
R04  20714406.91406 110925164.32206      -989.10006        36.40006
R14  20726723.88826 110485554.96626     -1895.67126        35.70026
C09  38068169.75425   -101585.67425      -817.61925        33.10025                                                                
C13  40419770.57526    -91054.40726     -1189.22326        37.20026                                                                
R16  23453704.13825 125285931.77225      4194.58225        29.80025
E30  27423259.97225   -103005.74325      -811.11925        34.40025                                                                
R20  21874059.60425 116970882.12425     -2033.66125        29.70025
C22  24129204.59924  -2270794.71624     -2002.56524        28.60024  24129212.99305  -1425222.22205     -1507.46405        29.90005
E12  26171963.72725  -1757424.12825      1068.97925        30.20025                                                                
E07  26644398.26724  -1575055.34424     -1940.96924        28.80024  26644417.75324    -74901.23724     -1447.95524        25.20024
R19  23252424.98124 124385248.39024     -4090.50224        28.80024
E21  27323998.68924   -508017.48424      2459.31224        28.50024  27324006.18423   -386735.32123      1825.72723        18.20023
C26  23080828.57525   -179543.73625      2249.60225        31.70025  23080821.38023   -142877.60423      1706.87323        21.00023
C36  25630645.57324  -2166350.21124     -3000.90024        27.00024  25630679.45024  -1551583.52824     -2272.83324        28.50024
C16  40017147.50524   -384568.41224     -1120.26224        27.20024                                                                
E19  24389753.62524   -176863.84124       781.52524        27.60024                                                                
R03  23671988.12424 126718460.35524     -2489.01624        23.90024
C14  26185293.99823   -383150.96323      2113.76823        21.60023                                                                
E10  28146187.00023   -588701.86323      1934.73023        18.70023                                                                
E26  26350844.19024  -1457477.04824     -3307.88124        27.50024  26350875.66823  -1096160.28423     -2470.99723        21.20023
E27                                                                  26106651.54125  -1570140.93225       973.44825        30.20025
> 2025 10 05 09 15 57.0000041  0 36                      
G09  20717645.87207    -60520.77707       395.51707        46.70007  20717653.96706   -226824.27406       295.28606        38.70006
G16  22672746.58407    -48255.01307       -17.20507        45.60007                                                                
G03  21414832.42007     39121.64207     -2576.62407        41.50007  21414846.81026     21535.75026     -1923.81426        35.60026
G07  21587496.68716  -1080586.25716      1424.95516        37.60016                                                                
G04  21468574.11506  -1355407.64006     -1463.07206        37.00006  21468580.71126    -10644.88426     -1098.80226        36.40026
G06  22483099.67415    -49515.69815      -287.87415        34.80015  22483014.23324  -1221704.36824      -216.22724        24.10024
G01  24727650.90324     76946.75224     -3812.30124        29.30024  24727660.79724  -1558954.78224     -2840.08724        23.70024
G30  23808103.49325   -226202.84625      2769.23625        29.70025  23808038.13824   -176292.54824      2060.72124        28.00024
G11  24565175.68324   -162415.30924      1873.72624        28.30024                                                                
R05  20771889.42008 111038080.77108      1202.01308        48.80008
E33  24399909.09407  -1047617.68007     -1685.02107        46.50007  24399922.28525   2083993.33025     -1259.70725        32.80025
E29  23915228.03217    -27691.59017      -686.63417        42.50017  23915236.72625   2061707.70125      -510.89725        31.70025
C34  25624500.42707    -81425.23507     -2470.36607        43.80007                                                                
R15  20119111.42907 107510858.60907      2167.87807        41.80007
C21  22316008.84917   -105497.78917        -1.21217        41.50017  22316006.45006    -87056.47406        -0.69506        38.90006
R04  20714564.60506 110925981.09606      -986.44706        36.40006
R14  20727077.94316 110487414.45716     -1892.44716        35.70016
C09  38068334.94015   -100768.73415      -815.59615        33.90015                                                                
C13  40420005.91226    -89865.69926     -1187.28326        36.60026                                                                
R16  23452941.16725 125281828.10425      4193.52425        30.00025
E30  27423427.25625   -102191.83325      -814.14125        33.60025                                                                
C22  24129581.73824  -2268796.05124     -1995.77924        29.30024  24129600.32504  -1423715.11604     -1506.57704        29.40004
R20  21874442.43925 116972902.06625     -2029.32825        29.60025
E12  26171785.65025  -1758496.00025      1072.96925        30.00025                                                                
R19  23253296.17824 124389882.10124     -4089.66624        28.90024
E07  26644779.60324  -1573114.15724     -1940.60224        28.80024  26644792.49424    -73453.70824     -1448.13224        25.20024
C26  23080387.28025   -181802.88425      2263.80125        31.20025  23080387.28023   -144572.57623      1691.23323        20.90023
C36  25631232.86724  -2163353.74224     -2994.19124        27.90024  25631261.34724  -1549298.79224     -2290.90424        28.00024
E21  27323526.51624   -510484.77124      2471.81024        28.50024  27323549.90023   -388572.60323      1845.02823        18.00023
C16  40017376.84624   -383447.31824     -1120.44324        27.50024                                                                
E26  26351455.46724  -1454174.14124     -3300.46524        27.50024  26351510.02923  -1093691.63523     -2468.54423        21.20023
E19  24389592.63624   -177644.65124       780.67724        27.50024  24389604.92822  -1631996.08322       569.64122        15.80022
R03  23672465.69324 126720990.23724     -2482.94024        23.90024
C14  26184847.90723   -385265.85323      2116.21523        21.40023                                                                
E10  28145802.96623   -590636.60623      1934.97723        18.70023                                                                
E27                                                                  26106403.61325  -1571117.06725       977.32325        29.90025
> 2025 10 05 09 15 58.0000043  0 36                      
G16  22672754.97807    -48240.55807       -12.82707        46.30007                                                                
G09  20717578.41907    -60918.83807       399.72507        46.70007  20717582.31606   -227121.88006       299.02806        38.30006
G03  21415334.87206     41694.92406     -2571.42706        41.40006  21415342.36725     23457.45925     -1920.00325        34.70025
G07  21587230.77116  -1082013.85616      1429.33316        37.60016                                                                
G04  21468843.32906  -1353947.17706     -1458.77006        37.10006  21468863.41526     -9555.05926     -1085.69126        36.10026
G06  22483157.83425    -49230.39925      -283.91225        34.70025  22483080.78724  -1221490.37324      -213.09124        24.10024
G01  24728381.79825     80754.94125     -3805.45525        29.50025  24728393.48924  -1556114.27624     -2840.66524        23.80024
G11  24564748.77824   -164295.82124      1884.20324        28.20024                                                                
G30  23807613.33225   -228972.77025      2770.82725        29.50025  23807513.80124   -178360.91024      2071.53124        27.50024
R05  20771672.07108 111036892.94108      1206.35508        48.60008
E33  24400239.46607  -1045935.61607     -1680.29407        46.40007  24400242.46425   2085249.81925     -1254.89425        32.70025
C09  38068494.13006    -99955.56106      -811.29006        38.00006                                                                
E29  23915355.44407    -27007.21907      -682.80707        42.40007  23915373.43125   2062219.30625      -511.19125        31.70025
C34  25624967.80407    -78957.70407     -2465.67107        43.40007                                                                
R15  20118725.59607 107508770.50307      2170.37707        41.50007
C21  22316014.24506   -105499.65206         3.86306        41.20006  22316011.24706    -87057.98806         2.90706        38.60006
R04  20714748.37806 110926938.84606      -980.62506        36.40006
R14  20727456.28126 110489405.89726     -1886.80326        35.70026
C36  25631822.25925  -2160361.19725     -2990.58225        29.50025  25631826.75624  -1547040.51724     -2245.04424        27.60024
E27  26106215.64315  -2997045.86215      1310.29615        31.80015  26106160.48125  -1572090.99125       972.81825        31.50025
C13  40420236.45326    -88676.29826     -1189.74726        36.00026                                                                
C22  24129983.16025  -2266799.21225     -1995.92525        30.10025  24129991.85424  -1422198.55524     -1521.28924        29.30024
R16  23452187.78825 125277778.69725      4197.83525        30.10025
E30  27423612.22825   -101382.84325      -806.53125        33.00025                                                                
E07  26645151.94524  -1571177.49724     -1934.39724        29.00024  26645167.53424    -72006.44024     -1447.13724        25.10024
R20  21874833.06825 116974964.09125     -2038.01125        29.50025
R19  23254119.40824 124394260.93424     -4074.56324        28.90024
E12  26171587.18725  -1759572.80825      1079.27525        29.80025                                                                
C16  40017600.49224   -382331.08024     -1113.81124        28.10024                                                                
C26  23079964.57325   -184063.75125      2261.72625        30.70025  23079974.76623   -146264.10523      1689.80623        20.70023
E21  27323057.64124   -512955.47624      2472.41424        28.40024                                                                
E19  24389444.83924   -178427.86024       784.40924        27.30024  24389460.72823  -1632577.51623       581.43323        18.20023
R03  23672989.73024 126723769.04924     -2488.89124        24.30024
C14  26184457.57723   -387391.72523      2131.36123        21.20023                                                                
E10  28145426.72723   -592576.20623      1942.02823        18.80023                                                                
E26                                                                  26352135.99623  -1091231.90023     -2455.27823        21.20023
> 2025 10 05 09 15 59.0000044  0 36                      
G16  22672753.18007    -48225.97307       -14.65007        46.50007                                                                
G09  20717499.27407    -61317.11307       398.38207        46.50007  20717500.77306   -227419.69006       297.91206        38.20006
G03  21415822.93406     44267.85406     -2572.75406        41.30006  21415825.33325     25378.09425     -1920.09925        33.80025
G07  21586946.86806  -1083442.01706      1428.44106        37.60006                                                                
G04  21469128.43206  -1352487.91806     -1458.65606        37.10006  21469135.02726     -8465.90526     -1088.81826        36.00026
G06  22483245.67315    -48946.21215      -283.63015        34.60015  22483131.75224  -1221276.18724      -214.28224        24.60024
G01  24729089.60825     84563.18225     -3808.26825        29.70025  24729109.69424  -1553271.01224     -2844.64324        24.60024
G30  23807108.48224   -231740.18424      2766.15824        29.40024  23806978.37224   -180422.98724      2058.93424        27.00024
G11  24564398.02124   -166176.22924      1880.35524        28.10024                                                                
R05  20771430.43818 111035637.04318      1205.74418        48.40018
E33  24400543.45507  -1044253.29107     -1682.45507        46.30007  24400554.54825   2086505.63725     -1255.48325        32.50025
E29  23915483.45517    -26323.13817      -683.93517        42.20017  23915475.36125   2062730.45725      -510.92325        31.50025
C34  25625439.07807    -76490.47707     -2467.07407        43.00007                                                                
C09  38068643.12707    -99142.47907      -813.03507        41.60007                                                                
R15  20118293.89506 107506498.89906      2170.15006        41.30006
C21  22316004.05216   -105501.98416         2.56716        40.80016  22316004.05206    -87059.79606         1.95406        38.30006
C36  25632379.57316  -2157368.34616     -2993.00316        36.50016  25632397.86024  -1544782.42824     -2257.99724        27.10024
R04  20714952.83726 110928069.00226      -983.05626        36.50026
R14  20727779.75726 110491166.25026     -1893.55226        35.60026
E27  26105960.22005  -2998355.02305      1309.16105        33.10005  26105905.65825  -1573064.49125       973.28825        30.60025
C22  24130365.39625  -2264803.36425     -1995.35225        31.00025  24130364.79624  -1420688.43624     -1506.89724        28.50024
R16  23451465.88825 125273957.06725      4199.11925        30.10025
E07  26645497.90624  -1569241.49324     -1935.67624        29.20024  26645528.48424    -70558.91824     -1447.65024        25.10024
R19  23254817.92524 124398032.81424     -4087.15324        28.90024
C26  23079527.47625   -186321.13225      2255.63725        30.40025  23079547.56223   -147963.26223      1702.97123        20.60023
R20  21875193.11924 116976925.12224     -2034.21124        29.40024
C16  40017816.64224   -381216.30324     -1114.04624        28.40024                                                                
E12  26171389.62425  -1760646.83525      1072.63725        29.60025                                                                
E21  27322570.17824   -515426.94724      2471.85424        28.30024                                                                
C13  40420411.83125    -87485.17125     -1191.99025        35.10025                                                                
E19  24389279.35324   -179211.63624       784.06024        27.00024  24389313.82923  -1633142.58823       556.89223        18.20023
E26  26352907.06224  -3040765.61724     -3300.19424        24.40024  26352763.46123  -1088771.72723     -2460.39123        22.10023
R03  23673349.48124 126725731.37724     -2488.05924        24.30024
C14  26184031.87223   -389522.24823      2132.84823        21.10023                                                                
E10  28145051.98623   -594521.91823      1948.76923        18.80023  28144934.76723  -1902264.81623      1447.17023        19.30023
E30  27423736.64225   -100572.04425      -811.70225        32.50025  27423904.22622  -1867154.78822      -621.88122        16.30022
> 2025 10 05 09 16 00.0000046  0 36                      
G16  22672763.07307    -48210.28607       -16.23707        46.50007                                                                
G09  20717426.12417    -61715.68817       397.97517        45.70017  20717430.32106   -227717.38506       297.63806        38.10006
G03  21416319.39106     46842.42406     -2575.39006        41.20006  21416319.09125     27299.90025     -1922.39025        33.00025
G07  21586670.45906  -1084867.68206      1424.41706        37.80006                                                                
G04  21469407.23906  -1351027.61306     -1460.82806        37.20006  21469418.03116     -7376.06816     -1090.17816        35.90016
G01  24729834.29225     88373.00525     -3810.61225        29.80025  24729839.08924  -1550427.18424     -2844.10924        24.60024
G11  24564040.96824   -168059.10424      1884.11024        28.00024                                                                
G30  23806599.43424   -234515.97324      2779.97624        29.30024  23806451.93624   -182489.39224      2068.56924        27.20024
G06  22483276.55205    -48659.53305      -287.92605        34.60005  22483185.71424  -1221059.51624      -217.91324        28.00024
R05  20771214.58708 111034455.33208      1205.62608        48.20008
E33  24400875.32607  -1042570.27807     -1683.35707        46.30007  24400881.32125   2087762.68725     -1257.66525        32.40025
C34  25625915.74807    -74022.76807     -2467.95007        42.80007                                                                
E29  23915610.86727    -25640.96227      -681.22527        42.10027  23915611.46725   2063234.84525      -501.00725        30.60025
C09  38068800.21806    -98329.16606      -813.42906        41.40006                                                                
R15  20117899.96806 107504367.21606      2166.51306        41.10006
C21  22316005.55126   -105504.95626         3.29226        40.50026  22316009.14826    -87061.86826         2.20526        38.00026
R04  20715142.60516 110929058.17916      -983.61116        36.50016
C22  24130763.52026  -2262809.03326     -1993.57226        36.60026  24130705.36024  -1419184.09724     -1501.44924        27.60024
C36  25632950.67826  -2154376.03526     -2992.04026        36.40026  25632972.26324  -1542524.39024     -2258.01124        26.40024
R14  20728134.41126 110493028.03426     -1891.83526        35.60026
E27  26105716.48925  -2999664.72225      1309.96825        33.00025  26105662.52625  -1574038.61625       974.43725        30.10025
E30  27423930.90825    -99759.30025      -813.71725        32.20025  27424072.41022  -1866538.40222      -613.63922        16.20022
R16  23450651.65225 125269581.30525      4195.73925        30.00025
E07  26645893.93124  -1567304.30524     -1937.77924        29.40024  26645904.42424    -69115.80924     -1440.90224        24.90024
R19  23255587.79224 124402123.86124     -4082.98524        29.30024
C26  23079093.67625   -188579.59725      2259.00725        30.20025  23079105.96723   -149658.18923      1692.81223        20.50023
C16  40018040.88724   -380098.60024     -1119.16524        28.40024                                                                
C13  40420641.47225    -86295.06625     -1189.59425        34.10025                                                                
R20  21875600.23724 116979074.37124     -2037.99124        29.20024
E12  26171182.76724  -1761722.41624      1076.35824        29.40024                                                                
E21  27322124.98624   -517892.09624      2461.98724        28.20024                                                                
E26  26353489.25924  -3037466.05624     -3299.56024        25.80024  26353398.72223  -1086306.08123     -2468.38223        22.30023
E19  24389182.22024   -179990.52324       776.44124        26.90024  24389166.63123  -1633710.82523       569.81923        18.20023
R03  23673774.58724 126727979.39724     -2490.01924        24.50024
C14  26183616.95923   -391655.92723      2135.25723        21.00023                                                                
E10  28144698.53123   -596470.30223      1949.72023        18.80023                                                                
> 2025 10 05 09 16 01.0000048  0 35                      
G07  21586406.64207  -1086290.74207      1421.75707        41.80007                                                                
G09  20717358.07107    -62110.88307       393.75407        45.50007  20717359.87006   -228012.45206       293.75206        37.80006
G03  21416816.74626     49418.89326     -2577.41826        41.10026  21416815.54725     29225.40125     -1927.35025        33.00025
G04  21469686.34506  -1349564.67106     -1464.26006        37.40006  21469701.63526     -6283.09026     -1094.54926        35.70026
G06  22483319.12225    -48371.37525      -288.89725        34.60025  22483247.77124  -1220842.43324      -217.28924        27.80024
G30  23806063.70524   -237286.00024      2767.14624        29.10024  23805927.89914   -184556.13414      2066.90914        27.10014
G11  24563715.99324   -169938.79924      1878.10324        27.90024                                                                
G01  24730620.94725     92185.81825     -3814.30925        29.80025  24730565.78624  -1547590.53524     -2833.05824        24.50024
G16  22672797.24907    -48190.87807       -21.26907        45.90007                                                                
R05  20770996.93808 111033264.44508      1200.30108        48.10008
E33  24401195.80407  -1040884.08207     -1687.78707        46.20007  24401207.79525   2089026.72525     -1267.53225        32.20025
C34  25626399.91307    -71552.22907     -2471.95407        42.60007                                                                
E29  23915758.96517    -24955.47917      -687.13517        41.90017  23915740.97725   2063741.10925      -507.20125        30.00025
C09  38068966.30306    -97512.84706      -817.82206        41.30006                                                                
R15  20117508.43906 107502247.00006      2162.96206        40.80006
C21  22316013.64516   -105503.50316        -3.66516        40.10016  22316015.44426    -87061.11526        -2.16726        37.60026
R04  20715324.57916 110930005.97716      -991.33916        36.60016
R14  20728494.16216 110494919.56716     -1897.52516        35.60016
C22  24131125.37026  -2260809.22526     -2002.54826        36.40026  24131089.09524  -1417678.20124     -1506.67424        26.30024
C36  25633538.87026  -2151378.06826     -3000.79526        36.10026  25633564.65224  -1540263.90324     -2261.71124        26.10024
E27  26105474.25615  -3000969.88015      1303.63815        32.90015  26105419.69425  -1575008.87725       968.33025        30.00025
R16  23449835.91625 125265195.59825      4187.88225        30.10025
E30  27424081.70325    -98943.51725      -817.30225        31.90025  27424216.31022  -1865933.43622      -599.25522        14.70022
E07  26646271.67025  -1565366.03125     -1938.81825        29.50025  26646279.76424    -67674.40824     -1440.54724        24.70024
R19  23256326.18024 124406045.75624     -4085.73324        29.40024
C16  40018257.93724   -378977.26224     -1123.15624        28.70024                                                                
C26  23078686.85825   -190834.83625      2253.62525        29.90025  23078719.53523   -151344.16523      1681.50123        20.40023
E21  27321663.60624   -520355.27324      2462.19024        28.10024                                                                
E26  26354124.51924  -3034167.01324     -3298.78424        27.20024  26354006.10124  -1083839.72024     -2466.71924        26.90024
C13  40420881.30625    -85104.26925     -1191.14225        33.10025                                                                
E19  24389043.41724   -180763.49124       770.01024        26.70024  24389018.23423  -1634285.61623       578.06923        19.00023
R03  23674205.68824 126730259.58524     -2496.94824        24.80024
C14  26183187.65623   -393791.25523      2136.15223        21.00023                                                                
E10  28144338.78023   -598418.20023      1947.65423        18.80023                                                                
E12                                                                  26170845.20123  -1757522.06323       786.78423        19.00023
> 2025 10 05 09 16 02.0000049  0 35                      
G07  21586095.15717  -1087708.61617      1415.28017        44.80017                                                                
G09  20717251.34507    -62501.78607       388.75707        45.30007  20717260.63906   -228304.35906       290.32606        37.70006
G03  21417283.52316     52000.90316     -2584.78016        41.00016  21417282.62425     31153.42725     -1929.28825        32.90025
G04  21469955.85906  -1348096.25106     -1471.15906        37.40006  21469954.36026     -5187.76426     -1096.49926        35.50026
G16  22672805.64327    -48169.08127       -22.99127        44.60027                                                                
G06  22483364.99025    -48076.99425      -297.49325        34.50025  22483283.74724  -1220620.11524      -224.93524        27.40024
G01  24731385.11825     96000.51825     -3815.64225        30.00025  24731269.09924  -1544737.61724     -2861.05324        24.50024
G30  23805537.86924   -240048.33424      2758.48724        29.00024  23805378.67924   -186620.16224      2062.67224        27.60024
G11  24563299.88124   -171813.68124      1872.47724        27.80024  24563205.74723  -2089408.71223      1400.21723        19.90023
R05  20770746.31208 111032059.02708      1195.49908        48.20008
E33  24401494.69707  -1039193.16007     -1693.28507        46.20007  24401504.89025   2090289.66425     -1262.38925        32.20025
C34  25626850.50107    -69077.60607     -2476.66407        42.50007                                                                
E29  23915836.61127    -24266.97427      -690.76727        41.70027  23915847.40324   2064255.68224      -518.72824        28.90024
C09  38069100.01006    -96691.54006      -823.80006        41.10006                                                                
R15  20117083.03306 107500108.43706      2157.44606        40.60006
R04  20715454.38906 110930835.78006      -993.49306        36.80006
R14  20728840.42206 110496899.57806     -1903.69006        35.90006
E27  26105206.24205  -3002271.05605      1298.93505        33.60005  26105148.38215  -1575977.12315       967.23815        30.90015
C36  25634082.69426  -2148374.86626     -3005.82026        35.80026  25634118.06924  -1537998.45224     -2267.93324        25.70024
C22  24131486.02026  -2258805.17426     -2006.17126        36.00026  24131449.44524  -1416168.23724     -1511.99824        25.10024
C21  22315989.36226   -105494.86626       -12.22826        39.10026  22315993.85926    -87056.91726        -5.91926        37.10026
R16  23449081.63925 125261301.35725      4191.87125        30.50025
E07  26646602.94125  -1563423.03025     -1945.36425        29.50025  26646620.92824    -66226.86024     -1450.62124        24.50024
C16  40018433.31525   -377852.68625     -1126.19525        29.50025                                                                
R19  23257065.46924 124410134.51024     -4091.70124        29.40024
C26  23078216.78325   -193085.98625      2249.10625        29.80025  23078246.16324   -153033.27724      1690.67924        25.10024
E26  26354800.85124  -3030866.21424     -3301.67724        28.00024  26354631.76824  -1081371.02524     -2469.86124        26.20024
E21  27321177.34324   -522813.52224      2455.78524        28.10024                                                                
C13  40421092.06025    -83908.36325     -1198.46025        32.20025                                                                
E19  24388909.11024   -181532.21324       766.59924        26.50024  24388845.55423  -1634861.38923       576.26323        19.00023
R03  23674741.71724 126733263.58124     -2493.47224        25.00024
E12  26170741.17324  -3296327.44024      1070.03624        26.00024                                                                
C14  26182764.34923   -395928.75123      2138.58023        20.90023                                                                
E10  28143944.25323   -600364.93723      1946.15723        18.80023                                                                
E30  27424210.01425    -98122.38925      -823.80125        31.70025                                                                
> 2025 10 05 09 16 03.0000051  0 35                      
G07  21585832.83907  -1089124.93007      1415.53407        45.80007                                                                
G09  20717185.09127    -62889.10927       385.53427        45.10027  20717190.18806   -228594.88006       289.82906        37.40006
G04  21470234.66626  -1346624.95226     -1472.73826        37.30026  21470239.76215     -4090.87715     -1097.66815        35.40015
G16  22672869.19927    -48143.68827       -27.19027        43.30027                                                                
G06  22483429.74525    -47778.88825      -299.96825        34.50025  22483348.80224  -1220396.64424      -224.04824        27.10024
G01  24732125.00625     99817.50725     -3818.13325        30.00025  24732001.19224  -1541883.80624     -2854.25724        24.30024
G30  23804997.94324   -242807.74424      2757.94924        29.00024  23804850.74524   -188681.28324      2059.66624        27.10024
G11  24562952.12224   -173686.18224      1871.31024        27.70024  24562853.19123  -2090802.46023      1393.74723        20.00023
G03  21417785.67626     54585.80626     -2586.34926        40.90026  21417777.88125     33083.69925     -1931.39425        31.90025
R05  20770532.85928 111030891.84728      1194.88828        48.20028
E33  24401817.57307  -1037500.39407     -1694.43807        46.20007  24401834.36225   2091557.73625     -1270.63925        32.10025
C34  25627333.16617    -66601.45417     -2476.91717        42.50017                                                                
R15  20116675.61506 107497904.87506      2155.60906        40.40006
C09  38069289.77926    -95869.21426      -822.83626        40.80026                                                                
E29  23915982.31026    -23576.53326      -690.40926        41.00026  23915980.21124   2064772.32724      -517.68124        28.60024
R04  20715669.64026 110931960.56526      -993.49926        36.80026
R14  20729202.57206 110498802.54606     -1903.98306        36.00006
E26  26355410.32925  -3027562.00525     -3305.91225        29.50025  26355249.04124  -1078902.70124     -2468.13924        25.70024
E27  26104960.41225  -3003568.12825      1295.01825        33.80025  26104906.44905  -1576944.01305       966.21205        32.30005
C36  25634652.29926  -2145369.25626     -3006.81426        35.50026  25634695.76924  -1535731.94624     -2267.03324        25.30024
C22  24131895.23726  -2256796.66326     -2010.74226        35.60026  24131807.99724  -1414661.34124     -1505.36124        24.10024
C21  22315998.05626   -105484.91626       -10.60826        38.00026  22315998.95526    -87051.70526        -5.72026        36.60026
E30  27424369.80425    -97300.42825      -822.37625        31.60025                                                                
R16  23448245.81725 125256809.41325      4184.12425        30.50025
R19  23257868.61325 124414403.89425     -4095.64325        29.70025
C16  40018660.55825   -376722.10425     -1133.58525        29.50025                                                                
E07  26646991.17225  -1561474.39925     -1951.44425        29.50025  26646917.42324    -64777.19424     -1450.72424        23.60024
E21  27320846.07224  -3498509.94024      2451.21324        27.80024                                                                
C26  23077800.97125   -195334.68625      2247.47425        29.60025  23077796.77424   -154724.71624      1692.60224        24.90024
C13  40421313.60725    -82703.15425     -1209.86125        31.50025                                                                
R20  21876846.17524 116985818.22524     -2048.62424        26.80024
E19  24388774.50324   -182295.46124       760.51024        26.40024  24388710.34723  -1635423.19623       554.82423        19.10023
R03  23675267.55324 126736051.58424     -2504.90524        25.10024
C14  26182380.91523   -398063.81723      2133.85123        20.80023                                                                
E10  28143580.90423   -602307.54123      1940.53723        18.70023                                                                
> 2025 10 05 09 16 04.0000053  0 35                      
G07  21585566.02417  -1090536.75217      1409.57617        46.30017                                                                
G09  20717120.33617    -63274.10517       383.83117        44.80017  20717123.33406   -228882.39806       286.01606        37.30006
G03  21418278.53426     57170.97426     -2585.30026        40.70026  21418277.63525     35016.43025     -1933.96225        31.80025
G04  21470523.96626  -1345153.96426     -1470.83326        37.30026  21470522.76605     -2991.17405     -1101.11105        35.20005
G16  22672884.48927    -48118.63727       -24.88127        42.00027                                                                
G06  22483489.40425    -47478.33725      -301.77325        34.50025  22483406.06224  -1220162.17924      -239.96224        26.90024
G01  24732888.87725    103637.39125     -3821.33125        30.10025  24732732.08624  -1539035.72224     -2845.22024        24.20024
G11  24562602.56424   -175556.92724      1869.86624        27.50024  24562495.23824  -2092193.08224      1389.06024        23.70024
G30  23804497.58924   -245565.04224      2756.24024        28.90024  23804334.80224   -190740.04124      2057.57724        28.50024
R05  20770311.31318 111029679.54718      1191.59318        48.10018
E33  24402141.34917  -1035803.22217     -1699.12517        46.20017  24402162.03525   2092824.89325     -1266.69925        34.10025
C34  25627811.03607    -64121.23307     -2482.25407        42.80007                                                                
R15  20116272.69406 107495724.26006      2150.87206        40.30006
E26  26356067.47416  -3024254.82516     -3307.91616        38.70016  26355904.68724  -1076433.58224     -2469.51524        25.20024
E29  23916126.51026    -22884.84526      -692.56226        40.40026  23916122.31314   2065289.85414      -517.96714        28.50014
R04  20715887.88916 110933101.45116      -998.18416        36.80016
R14  20729608.49126 110500938.91626     -1911.05526        36.00026
E27  26104715.18225  -3004864.46225      1295.96525        33.80025  26104665.71605  -1577907.60805       961.94705        33.20005
C21  22316001.65416   -105473.77116       -11.74116        37.10016  22316007.35026    -87046.28526        -5.52326        36.10026
C09  38069451.06726    -95045.21226      -824.83926        40.20026                                                                
C22  24132260.08425  -2254790.83625     -2004.48325        35.10025  24132199.52623  -1413137.24123     -1532.70123        23.40023
E30  27424518.20125    -96475.97825      -825.69525        31.50025                                                                
R16  23447403.40025 125252283.07625      4179.84125        30.50025
R19  23258668.45925 124418655.67825     -4094.25025        29.80025
E07  26647339.83125  -1559524.96725     -1949.83325        29.50025  26647290.96423    -63324.96023     -1453.51823        22.90023
C16  40018874.31025   -375588.33025     -1135.36925        29.50025                                                                
C26  23077373.16725   -197579.87325      2243.43025        29.50025  23077386.95724   -156419.70824      1696.76824        24.30024
R20  21877119.88524 116987254.37424     -2050.27724        27.90024
C13  40421548.04525    -81500.30925     -1201.66325        30.90025                                                                
C36  25635227.90125  -2142367.56625     -2999.72825        34.80025                                                                
E21  27320422.76524  -3500961.48924      2451.54824        27.60024                                                                
E19  24388589.23124   -183055.14824       757.90724        26.20024  24388586.23323  -1635985.76323       562.94623        19.10023
R03  23675769.40624 126738710.14324     -2502.95224        25.20024
C14  26181986.38823   -400197.36323      2132.78523        20.60023                                                                
E10  28143223.55223   -604242.43723      1931.04123        18.70023                                                                
> 2025 10 05 09 16 05.0000055  0 35                      
G07  21585315.39707  -1091946.97007      1409.41507        46.60007                                                                
G09  20717051.98327    -63658.25227       383.72227        44.30027  20717055.58106   -229168.97506       286.10706        37.30006
G03  21418776.78916     59761.14116     -2592.66616        40.60016  21418775.59025     36951.06425     -1935.58425        31.70025
G04  21470808.76816  -1343679.16216     -1476.70816        37.20016  21470809.96805     -1890.19905     -1101.61005        35.20005
G16  22672915.96726    -48087.58526       -34.05226        40.90026                                                                
G06  22483549.96225    -47170.73725      -311.12625        34.40025  22483474.41524  -1219936.42224      -221.40324        26.50024
G30  23803973.25224   -248316.82224      2749.02124        28.80024  23803819.15924   -192798.56824      2058.41024        28.40024
G11  24562214.93224   -177424.71024      1866.30224        27.50024  24562151.37624  -2093585.06324      1392.65924        23.70024
G01  24733644.35425    107455.05925     -3816.55925        30.50025  24733467.47724  -1536182.44124     -2855.87824        24.00024
R05  20770093.96308 111028490.95208      1189.90008        47.90008
E33  24402467.22307  -1034104.41307     -1699.62707        46.10007  24402490.00825   2094094.55725     -1270.91725        34.10025
C34  25628295.80007    -61639.60607     -2482.33007        43.30007                                                                
R15  20115878.76706 107493591.80906      2151.42506        40.10006
R04  20716041.68326 110933899.06726      -999.32926        36.80026
E29  23916250.32416    -22189.71816      -696.84516        39.80016  23916253.62214   2065808.40814      -519.06714        28.10014
R14  20729930.46826 110502629.09026     -1913.12426        35.90026
E26  26356663.46226  -3020947.99126     -3306.90926        38.40026  26356542.34524  -1073963.86324     -2470.01924        24.70024
C13  40421778.58525    -80294.50925     -1207.27625        30.70025                                                                
E27  26104467.25315  -3006157.91415      1292.01115        33.70015  26104425.58205  -1578869.92405       961.67605        33.70005
C21  22316014.84426   -105460.88026       -13.76426        36.50026  22316013.34525    -87035.87625       -12.90425        34.70025
C22  24132625.53125  -2252779.13125     -2014.64525        34.60025  24132590.75523  -1411614.42123     -1522.18023        22.80023
E30  27424691.48125    -95647.91925      -829.86325        31.50025                                                                
C36  25635848.17225  -2139359.52325     -3011.21925        34.10025                                                                
C09  38069599.76426    -94218.81226      -827.59926        38.90026                                                                
R16  23446679.70125 125248389.59625      4175.70125        30.60025
R19  23259474.60125 124422941.13525     -4102.25125        29.80025
E07  26647733.45825  -1557574.28525     -1951.30625        29.50025  26647672.60023    -61868.54023     -1458.51223        22.20023
C16  40019098.25524   -374455.61424     -1132.18724        29.40024                                                                
C26  23076960.95224   -199823.21224      2242.41424        29.40024  23076959.45324   -158114.86524      1695.24024        24.20024
R20  21877538.09624 116989462.53824     -2051.81824        28.30024
E21  27319979.67224  -3503413.61324      2452.41124        27.40024                                                                
E19  24388444.43124   -183817.45824       763.62124        26.10024  24388451.62623  -1636544.40023       556.67323        19.30023
R03  23676340.21124 126741737.88324     -2503.39024        25.30024
C14  26181587.36423   -402327.32123      2128.16423        20.50023                                                                
E10  28142862.30223   -606172.17123      1927.15323        18.70023  28142716.90223  -2446304.02223      1439.12223        22.30023
> 2025 10 05 09 16 06.0000057  0 35                      
G07  21585040.48707  -1093352.74207      1403.55007        46.60007                                                                
G03  21419264.85106     62355.71206     -2596.77306        40.50006  21419271.44725     38888.03325     -1938.13725        31.00025
G04  21471086.37606  -1342200.59006     -1480.45606        37.10006  21471096.26905      -786.54105     -1105.00005        35.10005
G06  22483611.12015    -46861.77215      -309.64615        34.40015  22483531.37524  -1219699.11324      -243.08524        27.60024
G16  22672948.94426    -48052.78326       -36.67826        39.90026                                                                
G01  24734374.94925    111277.87625     -3825.39225        30.70025  24734202.86824  -1533324.14724     -2860.80024        23.90024
G11  24561851.88424   -179288.97724      1862.50924        27.30024                                                                
G09  20716982.43227    -64037.86927       377.35327        43.80027  20716988.12806   -229452.42406       281.88606        37.30006
G30  23803467.80224   -251067.26424      2749.77224        28.80024  23803298.12024   -194852.83524      2052.13624        28.00024
R05  20769876.31408 111027301.59408      1184.48708        47.80008
E33  24402807.18807  -1032401.17907     -1705.44607        46.00007  24402819.18025   2095366.59425     -1273.22425        33.90025
C34  25628776.06807    -59154.13407     -2487.39407        43.80007                                                                
R15  20115483.64006 107491454.76906      2143.26106        39.90006
E29  23916401.72006    -21490.96006      -700.57406        39.30006  23916395.42424   2066331.28324      -525.03724        28.80024
R04  20716264.72826 110935067.53426     -1004.91126        36.70026
R14  20730300.41226 110504575.53526     -1913.98426        36.20026
C13  40422018.71926    -79083.91626     -1212.98926        36.20026                                                                
E26  26357261.24826  -3017638.34926     -3311.04626        37.80026  26357177.30624  -1071498.25724     -2463.54924        24.30024
E27  26104232.81625  -3007447.01225      1286.92025        33.70025  26104184.24905  -1579829.28505       957.88305        33.50005
C22  24133059.93025  -2250764.16825     -2016.59225        34.20025  24132982.58423  -1410095.75023     -1516.59823        22.30023
C21  22316013.34526   -105443.80326       -19.17126        35.90026  22316019.64125    -87023.24225       -13.74825        33.40025
C36  25636442.66025  -2136347.56025     -3013.92325        33.80025                                                                
E30  27424854.26825    -94817.08725      -832.21925        31.50025                                                                
C09  38069765.85026    -93389.55326      -830.68826        37.60026                                                                
R16  23445936.51625 125244393.70125      4172.68225        30.60025
E07  26648121.09025  -1555618.70025     -1958.03725        29.70025  26648052.73723    -60411.58523     -1457.22323        21.70023
C26  23076548.73824   -202061.03824      2235.07024        29.40024  23076537.94524   -159805.75224      1688.75224        23.70024
R19  23260229.77825 124426954.11225     -4100.91025        29.70025
C16  40019319.80124   -373324.06624     -1130.96524        29.30024                                                                
R20  21877887.65424 116991307.26624     -2054.29924        28.50024
E21  27319512.89524  -3505869.09524      2457.16224        27.20024                                                                
E19  24388345.50024   -184578.65924       760.64724        26.30024  24388310.42423  -1637083.72023       529.66123        19.20023
R03  23676786.00224 126744100.02624     -2506.26724        25.70024
C14  26181212.32423   -404453.93523      2124.94223        20.30023                                                                
E10  28142500.45223   -608098.03723      1923.93223        18.60023  28142358.05123  -2447747.00923      1444.91923        22.60023
> 2025 10 05 09 16 07.0000059  0 35                      
G07  21584787.16307  -1094756.96407      1403.44607        46.60007                                                                
G09  20716916.47717    -64415.80117       377.09017        43.20017  20716921.87306   -229734.78706       281.81906        37.30006
G03  21419780.49506     64951.60806     -2596.55706        40.40006  21419771.80125     40826.14425     -1938.68125        30.90025
G04  21471382.57106  -1340720.98406     -1480.12406        37.10006  21471384.07015       318.49715     -1105.72815        35.00015
G06  22483678.57325    -46551.33525      -311.17425        34.40025  22483604.22524  -1219465.09724      -232.37124        27.20024
G16  22672947.44526    -48015.72826       -38.18126        38.90026                                                                
G01  24735100.14625    115103.65825     -3827.26225        30.70025  24734941.85623  -1530470.23323     -2851.72323        23.40023
G30  23802976.44224   -253819.09824      2752.53124        28.70024  23802779.47924   -196908.27924      2056.03324        27.30024
G11  24561463.05324   -181152.62724      1863.34224        27.20024                                                                
R05  20769661.36308 111026125.24008      1184.72308        48.40008
E33  24403130.96407  -1030696.31007     -1705.68607        45.90007  24403148.05225   2096638.40225     -1271.69325        33.60025
C34  25629261.73107    -56667.36207     -2487.42207        44.20007                                                                
R14  20730656.26517 110506444.18817     -1918.21817        43.10017
R15  20115083.41806 107489288.68106      2143.88306        39.70006
R04  20716426.01726 110935904.23326     -1004.43126        36.80026
E29  23916539.02516    -20791.69016      -700.27716        38.90016  23916533.02924   2066853.76824      -522.28824        28.40024
C13  40422258.85326    -77873.33126     -1210.58226        36.00026                                                                
E26  26357906.40126  -3014323.39326     -3317.61226        37.30026  26357813.76524  -1069025.08124     -2476.96224        23.90024
C22  24133454.45725  -2248747.20925     -2017.95525        34.10025  24133372.91423  -1408576.25823     -1519.90123        22.00023
E27  26103996.57925  -3008734.12325      1286.11825        33.70025  26103941.11815  -1580787.23915       957.25115        33.10015
C21  22316037.02925   -105424.78025       -19.99525        35.40025  22316031.03325    -87010.29925       -13.09725        33.10025
C09  38069924.44026    -92555.56626      -836.35226        36.60026                                                                
C36  25637020.06025  -2133335.72425     -3011.77225        33.50025                                                                
E30  27425020.35325    -93984.07325      -834.10425        31.80025                                                                
R16  23445221.21125 125240545.31625      4176.12825        30.60025
C26  23076103.84625   -204299.62225      2238.96225        29.80025  23076110.14123   -161496.35423      1690.45823        23.30023
E07  26648485.63725  -1553664.15325     -1954.02825        29.80025  26648427.17823    -58956.45323     -1454.22023        21.20023
R19  23260953.17725 124430796.40525     -4105.81025        29.70025
R20  21878287.87624 116993419.02524     -2057.79524        28.50024
C16  40019563.53324   -372185.85324     -1141.54424        29.20024                                                                
E21  27319037.72424  -3508323.12924      2453.30824        27.20024                                                                
E19  24388196.80324   -185336.86224       756.70324        26.50024  24388175.21823  -1637621.40023       536.86123        19.20023
R03  23677169.13724 126746122.86124     -2510.45024        25.80024
C14  26180826.79123   -406573.43923      2115.94923        20.20023                                                                
E10  28142146.69723   -610018.85723      1918.29623        18.60023  28142006.69423  -2449192.73423      1447.09423        23.20023
> 2025 10 05 09 16 08.0000060  0 36                      
G07  21584493.96607  -1096158.43007      1400.08707        46.80007                                                                
G09  20716819.64407    -64792.48607       376.06207        42.70007  20716825.64006   -230015.72206       280.22106        37.20006
G03  21420249.07016     67549.03416     -2598.19216        40.20016  21420242.17525     42767.64025     -1943.18825        30.60025
G04  21471627.80106  -1339239.28206     -1482.75006        37.10006  21471641.59225      1424.45325     -1106.41525        34.90025
G06  22483719.04525    -46240.76125      -310.64125        34.40025  22483626.11024  -1219226.61924      -240.70824        26.70024
G16  22672948.94426    -47975.20026       -42.26426        38.10026                                                                
G01  24735800.46225    118930.00125     -3826.62425        31.00025  24735636.77523  -1527616.30023     -2853.94223        23.20023
G11  24561067.62724   -183010.98924      1855.71824        27.20024                                                                
G30  23802424.52424   -256563.51724      2740.71124        28.70024  23802234.15624   -198963.83124      2055.60524        26.90024
R05  20769413.43408 111024933.58608      1182.55008        49.80008
E33  24403447.24507  -1028988.74607     -1708.91107        45.80007  24403446.64525   2097913.91525     -1277.36625        34.70025
C34  25629706.02407    -54178.33107     -2490.16007        44.40007  25629731.50626  -2955287.08026     -1875.55826        39.80026
R14  20730987.23607 110508341.82107     -1920.50807        43.70007
R15  20114650.81706 107487110.35406      2139.51506        39.50006
R04  20716567.81916 110936795.32616     -1006.06916        37.20016
E29  23916644.55216    -20090.38616      -702.07116        38.50016  23916643.05324   2067379.30524      -527.06324        28.30024
C09  38070057.84716    -91721.77916      -833.68716        36.10016                                                                
E26  26358447.52626  -3011002.46626     -3323.91326        36.70026  26358421.44524  -1066548.53124     -2478.23624        23.60024
C22  24133810.31115  -2246728.95215     -2018.90715        34.00015  24133736.26223  -1407053.60423     -1524.23523        21.70023
E27  26103682.99625  -3010020.21325      1284.82925        33.60025  26103674.00306  -1581743.37306       955.22406        36.60006
C21  22316032.83225   -105401.11925       -25.98125        35.00025  22316010.94725    -86994.51725       -17.20225        32.80025
C13  40422486.39526    -76658.07526     -1217.59126        35.60026                                                                
E30  27425148.96425    -93149.18725      -835.82325        31.90025                                                                
C36  25637552.19225  -2130319.46725     -3018.46925        33.30025  25637807.91524  -2740003.16224     -2274.96724        24.60024
C26  23075673.34425   -206535.14025      2233.98625        30.10025  23075643.06523   -163187.29123      1691.10523        22.90023
R16  23444393.18425 125236255.91625      4173.14325        30.50025
E07  26648838.79325  -1551706.22225     -1959.62225        29.80025  26648846.28823    -57502.83223     -1452.86623        23.20023
R19  23261753.62325 124435212.74725     -4104.33225        29.70025
C16  40019760.19724   -371048.08924     -1137.54024        29.10024                                                                
R20  21878686.60024 116995684.57324     -2064.91924        28.80024
E12  26169528.51224  -3950244.77624      1055.64424        27.40024                                                                
E19  24388005.53524   -186093.32524       755.59424        26.80024  24388006.13523  -1638174.16023       560.30023        19.20023
E21  27318510.38924  -3510769.55724      2442.62724        27.10024                                                                
R03  23677658.99824 126748878.69424     -2512.62824        26.10024
C14  26180365.71023   -408686.37723      2109.65423        20.10023                                                                
E10  28141769.55823   -611930.48923      1907.03823        18.70023                                                                
> 2025 10 05 09 16 09.0000063  0 34                      
G07  21584245.73807  -1097559.22807      1400.46407        46.80007                                                                
G09  20716765.98107    -65167.78907       374.61007        42.30007  20716769.87906   -230295.99006       279.93506        37.20006
G03  21420755.71906     70148.94006     -2601.14506        40.10006  21420754.82025     44709.92125     -1942.67425        30.40025
G04  21471931.19106  -1337756.88506     -1482.74406        37.20006  21471940.18525      2530.91425     -1106.71425        34.80025
G16  22672981.92126    -47935.21626       -39.71226        37.50026                                                                
G06  22483780.20325    -45929.99125      -310.86825        34.30025  22483701.05824  -1218993.60824      -230.27724        26.30024
G01  24736513.36825    122755.41325     -3824.94625        31.00025  24736376.96323  -1524765.11223     -2849.81523        23.00023
G11  24560728.56124   -184866.69024      1854.36924        27.10024                                                                
G30  23801936.16224   -259308.50824      2745.27524        28.60024  23801718.21324   -201020.53924      2057.28624        26.40024
R05  20769208.07608 111023747.28408      1182.29008        50.70008
E33  24403784.81107  -1027280.45607     -1708.65207        45.70007  24403789.30825   2099191.28125     -1278.29225        34.40025
C34  25630202.78007    -51688.88307     -2489.65607        44.60007  25630222.26626  -2953411.15726     -1875.92226        39.50026
R14  20731367.07307 110510279.11207     -1922.08107        43.90007
R04  20716770.47807 110937793.69107     -1005.96207        42.20007
R15  20114282.37206 107485052.83206      2138.78206        39.30006
E29  23916804.94026    -19386.98326      -704.45226        38.20026  23916789.65124   2067904.17824      -524.54024        27.50024
C09  38070238.62206    -90886.92406      -835.38806        35.90006                                                                
E12  26169348.03725  -3951293.78325      1049.00625        32.60025  26169223.32424  -2957945.40624       782.19024        24.60024
E27  26103510.01615  -3011304.04915      1282.95815        33.60015  26103447.65906  -1582698.98906       955.35606        36.40006
C22  24134169.16225  -2244707.31525     -2023.32625        33.90025  24134143.38023  -1405532.42023     -1520.44923        21.60023
E26  26359082.78726  -3007681.21326     -3321.41626        36.20026  26359070.49523  -1064071.73323     -2476.92223        23.40023
C21  22316037.92825   -105378.60325       -21.94225        34.70025  22316032.53225    -86976.34425       -19.36925        32.40025
E30  27425365.41525    -92314.18825      -835.05425        31.80025  27425344.42923  -2578675.24323      -622.61423        19.00023
C36  25638129.59225  -2127299.64125     -3021.60825        32.90025  25638406.00124  -2737715.29824     -2294.31224        24.60024
C26  23075350.16725   -208771.35325      2236.56025        30.50025  23075227.55223   -164876.70123      1688.64623        22.50023
R16  23443639.50625 125232141.54125      4176.62025        30.40025
R19  23262559.76525 124439435.43725     -4102.69425        29.70025
E07  26649211.73525  -1549747.21325     -1959.54825        29.80025  26649219.22924    -56043.23124     -1462.58924        23.50024
C16  40019976.34725   -369912.99625     -1133.75825        29.50025                                                                
E19  24387912.00024   -186852.13424       759.98124        27.00024  24387875.42523  -1638738.03823       569.43623        19.30023
E21  27318150.63824  -4085093.67224      2446.90024        26.70024                                                                
R03  23678171.94324 126751535.71924     -2513.19024        26.60024
C14  26179965.18723   -410795.99823      2107.96223        19.90023                                                                
E10  28141403.21223   -613835.93823      1902.35723        18.70023                                                                
> 2025 10 05 09 16 10.0000065  0 36                      
G07  21583980.42107  -1098957.53507      1397.06107        46.70007                                                                
G09  20716702.42507    -65540.87907       371.98407        42.10007  20716703.02506   -230574.64406       277.84706        37.00006
G03  21421244.68106     72751.29106     -2603.57306        40.00006  21421253.67525     46647.32925     -1934.97125        30.20025
G04  21472217.49306  -1336272.25906     -1485.73906        37.60006  21472224.68816      3639.50316     -1109.65216        36.80016
G16  22672982.22126    -47889.89326       -47.99326        36.90026                                                                
G06  22483835.06525    -45618.94925      -311.17925        34.20025  22483778.70424  -1218758.75124      -235.78024        27.30024
G01  24737236.16825    126585.06625     -3831.77225        30.90025  24737114.75223  -1521905.62523     -2863.63523        22.80023
G11  24560364.31424   -186725.79324      1860.80524        27.00024                                                                
R05  20768993.12508 111022570.92608      1179.29908        51.50008
C34  25630689.34307    -49197.57607     -2492.23607        44.80007  25630706.43116  -2951533.63716     -1878.31916        39.30016
E33  24404113.08407  -1025569.74007     -1711.92907        45.60007  24404120.27915   2100468.73715     -1277.50115        34.20015
R14  20731742.41307 110512252.25307     -1925.31107        43.80007
R04  20716973.43807 110938853.35407     -1010.32907        42.40007
R15  20113880.65006 107482879.85606      2135.20906        39.10006
E12  26168996.68125  -4170899.62425      1049.71025        35.10025  26169032.05624  -2958726.20924       780.80224        25.00024
C09  38070405.00706    -90050.13506      -837.75706        35.80006                                                                
E29  23916929.95426    -18681.56626      -706.42326        37.80026  23916932.35224   2068431.45624      -528.48124        27.20024
E27  26103239.90305  -3012585.05105      1279.58505        33.60005  26103210.82306  -1583652.98406       953.18406        36.80006
E21  27317456.01925  -4162577.88125      2441.54925        30.10025                                                                
C21  22316045.72325   -105352.72225       -27.56425        34.30025  22316038.52825    -86957.65825       -18.94125        31.80025
C26  23074934.35525   -211005.50625      2233.12225        30.90025  23074793.45323   -166563.05723      1684.82923        22.30023
E30  27425571.67225    -91480.11525      -833.61125        31.70025  27425492.22722  -2578044.44122      -634.89522        16.00022
C36  25638731.87525  -2124281.53225     -3017.25225        32.60025  25638990.59624  -2735428.65224     -2286.03624        24.50024
R16  23442878.63325 125228050.10325      4172.05825        30.40025
R19  23263354.21525 124443658.90025     -4106.12725        29.60025
C16  40020226.67425   -368777.27525     -1136.03425        29.50025                                                                
E07  26649595.46925  -1547785.75425     -1962.68325        29.70025  26649617.05424    -54581.48424     -1462.82024        23.80024
E26  26359699.76025  -3004357.38025     -3325.12125        35.00025  26359709.35323  -1061592.75123     -2480.07323        23.30023
R21  23295673.94124 124660257.21024       877.39324        27.60024
C13  40422964.56425    -74218.19925     -1216.07625        31.60025                                                                
E19  24387806.17324   -187605.26724       750.29624        27.20024  24387738.72023  -1639300.43223       561.65423        19.70023
R03  23678689.68424 126754280.06324     -2516.92524        26.90024
C22  24134566.38725  -2242679.67725     -2030.63825        33.10025  24134536.40823  -1404007.74423     -1526.42123        21.30023
C14  26179577.85523   -412903.52923      2106.48523        19.90023                                                                
E10  28141054.25423   -615735.91123      1897.23623        18.70023  28140903.45824  -3023793.22124      1426.74324        25.10024
G30                                                                  23801207.96724   -203077.48224      2057.06024        26.10024
> 2025 10 05 09 16 11.0000066  0 35                      
G07  21583700.11507  -1100356.52807      1399.33607        46.70007                                                                
G09  20716601.99507    -65914.91807       374.51407        42.00007  20716607.69106   -230853.92106       279.58906        37.00006
G03  21421737.24006     75352.01506     -2599.91006        39.80006  21421723.44925     48588.39725     -1942.89725        30.00025
G04  21472468.41906  -1334788.67306     -1483.06706        38.20006  21472482.80906      4747.39406     -1107.54206        36.70006
G16  22672956.73916    -47847.83816       -40.42116        36.50016                                                                
G06  22483893.52425    -45304.68625      -315.87325        34.10025  22483814.97924  -1218525.61724      -232.27424        26.90024
G01  24737918.49525    130420.15925     -3837.81425        30.80025  24737820.16323  -1519037.93923     -2871.78723        22.60023
G30  23800732.19624  -4239953.79024      2739.76924        27.60024  23800660.24624   -205131.37424      2052.36624        25.90024
G11  24560017.15424   -188583.85924      1857.54624        26.90024                                                                
R05  20768749.39408 111021400.69108      1181.83908        52.40008
C34  25631142.03007    -46707.21107     -2489.89407        45.10007  25631159.41806  -2949656.80506     -1876.48706        39.30006
E33  24404424.86807  -1023859.65807     -1709.76407        45.40007  24404419.77225   2101738.33625     -1265.67125        34.00025
R04  20717135.62507 110939854.78407     -1006.98707        42.40007
R14  20732073.68407 110514150.64907     -1923.51507        43.60007
R15  20113461.84006 107480774.93306      2136.90306        38.90006
C09  38070536.31606    -89214.32406      -835.32206        36.60006                                                                
E29  23917045.07426    -17978.55426      -701.81026        37.50026  23917037.87924   2068959.99424      -529.16824        26.90024
E12  26168776.03325  -4171950.79925      1051.17425        35.10025  26168806.31224  -2959508.95324       783.71624        24.90024
E27  26102975.78625  -3013868.23525      1284.27525        33.60025  26102943.10906  -1584607.43206       954.67506        38.40006
C21  22316026.83625   -105329.59725       -21.74725        34.00025  22316021.14025    -86938.23525       -19.79325        31.50025
E26  26360462.13225  -4245604.74025     -3321.74925        34.10025  26360314.93423  -1059109.75523     -2485.00323        23.20023
C26  23074459.18425   -213237.87825      2231.48225        31.10025  23074338.36823   -168246.60923      1682.14923        22.10023
R16  23442048.80725 125223749.24025      4173.75725        30.40025
E21  27316967.65725  -4165018.04525      2440.16425        30.60025  27316979.04924  -3138501.38424      1822.35324        26.70024
R19  23264114.18925 124447857.86825     -4108.77125        29.60025
C16  40020401.45325   -367638.83925     -1139.79325        29.50025                                                                
E07  26649933.63525  -1545827.49225     -1956.66425        29.60025  26649966.01224    -53120.42624     -1460.71324        23.80024
C13  40423151.33525    -73003.19325     -1215.00525        31.10025                                                                
C22  24134979.80125  -2240654.95825     -2023.25925        32.20025  24134899.15723  -1402481.38523     -1527.20123        21.10023
R03  23679141.77124 126756832.92424     -2514.55124        27.10024
E19  24387584.92624   -188354.23224       746.88124        27.20024  24387571.13623  -1639862.03623       561.20723        20.40023
E30  27425711.97525    -90645.08025      -835.51525        30.90025  27425660.71022  -2577387.14522      -670.54322        14.40022
C14  26179153.64923   -415009.34023      2104.95223        19.90023                                                                
E10  28140666.32223   -617629.98723      1891.12823        18.60023  28140514.92724  -3025220.51924      1427.29824        25.20024
C36  25639302.38025  -2121262.15025     -3020.01725        32.30025  25639541.31525  -2733150.48425     -2273.93025        30.00025
> 2025 10 05 09 16 12.0000068  0 35                      
G07  21583430.30207  -1101749.48207      1389.93407        46.80007                                                                
G09  20716536.34007    -66283.14407       365.31807        42.00007  20716542.33606   -231128.87006       272.78506        36.80006
G03  21422219.60606     77959.53206     -2610.91206        39.70006  21422226.80125     50535.82225     -1950.60425        29.80025
G04  21472761.31706  -1333299.35306     -1492.18606        38.60006  21472772.10906      5859.59406     -1114.35406        36.50006
G06  22483936.99425    -44985.91325      -321.02925        34.00025  22483884.53124  -1218281.80224      -249.15524        26.70024
G01  24738649.98925    134257.58625     -3838.59325        30.70025  24738552.55623  -1516163.82823     -2877.32223        22.40023
G30  23800248.03124  -4242690.28524      2736.49424        27.50024  23800140.10624   -207176.11224      2040.16024        25.50024
G11  24559690.08024   -190437.49824      1851.42624        26.80024                                                                
G16  22672983.42006    -47798.68406       -52.70306        36.10006                                                                
R05  20768533.24408 111020218.98608      1172.99208        52.90008
C34  25631627.39407    -44211.04907     -2499.06007        45.10007  25631644.18206  -2947775.80206     -1883.09006        39.60006
E33  24404748.04407  -1022143.52107     -1719.16407        45.30007  24404752.54125   2103017.26625     -1283.59425        33.90025
R04  20717332.28907 110940880.73907     -1015.86007        42.30007
C09  38070699.10306    -88372.82206      -844.34706        41.40006                                                                
R15  20113060.11806 107478600.43606      2128.27406        38.70006
E29  23917174.28526    -17268.66426      -713.32826        37.20026  23917183.27924   2069489.44424      -529.90524        26.70024
E12  26168573.07425  -4172993.93525      1039.11725        34.90025  26168615.34524  -2960293.22324       785.03224        24.90024
E27  26102719.16425  -3015142.86125      1270.34725        33.60025  26102705.97306  -1585557.35406       947.65806        39.40006
R14  20732457.41827 110516169.56027     -1932.12427        42.50027
C21  22316023.53825   -105302.01025       -29.81825        33.80025  22316033.73125    -86914.63725       -25.68525        31.10025
C26  23074020.28825   -215467.48225      2228.21925        31.10025  23073912.96223   -169926.94123      1678.72223        22.00023
R16  23441266.64925 125219544.68725      4166.72825        30.60025
C36  25639906.16225  -2118239.21725     -3024.70925        32.00025  25640130.10724  -2730872.39524     -2278.04824        29.20024
E21  27316496.08325  -4167457.25725      2438.73525        30.60025  27316522.16524  -3140322.69424      1821.31024        26.70024
C16  40020632.59325   -366495.84725     -1145.27025        29.90025                                                                
E26  26361107.88525  -4242281.45025     -3323.28925        33.40025  26360961.88624  -1056621.25924     -2491.24524        25.10024
R19  23264899.94525 124452033.11025     -4110.30625        29.60025
C22  24135354.54225  -2238631.86925     -2022.27425        31.60025  24135298.18123  -1400942.74423     -1544.78223        21.00023
C13  40423399.26325    -71781.36125     -1225.24625        30.70025                                                                
E07  26650281.39425  -1543866.12425     -1962.92025        29.50025  26650342.55224    -51660.37124     -1459.55324        23.70024
R03  23679547.09124 126758975.24424     -2516.08624        27.20024
E19  24387445.82324   -189103.65424       749.64924        27.10024  24387429.33424  -1640421.64624       558.61324        23.70024
E30  27425865.46825    -89808.19025      -837.81825        30.20025  27425816.00322  -2576733.72222      -651.48722        14.10022
C14  26178748.62923   -417113.39023      2103.16823        20.00023                                                                
E10  28140324.85823   -619525.66323      1896.47523        18.60023  28140155.17624  -3026648.40224      1428.17524        27.70024
> 2025 10 05 09 16 13.0000070  0 35                      
G07  21583167.08417  -1103138.31917      1386.77717        46.80017                                                                
G03  21422718.76016     80571.25616     -2613.82816        39.70016  21422729.85325     52486.22225     -1951.88725        29.70025
G04  21473047.31906  -1331805.80206     -1494.91606        38.70006  21473060.80906      6974.41506     -1116.13106        36.50006
G16  22673016.99706    -47745.23106       -55.60306        35.90006                                                                
G06  22483992.75625    -44660.53725      -328.67725        33.90025  22483958.28024  -1218030.42424      -255.16024        26.40024
G01  24739425.55225    138093.39325     -3834.99625        30.50025  24739298.14023  -1513271.87723     -2900.87123        22.10023
G30  23799739.88324  -4245425.68024      2734.84524        27.40024  23799620.56624   -209221.47124      2045.67024        25.10024
G11  24559278.16624   -192282.65224      1840.91124        26.70024                                                                
G09  20716472.18507    -66646.48107       360.89307        41.90007  20716478.18106   -231401.18306       270.99406        36.80006
R05  20768317.39308 111019039.57108      1170.65308        53.00008
C34  25632113.65707    -41711.86107     -2500.70007        45.10007  25632128.34706  -2945892.05506     -1885.11706        39.80006
E33  24405091.30707  -1020423.13207     -1722.51507        45.10007  24405084.41225   2104299.25425     -1283.51725        33.90025
R04  20717521.45807 110941866.84607     -1019.51307        42.10007
C09  38070862.19106    -87527.84006      -846.72206        41.20006                                                                
R15  20112676.98306 107476526.86106      2125.18106        38.60006
R14  20732798.88216 110517962.70316     -1940.34516        41.10016
E29  23917302.59626    -16556.21626      -712.97826        36.90026  23917321.18324   2070023.02124      -535.64124        28.40024
E27  26102500.31525  -3016412.75225      1267.52325        33.50025  26102468.53706  -1586504.39306       945.59806        40.70006
E12  26168380.90725  -4174033.23725      1037.38525        34.60025  26168426.17624  -2961064.76824       765.18224        24.80024
C21  22316042.42525   -105271.44225       -32.05925        33.50025  22316043.62425    -86888.62525       -27.21925        30.70025
E26  26361709.56825  -4437496.63425     -3331.67025        32.90025  26361598.34514  -1054130.58914     -2491.75814        29.30014
C26  23073632.65725   -217690.67025      2219.98025        31.00025  23073489.35613   -171604.19113      1675.70913        21.80013
R16  23440507.57425 125215463.18325      4156.37425        30.60025
E21  27316043.39725  -4169887.47125      2425.71425        30.50025  27316060.78524  -3142139.38324      1814.37724        28.70024
C36  25640499.75125  -2115212.84125     -3028.09725        31.80025  25640718.30024  -2728591.08324     -2282.92324        28.40024
C16  40020856.53825   -365347.50325     -1151.02025        30.30025                                                                
R19  23265625.44325 124455887.65325     -4117.50225        29.60025
C22  24135750.56825  -2236599.17725     -2037.49225        31.20025  24135687.61123  -1399415.19423     -1522.00523        20.90023
E07  26650694.50824  -1541897.16524     -1972.75324        29.40024  26650719.39124    -50195.69324     -1466.98924        23.60024
C13  40423629.20425    -70554.82525     -1228.88825        30.40025                                                                
R03  23679990.78424 126761325.89824     -2520.75024        27.20024
E19  24387295.32724   -189851.24324       746.67324        27.10024  24387291.72923  -1640977.79223       554.41523        23.40023
E30  27426049.84125    -88963.27125      -848.93325        29.50025  27425993.48022  -2576096.62122      -628.94022        14.10022
C14  26178358.00023   -419217.96923      2104.84323        20.40023                                                                
E10  28139966.90623   -621424.18723      1899.94823        18.90023  28139798.72324  -3028070.35524      1418.98724        27.40024
> 2025 10 05 09 16 14.0000072  0 35                      
G07  21582905.36607  -1104525.40307      1386.20807        46.70007                                                                
G09  20716409.52807    -67009.35707       362.64507        41.90007  20716414.02506   -231672.29506       270.51206        36.70006
G04  21473343.51416  -1330311.99816     -1494.93016        38.90016  21473350.10906      8090.42006     -1116.59706        39.30006
G16  22673008.30316    -47687.42116       -59.98716        35.70016                                                                
G06  22484045.21925    -44332.48225      -329.39525        33.80025  22484029.33024  -1217788.44024      -237.28624        26.20024
G01  24740171.13625    141927.04425     -3832.57425        30.30025  24740042.52523  -1510370.40523     -2906.23223        21.90023
G30  23799257.81724  -4248160.36024      2734.32224        27.40024  23799103.72324   -211275.70324      2058.66624        24.80024
G11  24558934.00424   -194125.49424      1841.68624        26.70024                                                                
G03  21423223.31106     83184.89606     -2614.59706        39.60006  21423231.70524     54438.99924     -1953.96424        29.10024
R05  20768106.33908 111017883.86508      1169.60808        53.10008
C34  25632590.32707    -39210.61407     -2502.27707        45.10007  25632613.71106  -2944007.09706     -1885.56406        39.80006
E33  24405413.58407  -1018701.23907     -1722.64507        44.90007  24405415.38325   2105584.80425     -1287.33125        34.70025
R04  20717692.94027 110942757.94227     -1020.64727        42.00027
C09  38071032.47306    -86681.52106      -846.98806        40.90006                                                                
R15  20112280.95806 107474383.70506      2122.38706        38.50006
R14  20733199.10516 110520070.07916     -1935.61216        40.60016
E29  23917467.78226    -15842.35226      -714.82026        36.80026  23917463.88424   2070556.67924      -533.69824        28.40024
E27  26102278.76825  -3017681.58125      1268.29725        33.70025  26102232.90006  -1587450.16206       945.13306        40.50006
E26  26362330.73825  -4434167.40325     -3329.23025        32.90025  26362235.10424  -1051640.12524     -2490.36024        29.20024
E12  26168207.02725  -4175066.97925      1030.96125        34.30025  26168234.30824  -2961832.51224       765.84424        27.70024
C21  22316071.20525   -105238.82325       -33.64525        33.30025  22316053.21825    -86861.18925       -28.14825        29.60025
C26  23073198.25725   -219913.19325      2222.18925        31.00025  23073066.64823   -173273.25123      1664.96423        21.70023
E21  27315576.32025  -4172317.84725      2430.45725        30.70025  27315606.59924  -3143956.01124      1816.59824        28.50024
C16  40021062.79525   -364197.29525     -1151.14125        30.50025                                                                
R16  23439796.16725 125211636.96325      4166.67225        30.60025
C36  25641048.97125  -2112182.62525     -3032.13525        31.60025  25641070.55624  -2726307.41024     -2284.85424        27.00024
R19  23266364.73125 124459816.43425     -4123.57525        29.60025
E07  26651071.04724  -1539925.26724     -1973.36724        29.40024  26651096.53024    -48726.22024     -1471.87124        24.00024
C22  24136159.18525  -2234565.82725     -2033.67925        30.90025  24136084.83623  -1397884.01623     -1532.99123        20.80023
C13  40423885.52625    -69327.61225     -1227.55125        30.10025                                                                
E19  24387148.42824   -190594.83024       741.58624        27.10024  24387158.62123  -1641530.41323       550.85823        23.10023
R03  23680426.68224 126763632.12824     -2535.64224        27.20024
E30  27426240.50924    -88109.97524      -857.48324        28.90024  27426145.77422  -2575479.67022      -606.87622        14.60022
C14  26177959.87523   -421322.27123      2104.16323        20.40023                                                                
E10  28139606.85623   -623323.84823      1900.22923        18.90023  28139442.26924  -3029493.13324      1423.19124        27.20024
> 2025 10 05 09 16 15.0000074  0 35                      
G07  21582646.34507  -1105908.55307      1381.18407        46.60007                                                                
G16  22673019.99527    -47625.77927       -63.55927        41.90027                                                                
G04  21473632.21426  -1328813.78526     -1500.16826        39.20026  21473640.30806      9208.74206     -1119.48106        39.00006
G03  21423760.53926     85801.05726     -2617.42226        39.60026  21423727.26224     56390.78524     -1951.29124        28.30024
G06  22484108.77525    -44001.70825      -332.13325        33.60025  22484076.09824  -1217546.91424      -241.29724        25.90024
G01  24740923.31525    145764.78925     -3839.79125        30.20025  24740777.61623  -1507473.46423     -2894.67523        21.60023
G30  23798722.68724  -4250892.99024      2731.60524        27.40024  23798584.78324   -213320.82924      2040.57324        24.40024
G11  24558602.43324   -195966.77824      1840.50424        26.90024  24558576.35124  -3171706.59024      1373.79424        23.90024
G09  20716343.57407    -67369.08207       358.15007        41.80007  20716350.76916   -231940.84316       267.26616        36.70016
R05  20767891.68808 111016708.27608      1165.05808        53.10008
C34  25633088.58207    -36706.54807     -2505.47407        45.10007  25633100.87406  -2942119.91706     -1888.29006        39.80006
E33  24405742.75607  -1016974.74407     -1728.04507        44.80007  24405750.85015   2106873.34915     -1290.04215        34.70015
R04  20717907.89127 110943881.96927     -1020.50427        41.80027
C09  38071200.65616    -85831.64116      -851.65916        40.70016                                                                
R14  20733534.27306 110521828.90106     -1941.44306        40.20006
R15  20111887.03006 107472251.25806      2117.81906        38.40006
E29  23917597.89226    -15125.36126      -718.55626        36.60026  23917606.88525   2071091.52525      -535.43925        31.50025
E27  26102028.74225  -3018949.60725      1267.62525        33.80025  26101997.26306  -1588393.48406       942.09806        40.20006
E26  26363038.24825  -4430835.64125     -3333.02625        33.80025  26362876.36025  -1049147.21125     -2494.13925        30.20025
C21  22316056.51625   -105201.18825       -40.14125        33.10025  22316059.51324    -86831.34224       -31.05324        29.00024
C26  23072765.95725   -222135.08425      2221.57425        31.50025  23072651.43623   -174932.27623      1654.00623        21.40023
E12  26168001.96925  -4176101.74425      1035.27725        33.90025  26168010.96324  -2962598.48624       765.09024        26.30024
C16  40021331.70925   -363044.36525     -1154.29025        30.50025                                                                
R16  23438972.93725 125207211.51825      4159.77525        30.50025
C36  25641600.58925  -2109148.81125     -3035.61225        31.40025  25641656.05124  -2724026.79424     -2279.08524        25.80024
E07  26651460.77824  -1537953.47324     -1971.74324        29.30024  26651480.56414    -47254.27014     -1473.18714        24.00014
R19  23267173.87125 124464116.43625     -4117.30625        29.50025
C22  24136527.92925  -2232530.83625     -2035.81125        30.60025  24136478.76323  -1396350.43923     -1534.77623        20.60023
C13  40424128.65825    -68099.88925     -1227.97725        29.90025                                                                
E19  24387003.32924   -191335.16624       738.71024        27.50024  24387021.31624  -1642086.63724       558.02524        23.80024
R03  23680886.86324 126766067.03524     -2530.83224        27.10024
E30  27426390.10524    -87249.24724      -864.44524        28.30024  27426313.95822  -2574830.80222      -664.82722        15.20022
C14  26177567.74723   -423424.24323      2100.80723        20.30023                                                                
E10  28139237.51123   -625225.85223      1903.17623        19.00023  28139093.01124  -3030913.24624      1418.78024        27.00024
E21  27315131.72825  -4174747.35825      2429.07825        31.20025  27315146.41825  -3145768.83425      1810.92025        30.90025
> 2025 10 05 09 16 16.0000076  0 35                      
G07  21582396.91807  -1107289.00407      1379.10007        46.50007                                                                
G09  20716283.01607    -67726.22007       355.84507        41.80007  20716288.41206   -232207.29806       265.40806        36.60006
G16  22673031.38717    -47560.91017       -66.48317        41.90017                                                                
G04  21473923.91226  -1327313.62926     -1501.12726        39.40026  21473931.10706     10329.39306     -1121.81606        38.80006
G03  21424260.29326     88419.44226     -2619.49626        39.50026  21424234.21114     58343.46114     -1953.12114        28.10014
G01  24741652.11125    149607.08725     -3844.57325        30.00025  24741521.10123  -1504580.46123     -2891.03423        21.40023
G30  23798184.56024  -4253618.92724      2722.58924        27.40024                                                                
G11  24558249.27824   -197803.25124      1834.06724        26.90024  24558224.99524  -3173078.85624      1372.26524        25.00024
G06  22484170.53315    -43667.29815      -336.22815        33.50015  22484152.24524  -1217303.48824      -244.37624        27.90024
R05  20767677.63608 111015537.27508      1163.30908        53.00008
C34  25633572.44707    -34199.03707     -2509.23207        45.20007  25633586.83706  -2940230.69706     -1890.23906        40.00006
E33  24406080.32207  -1015245.92507     -1730.23107        44.60007  24406083.92005   2108164.22105     -1292.03505        34.50005
R04  20718094.06217 110944851.98617     -1027.28917        41.60017
C09  38071366.74106    -84979.33606      -853.51706        40.60006                                                                
R14  20733908.41406 110523795.94306     -1946.22606        40.10006
R15  20111497.60016 107470144.03816      2116.10216        38.30016
E29  23917738.49416    -14405.29316      -722.35516        36.60016  23917745.38925   2071629.41925      -539.41925        31.40025
E27  26101775.71725  -3020211.55825      1258.91425        33.80025  26101763.12526  -1589333.49226       938.35126        39.90026
E26  26363679.80425  -4427499.40425     -3338.47525        33.70025  26363519.71525  -1046650.75625     -2498.22425        29.50025
C21  22316085.89525   -105162.00425       -39.96025        33.00025  22316079.89924    -86797.09224       -36.45224        28.70024
C26  23072349.54525   -224353.94725      2217.34925        31.70025  23072227.82923   -176603.87323      1677.88423        21.20023
E19  24386857.63024   -192075.16024       739.82224        29.00024  24386885.21125  -1642639.51425       551.20325        29.90025
E21  27314668.84825  -4177172.73625      2423.31125        31.30025  27314692.23225  -3147580.07825      1810.45325        30.50025
C13  40424362.79625    -66866.41125     -1236.35525        29.90025                                                                
C16  40021548.75825   -361888.95325     -1156.65325        30.50025                                                                
R16  23438211.46425 125203117.01925      4156.43825        30.50025
C22  24136962.32925  -2230493.60025     -2038.35825        30.40025  24136876.28823  -1394813.27123     -1538.96423        20.50023
C36  25642214.56425  -2106115.26225     -3033.41725        31.10025  25642244.24424  -2721740.77624     -2288.71924        25.70024
E07  26651830.72224  -1535978.27924     -1976.89424        29.30024  26651864.59824    -45780.24424     -1475.06524        23.90024
R19  23267914.05825 124468049.81025     -4126.25725        29.50025
R03  23681350.94224 126768524.92024     -2538.29824        27.10024
E30  27426557.98924    -86385.50824      -865.24424        27.70024  27426499.52922  -2574204.09322      -615.62922        15.20022
C14  26177191.80723   -425518.97223      2091.10823        20.30023                                                                
E10  28138893.34923   -627132.24823      1908.59223        19.20023  28138737.15824  -3032326.08024      1409.19524        26.60024
E12  26167813.10025  -4177132.96225      1029.44425        33.60025  26167817.29724  -2963365.74824       767.90524        25.10024
> 2025 10 05 09 16 17.0000078  0 35                      
G07  21582119.01007  -1108667.79707      1377.96507        46.50007                                                                
G09  20716203.57127    -68082.72027       356.18027        41.80027  20716207.46806   -232472.85706       265.11106        36.70006
G16  22673030.18807    -47494.10707       -67.76907        41.70007                                                                
G04  21474201.22016  -1325811.83216     -1502.61816        39.50016  21474203.91806     11450.93306     -1121.98406        38.70006
G11  24557865.84324   -199637.40424      1832.99324        28.10024  24557871.24024  -3174447.78624      1367.26324        24.90024
G03  21424800.21926     91036.95626     -2617.07726        38.70026  21424720.77414     60297.81014     -1955.18414        27.90014
G06  22484214.60225    -43334.88025      -331.42225        33.40025  22484195.41524  -1217053.79124      -252.83224        27.70024
G30  23797649.13024  -4256338.11324      2715.81224        27.40024  23797945.92525  -3597880.99325      2036.67725        32.10025
G01  24742392.89825    153457.59525     -3854.61225        29.90025  24742243.00223  -1501686.55923     -2894.35023        21.20023
R05  20767442.29908 111014350.97008      1162.64208        52.80008
C34  25634025.43327    -31688.65027     -2511.82627        45.10027  25634055.11306  -2938340.30806     -1890.97406        40.30006
E33  24406384.01207  -1013515.62607     -1731.03907        44.40007  24406400.80005   2109456.46605     -1292.93105        34.70005
R04  20718272.43806 110945878.69506     -1026.99306        41.40006
R14  20734253.47506 110525708.06306     -1947.50506        40.10006
C09  38071518.73606    -84125.89706      -854.00706        40.50006                                                                
R15  20111088.08326 107468026.87326      2113.85226        38.20026
E19  24386711.63125   -192813.48025       737.48325        33.90025  24386727.22025  -1643190.42225       549.92325        33.00025
E29  23917858.11106    -13683.90006      -721.80606        36.80006  23917871.60225   2072170.70325      -542.97925        33.70025
E27  26101545.17615  -3021473.52515      1262.72415        33.70015  26101510.70016  -1590272.99116       939.24416        39.70016
C21  22316072.40525   -105119.97125       -43.45825        32.90025  22316066.40924    -86764.97624       -31.04824        28.40024
C26  23071926.23825   -226569.89525      2214.49025        31.70025  23071787.73423   -178275.13423      1671.09223        21.00023
E21  27314184.68325  -4179595.90025      2422.05525        31.30025  27314217.66125  -3149390.69125      1810.29925        30.20025
E12  26167597.54925  -4178162.23625      1028.30325        33.20025  26167590.35424  -2964133.34024       767.75824        25.10024
C22  24137333.17225  -2228454.20725     -2040.47025        30.80025  24137257.62413  -1393276.89613     -1535.97813        20.40013
E26  26364267.09825  -4843198.31725     -3336.23925        33.00025  26364141.78414  -1044159.67114     -2488.40114        28.80014
C13  40424585.84225    -65630.53725     -1237.07325        30.80025                                                                
C36  25642843.22925  -2103079.24325     -3037.25225        30.90025                                                                
E07  26652214.45625  -1534001.79425     -1977.12925        29.90025  26652224.94924    -44308.30024     -1470.90224        25.70024
R16  23437409.81925 125198906.34625      4156.90725        30.40025
C16  40021772.10425   -360736.34225     -1151.21025        30.40025                                                                
R19  23268691.12024 124472278.62724     -4122.13724        29.40024
R03  23681851.89524 126771278.45224     -2534.20224        27.10024
E30  27426705.48724    -85525.69824      -857.84524        27.20024                                                                
C14  26176759.20723   -427608.79523      2087.36923        20.60023                                                                
E10  28138482.63423   -629042.69123      1912.46523        19.20023  28138359.41924  -3033742.35724      1417.99724        26.30024
> 2025 10 05 09 16 18.0000080  0 34                      
G07  21581862.98707  -1110048.79907      1382.10507        46.40007                                                                
G09  20716137.61617    -68441.12417       359.35617        41.80017  20716144.81106   -232740.19206       268.22406        37.00006
G16  22673046.07717    -47429.38917       -63.67617        41.50017                                                                
G04  21474495.61626  -1324313.15926     -1497.11026        39.50026  21474493.81706     12570.67506     -1118.84206        39.00006
G03  21425359.03326     93652.56826     -2614.66226        38.00026  21425221.72824     62248.45824     -1948.79824        27.50024
G06  22484284.15425    -43002.67125      -332.10325        33.30025  22484264.36824  -1216808.06824      -243.73624        27.30024
G11  24557527.07825   -201474.65325      1838.79625        32.50025  24557527.67724  -3175819.08024      1372.47524        24.90024
G01  24743118.09625    157304.64625     -3845.32325        29.70025  24742977.79323  -1498808.03823     -2870.83023        20.90023
G30  23797124.79324  -4259062.58324      2727.11124        27.30024  23797426.08525  -3599921.53925      2040.54525        32.70025
R05  20767233.34408 111013206.73608      1167.26208        52.60008
C34  25634525.18727    -29183.94727     -2501.86027        45.10027  25634541.67606  -2936452.12606     -1887.07806        40.60006
E33  24406727.27407  -1011787.52907     -1726.99507        44.30007  24406733.87006   2110746.92006     -1289.55806        37.20006
R14  20734636.31006 110527721.62406     -1942.17506        40.60006
R04  20718456.21106 110946836.45106     -1022.82106        41.30006
C09  38071691.11706    -83275.14606      -849.40506        40.30006                                                                
E19  24386579.42216   -193553.72716       741.96016        37.70016  24386593.21325  -1643744.18125       555.18625        32.10025
E29  23918000.81306    -12965.17906      -717.38406        37.30006  23918011.00625   2072707.78825      -534.98525        34.50025
R15  20110694.75616 107465898.24116      2120.23716        38.10016
E27  26101287.65525  -3022739.58825      1267.86025        33.70025  26101276.86206  -1591214.43606       942.41906        39.40006
E26  26364904.75615  -4839864.79615     -3333.02015        32.70015  26364780.04324  -1041671.05624     -2487.37924        28.10024
C21  22316074.80315   -105081.15415       -37.20815        32.80015  22316082.89724    -86737.58224       -25.03524        28.10024
C26  23071514.02325   -228787.67925      2218.70325        31.70025  23071368.02423   -179943.45823      1666.85623        20.80023
E12  26167399.68625  -4179196.06325      1036.10325        32.90025  26167411.97824  -2964897.38724       762.27424        24.10024
E21  27313735.59425  -4182023.71625      2430.14325        31.30025  27313760.47725  -3151205.30825      1816.61725        29.80025
C13  40424836.46825    -64398.98925     -1229.38525        31.00025                                                                
C22  24137682.13025  -2226417.76625     -2034.96525        31.00025  24137652.15103  -1391742.32603     -1533.66703        20.30003
C36  25643415.23325  -2100046.63925     -3030.89725        30.80025  25643632.28324  -3666469.08924     -2304.47724        23.80024
E07  26652587.99725  -1532029.08125     -1970.82725        30.30025  26652604.78624    -42839.08624     -1467.84824        26.10024
R19  23269429.50924 124476200.51924     -4121.60324        29.30024
R03  23682327.36624 126773796.07924     -2523.97724        27.10024
E30  27426862.57824    -84671.72024      -851.06124        26.80024                                                                
C16  40021973.86425   -359584.65325     -1151.22825        29.50025                                                                
C14  26176359.28423   -429699.87223      2091.70323        20.60023                                                                
E10  28138134.57523   -630958.72823      1918.83423        19.20023  28138002.66624  -3035164.00424      1424.33324        25.80024
> 2025 10 05 09 16 19.0000082  0 34                      
G07  21581603.36707  -1111430.16707      1382.30107        46.30007                                                                
G09  20716088.15127    -68799.33827       358.12027        41.70027  20716082.15506   -233008.15206       268.27106        37.50006
G16  22673082.05226    -47368.18926       -59.44126        41.30026                                                                
G04  21474781.01816  -1322814.94816     -1497.97916        39.40016  21474784.31606     13689.72806     -1118.70906        38.30006
G06  22484347.11025    -42669.18225      -334.13125        33.10025  22484340.21524  -1216563.57724      -243.87424        26.90024
G30  23796634.33324  -4261795.81524      2737.61224        27.20024  23796912.24025  -3601963.00725      2041.92925        32.60025
G03  21425882.47026     96267.16326     -2614.08426        37.30026  21425728.37724     64204.36924     -1958.54224        27.10024
G11  24557206.60025   -203312.15825      1837.63325        32.40025  24557177.82024  -3177202.24724      1389.10324        24.90024
G01  24743856.78425    161147.79625     -3841.19725        29.50025  24743714.98323  -1495932.18023     -2874.52723        20.60023
R05  20767021.69008 111012047.96908      1167.11708        52.20008
C34  25635011.45117    -26679.24717     -2504.69817        45.10017  25635028.83906  -2934564.57906     -1887.22806        40.90006
E33  24407063.04207  -1010060.12007     -1727.06607        44.10007  24407067.83906   2112036.88706     -1289.72406        36.80006
R14  20735003.85606 110529653.57606     -1942.95106        40.80006
R04  20718658.87106 110947894.57406     -1022.51806        41.20006
C09  38071861.99816    -82425.01316      -849.82516        40.10016                                                                
E19  24386437.92006   -194294.88906       741.37006        38.60006  24386456.20825  -1644297.55525       553.18125        31.80025
E29  23918136.91806    -12247.44206      -717.24606        37.90006  23918154.60625   2073243.99925      -535.77425        34.50025
R15  20110305.32506 107463790.25706      2117.18806        38.00006
E27  26101098.78515  -3024005.96815      1265.78815        33.60015  26101039.72616  -1592156.32916       942.11616        37.90016
C26  23071069.13115   -231007.57215      2220.94515        32.10015  23070949.21423   -181613.52423      1670.93623        20.50023
C21  22316093.99025   -105039.78725       -42.64225        32.70025  22316096.68824    -86711.69824       -25.12824        27.80024
E12  26167183.83625  -4180230.47825      1034.70925        32.70025  26167208.71824  -2965662.86824       766.19924        27.40024
E26  26365543.61425  -4836529.43525     -3336.53125        32.60025  26365419.80024  -1039181.69424     -2489.73524        27.60024
C22  24138105.43725  -2224382.24525     -2035.06025        31.30025  24138052.37423  -1390205.68323     -1537.67823        20.20023
E21  27313276.61225  -4184452.82625      2429.75625        31.30025  27313304.49325  -3153017.60825      1811.14225        29.50025
E07  26652981.62525  -1530060.02025     -1967.23425        30.60025  26652980.72524    -41374.80224     -1461.82024        25.90024
C13  40425071.20625    -63171.20425     -1225.90425        31.00025                                                                
C36  25643967.45125  -2097014.38825     -3032.07325        30.80025  25644214.78024  -3664165.92324     -2303.16524        23.60024
R19  23270219.76224 124480401.01524     -4115.62624        29.20024
R03  23682753.67124 126776050.99224     -2527.20024        27.40024
C16  40022241.27924   -358437.47924     -1144.91624        28.80024                                                                
E30  27427040.05524    -83825.35924      -842.55424        26.50024                                                                
C14  26175960.26023   -431795.24723      2097.52423        20.60023                                                                
E10  28137782.61823   -632884.97023      1931.34323        19.20023  28137648.61124  -3036584.80724      1420.38024        25.60024
> 2025 10 05 09 16 20.0000084  0 35                      
G07  21581343.14707  -1112816.40707      1388.42507        46.30007                                                                
G09  20716009.90517    -69162.17517       365.14817        41.60017  20716017.99906   -233278.95306       272.22206        39.50006
G16  22673106.63516    -47310.60616       -55.77516        41.00016                                                                
G03  21426391.51826     98878.62826     -2609.90026        36.70026  21426228.13124     66152.56824     -1944.34224        26.60024
G04  21475081.11126  -1321319.29426     -1494.37526        39.00026  21475072.11706     14805.65006     -1114.35506        37.20006
G06  22484419.06125    -42339.68625      -327.49825        33.00025  22484403.47124  -1216324.11224      -236.95324        26.60024
G11  24556837.85525   -205153.36725      1843.06125        32.40025  24556832.15924  -3178578.57924      1372.91424        24.50024
G01  24744634.44624    164984.93924     -3834.13924        29.40024  24744451.87223  -1493074.39423     -2848.74923        20.40023
G30  23796156.16424  -4264530.65924      2735.64824        27.20024  23796397.19725  -3604005.54825      2043.07725        32.50025
R05  20766804.34108 111010861.66708      1172.89908        51.90008
C34  25635498.01407    -24179.04007     -2497.96007        45.50007  25635513.60307  -2932680.38807     -1882.51407        41.80007
E33  24407397.31007  -1008337.72207     -1720.64207        44.00007  24407401.50806   2113323.87606     -1285.50006        36.60006
R14  20735374.39906 110531602.30906     -1938.59606        41.00006
R04  20718857.93306 110948935.07906     -1016.88106        41.10006
E29  23918286.21506    -11533.45806      -712.10706        38.30006  23918294.01025   2073776.89225      -531.23425        34.80025
E19  24386300.61526   -195040.90026       748.43526        38.50026  24386317.10425  -1644854.37125       558.53625        31.40025
R15  20109935.38126 107461787.78226      2125.50726        37.90026
E27  26100825.37525  -3025271.63925      1265.56725        33.60025  26100807.38726  -1593100.48826       945.29126        37.60026
C22  24138506.56025  -2222351.35425     -2028.57725        32.00025  24138450.79823  -1388670.50523     -1534.44623        20.10023
E12  26167011.75525  -4181268.35325      1039.60525        32.60025  26167014.75315  -2966437.08815       778.58815        31.10015
C21  22316094.58925   -105004.64625       -32.02925        32.60025  22316104.78224    -86687.99524       -22.61324        27.20024
C26  23070650.92125   -233232.01425      2226.71725        32.10025  23070531.00423   -183285.80323      1673.38423        20.30023
E21  27312837.71625  -4186884.17725      2432.47125        31.30025  27312845.81024  -3154832.49724      1816.18224        29.40024
E26  26366189.06725  -4833196.66425     -3331.47625        32.40025  26366058.95724  -1036701.15524     -2476.12624        27.00024
C13  40425330.82625    -61944.82825     -1225.67125        30.90025                                                                
C09  38072043.07326    -81578.90026      -844.10326        38.90026                                                                
C36  25644595.51625  -2093981.82725     -3032.71725        30.70025  25644803.87224  -3661875.13524     -2284.59924        23.60024
R19  23271005.81824 124484579.31624     -4111.47024        29.10024
R16  23435012.97824 125186022.08324      4164.95524        26.90024
R03  23683186.87124 126778344.96724     -2524.18824        27.50024
C16  40022469.12124   -357293.18124     -1142.86024        28.20024                                                                
E30  27427194.14924    -82984.67924      -837.83924        26.20024                                                                
C14  26175542.94923   -433896.54923      2104.26623        20.90023                                                                
E10  28137417.17123   -634821.65823      1941.91123        19.10023  28137294.55624  -3038009.66724      1426.88824        25.40024
E07  26653343.47425  -1528092.21125     -1967.18325        31.00025  26653361.16224    -39913.10424     -1460.40324        25.70024
> 2025 10 05 09 16 21.0000085  0 34                      
G07  21581055.64607  -1114204.74107      1389.38207        46.30007                                                                
G09  20715926.86227    -69528.70827       368.38027        41.50027  20715922.66506   -233552.57906       275.03806        39.50006
G03  21426860.39326    101483.93226     -2602.22426        36.20026  21426699.10514     68099.57014     -1946.40414        26.10014
G16  22673076.95526    -47253.66926       -56.61326        39.60026                                                                
G11  24556463.41425   -207000.85625      1850.62825        32.30025  24556453.82124  -3179954.38624      1375.54424        24.50024
G01  24745332.36324    168819.65824     -3833.50724        29.20024  24745145.29223  -1490226.13823     -2843.49123        20.10023
G30  23795633.92524  -4267266.34724      2736.11124        27.10024  23795846.17825  -3606055.76725      2054.05725        32.20025
G04  21475337.73326  -1319827.21126     -1490.29926        37.80026  21475332.03706     15919.32906     -1112.55906        37.10006
G06  22484443.94325    -42011.98025      -326.81225        32.90025  22484432.55124  -1216085.27324      -238.52524        26.30024
C34  25635949.50107    -21681.43007     -2496.31107        45.50007  25635967.78907  -2930798.16507     -1881.23807        41.50007
E33  24407701.00007  -1006616.79407     -1719.94207        43.90007  24407703.39906   2114608.90906     -1284.05406        36.30006
R05  20766558.81018 111009680.72118      1176.49718        50.70018
R14  20735705.96906 110533502.22706     -1936.54406        41.00006
R04  20719030.91306 110949993.20706     -1014.15406        41.00006
E29  23918403.43406    -10823.47106      -707.24006        38.60006  23918403.43425   2074307.13425      -528.91625        34.80025
E19  24386125.83626   -195791.06126       752.23626        38.40026  24386153.41725  -1645412.72125       559.11925        30.90025
R15  20109500.38326 107459595.69026      2127.66526        37.80026
E27  26100548.06725  -3026544.29825      1276.15325        33.60025  26100539.37326  -1594049.68026       951.70926        37.30026
E12  26166783.91225  -4182308.53025      1041.32825        32.60025  26166792.00715  -2967213.76015       777.89815        31.50015
C22  24138865.71125  -2220321.70125     -2029.03325        32.50025  24138817.74423  -1387149.63323     -1513.71923        20.00023
C26  23070169.15425   -235456.73225      2224.85625        32.00025  23070079.21623   -184962.04923      1678.23023        20.00023
E07  26653705.02425  -1526127.84425     -1962.64625        31.50025  26653711.61924    -38466.04324     -1439.74424        25.40024
C21  22316081.09925   -104979.02125       -20.86725        32.40025  22316093.99024    -86665.72024       -21.56024        26.90024
E26  26366801.54325  -4829866.19125     -3329.32325        32.10025  26366666.33724  -1034226.10324     -2472.30924        26.50024
C09  38072193.86926    -80735.15426      -842.56226        37.50026                                                                
E21  27312508.84425  -5211736.50025      2440.07725        30.70025  27312350.85324  -3156651.18424      1820.58824        28.50024
C36  25645191.80325  -2090952.52825     -3027.66725        30.40025  25645361.48624  -3659589.59124     -2282.92224        23.80024
R19  23271794.87224 124488933.65924     -4108.41824        29.00024
R03  23683653.64824 126780975.95224     -2518.01824        27.50024
R16  23434333.94824 125182529.11024      4167.59924        26.90024
C16  40022623.21424   -356151.11424     -1140.95024        27.80024                                                                
E30  27427341.94624    -82146.37924      -837.10924        25.90024                                                                
C14  26175142.12623   -435999.78123      2104.19523        20.90023                                                                
E10  28137054.72223   -636768.05623      1951.25323        19.00023  28136906.92524  -3039436.33224      1427.56824        25.20024
> 2025 10 05 09 16 22.0000087  0 35                      
G07  21580797.82507  -1115592.49907      1387.46907        46.70007                                                                
G09  20715853.71316    -69894.31316       365.14116        41.30016  20715858.80906   -233825.40706       272.43006        39.30006
G03  21427356.85026    104092.52926     -2610.24326        35.70026  21427196.46124     70038.36324     -1934.68724        25.60024
G16  22673087.74826    -47194.40426       -60.43026        38.70026                                                                
G11  24556144.43525   -208842.46325      1838.66625        32.20025  24556109.35924  -3181319.62724      1359.95824        24.30024
G04  21475616.84026  -1318333.99026     -1493.79026        36.50026  21475621.63726     17034.00026     -1115.16526        36.90026
G30  23795076.31124  -4270002.57124      2736.49124        27.10024  23795332.03425  -3608101.96925      2044.19325        32.00025
G06  22484515.89415    -41683.73515      -328.51515        32.80015  22484512.59624  -1215841.56824      -246.13924        26.10024
R05  20766347.75708 111008526.54608      1173.57908        49.70008
C34  25636441.16107    -19183.71107     -2497.77307        45.40007  25636452.55306  -2928915.97506     -1882.17406        40.80006
E33  24408025.67507  -1004895.24307     -1721.86307        44.00007  24408037.66706   2115894.41006     -1285.73606        36.20006
R14  20736068.71806 110535409.01306     -1939.43906        41.30006
R04  20719225.47906 110951009.19506     -1016.40206        40.90006
E29  23918531.44506    -10112.44906      -711.78806        38.90006  23918543.73715   2074837.98315      -531.15315        34.60015
E12  26166595.94326  -4183348.27026      1039.52226        35.70026  26166599.84025  -2967990.20325       776.32825        31.40025
E19  24385999.32416   -196538.61316       746.24816        38.20016  24386021.50925  -1645957.57025       538.09725        30.30025
R15  20109152.92326 107457711.73326      2121.59826        37.60026
E27  26100310.03125  -3027811.62425      1265.40925        33.50025  26100303.43616  -1594997.08816       946.51616        37.00016
C22  24139224.86225  -2218289.57025     -2033.36925        32.50025  24139208.67423  -1385623.46223     -1528.81923        19.90023
C21  22316091.89125   -104946.28325       -36.29525        32.40025  22316106.58124    -86638.85424       -29.16124        26.60024
E07  26654079.16525  -1524161.81825     -1966.85525        31.90025  26654089.65824    -37012.83924     -1456.27524        25.00024
C26  23069769.53125   -237680.13825      2222.74925        32.00025  23069694.88323   -186634.50123      1670.55523        19.80023
C09  38072368.04826    -79889.58926      -846.47526        36.40026                                                                
R19  23272555.14524 124492973.42524     -4110.92224        28.90024
E21  27312034.27225  -5214177.38225      2440.88225        30.30025  27311900.56524  -3158465.15524      1811.61124        28.30024
R03  23684168.69124 126783705.74424     -2521.18224        27.50024
C36  25645784.19325  -2087927.18325     -3023.36725        30.00025  25645717.33924  -3657303.49824     -2286.36824        24.40024
C16  40022845.66124   -355005.08324     -1148.01324        27.50024                                                                
R16  23433521.81024 125178162.51224      4164.82224        27.00024
C13  40425862.65824    -59503.41124     -1223.81224        27.40024                                                                
E30  27427535.31224    -81308.36524      -837.87224        25.60024                                                                
C14  26174749.39823   -438100.15323      2098.94323        21.20023                                                                
E10  28136683.57923   -638717.27123      1950.62223        18.90023  28136543.87624  -3040865.24624      1430.03824        24.90024
E26  26367423.01325  -4826538.52125     -3326.26825        31.90025  26367310.59124  -1031747.64824     -2480.15524        26.00024
G01                                                                  24745879.78423  -1487371.59823     -2857.68123        19.90023
> 2025 10 05 09 16 23.0000090  0 35                      
G07  21580548.99707  -1116976.95807      1382.80807        46.80007                                                                
G06  22484597.73705    -41352.34605      -332.96005        34.80005  22484595.93824  -1215592.62724      -251.55824        26.00024
G09  20715796.75206    -70256.56106       360.57006        41.20006  20715806.64506   -234095.96806       269.42706        39.20006
G03  21427882.98515    106704.13515     -2613.11015        35.40015  21427713.30324     71986.30124     -1952.51124        25.10024
G16  22673115.32926    -47132.65026       -62.99826        37.70026                                                                
G11  24555841.04525   -210679.07825      1834.11925        32.10025  24555781.68624  -3182679.27624      1356.85224        24.20024
G30  23794564.86624  -4272729.51524      2722.30224        27.00024  23794828.38325  -3610144.32925      2040.43825        31.70025
G04  21475947.81125  -1316839.79925     -1494.67525        35.40025  21475924.72726     18147.69426     -1113.20726        36.60026
G01  24746877.49324  -5380263.11324     -3844.60024        27.70024  24746626.86723  -1484510.74223     -2864.01423        19.70023
R05  20766145.39708 111007356.30308      1168.85208        49.20008
E33  24408370.73707  -1003170.73607     -1725.98407        44.10007  24408380.33006   2117182.24606     -1289.00306        36.00006
C34  25636942.41407    -16683.48407     -2501.48107        45.30007  25636949.60906  -2927031.63006     -1885.42106        40.60006
R14  20736452.75207 110537368.42107     -1944.78407        41.50007
R04  20719411.95006 110951919.44306     -1021.23806        40.90006
E29  23918687.93706     -9398.52306      -715.37806        39.30006  23918695.73205   2075371.13505      -534.30205        34.30005
E12  26166404.67526  -4184383.98226      1033.69826        38.60026  26166417.26625  -2968763.55125       771.80125        31.00025
E19  24385879.10726   -197280.14526       738.52226        38.00026  24385896.79525  -1646501.28125       543.14325        29.70025
R15  20108752.10126 107455482.17326      2121.02326        37.40026
E27  26100088.78525  -3029075.70825      1262.21325        33.40025  26100077.39225  -1595938.17825       937.93125        35.20025
E07  26654464.09825  -1522193.06725     -1970.11325        32.10025  26654483.58524    -35560.16524     -1452.40824        24.70024
C22  24139634.67925  -2216255.49525     -2035.04725        32.40025  24139618.19023  -1384089.86023     -1537.31723        20.20023
C26  23069370.20725   -239902.36325      2221.63425        32.00025  23069397.18923   -188302.72023      1666.10323        22.80023
C21  22316119.17225   -104908.47925       -40.33725        32.30025  22316129.06524    -86607.77124       -33.19324        26.30024
E26  26368092.74925  -4823209.24025     -3330.08625        31.70025  26367963.53924  -1029258.14624     -2495.02624        25.60024
C09  38072545.52525    -79042.98525      -847.12425        35.40025                                                                
C16  40023078.29924   -353855.66824     -1151.10724        28.20024                                                                
C36  25646366.09025  -2084898.13325     -3030.90225        29.70025  25646550.76224  -3655014.85124     -2289.92324        24.50024
R19  23273227.28024 124496480.47224     -4121.07324        28.80024
R03  23684764.07924 126786804.71324     -2527.95124        27.90024
R16  23432758.83924 125173999.99124      4163.83624        27.50024
C13  40426161.85124    -58281.43324     -1221.97824        27.20024                                                                
E30  27427678.91324    -80460.63824      -852.58324        25.30024                                                                
C14  26174338.08323   -440197.55223      2095.91223        21.40023                                                                
E10  28136339.41823   -640663.93223      1945.38523        18.70023  28136200.31424  -3042288.80524      1420.88224        24.50024
E21                                                                  27311449.67724  -3160278.16524      1812.52924        27.40024
> 2025 10 05 09 16 24.0000091  0 35                      
G07  21580254.00107  -1118363.05707      1386.92007        46.80007                                                                
G09  20715699.62026    -70623.71326       369.60326        41.20026  20715711.31106   -234367.89906       272.61606        38.90006
G06  22484634.31226    -41022.63026      -328.88026        39.80026  22484637.01024  -1215345.48324      -246.24624        26.30024
G03  21428363.55305    109314.04105     -2609.05605        35.10005  21428187.87424     73939.29824     -1955.52624        24.50024
G16  22673126.12116    -47073.72216       -57.51616        37.00016                                                                
G11  24555496.88325   -212519.13125      1841.77225        31.90025  24555414.14124  -3184048.65924      1374.25024        24.10024
G04  21476203.53425  -1315348.09225     -1490.46425        34.50025  21476183.14825     19264.33925     -1118.11925        34.80025
G01  24747557.42224  -5376421.33624     -3841.77624        27.70024  24747524.14623  -1481644.88023     -2868.36423        21.60023
G30  23794007.85124  -4275455.30824      2725.21824        26.90024  23794036.33125  -3612187.28925      2043.26025        29.90025
R05  20765897.76808 111006166.18008      1173.78808        48.90008
E33  24408677.72407  -1001447.51907     -1722.57307        44.60007  24408685.21906   2118469.04006     -1286.27206        36.00006
R14  20736786.72107 110539282.07307     -1941.04607        41.70007
C34  25637394.50127    -14185.33327     -2497.11327        44.20027  25637401.39606  -2925148.95406     -1881.84206        39.10006
R04  20719581.93206 110952963.01506     -1016.38006        40.90006
E29  23918792.56406     -8686.50306      -711.06706        39.60006  23918807.25405   2075902.89805      -531.07005        34.10005
E12  26166182.52916  -4185421.75516      1038.80216        38.60016  26166197.51815  -2969538.63315       775.94815        30.30015
E19  24385704.32826   -198024.41226       745.63426        36.80026  24385726.81324  -1647051.78024       553.89224        29.10024
C22  24140045.39415  -2214224.92015     -2028.82415        32.50015  24139985.43623  -1382552.73323     -1538.88923        21.00023
E27  26099855.84615  -3030345.98915      1272.63015        33.30015  26099816.87325  -1596874.16625       933.43725        35.00025
R15  20108360.57226 107453522.52326      2124.95826        36.70026
E07  26654807.66125  -1520226.58125     -1965.35425        32.30025  26654835.24224    -34093.74824     -1473.28824        24.40024
C26  23068928.61325   -242125.18925      2223.12625        32.10025  23068803.89923   -189969.32823      1665.80223        22.10023
E21  27310953.52025  -5481806.45625      2433.41525        29.50025  27310965.51224  -3162090.62224      1812.18024        27.10024
C21  22316107.48025   -104873.83125       -33.06925        32.20025  22316113.47624    -86571.49224       -38.87724        25.90024
E26  26368692.03425  -4819881.26325     -3327.32525        31.60025  26368568.82024  -1026758.32124     -2504.98724        25.20024
C09  38072680.13225    -78199.47125      -841.96925        34.60025                                                                
C16  40023281.85924   -352709.18024     -1145.02524        28.90024                                                                
C13  40426380.69924    -57063.98624     -1215.18124        28.00024                                                                
R03  23685187.98624 126789206.68424     -2524.31024        28.20024
R19  23273956.67524 124500516.40824     -4109.00124        28.70024
C36  25646912.61225  -2081864.06025     -3036.58425        29.50025  25647109.27624  -3652727.07724     -2287.33724        24.50024
R16  23432017.15224 125170169.94524      4165.19724        27.70024
E30  27427801.52824    -79605.66724      -858.59224        25.10024                                                                
C14  26173912.97723   -442295.52523      2098.26023        22.20023                                                                
E10  28135942.19323   -642605.86823      1939.57323        18.50023                                                                
> 2025 10 05 09 16 25.0000093  0 35                      
G07  21580000.67607  -1119747.09707      1382.26007        46.70007                                                                
G09  20715642.95916    -70985.53516       359.15816        41.10016  20715644.45816   -234637.96216       269.12916        38.30016
G03  21428859.40905    111927.32405     -2614.22105        34.90005  21428689.12724     75891.63624     -1952.00724        24.00024
G16  22673143.21026    -47009.68326       -66.59326        36.40026                                                                
G11  24555163.81425   -214359.44525      1840.44525        31.80025  24555063.98324  -3185421.28224      1374.24324        27.90024
G04  21476494.93225  -1313855.85425     -1492.50425        33.80025  21476473.94625     20379.68925     -1114.70325        34.60025
G01  24748227.15924  -5372584.87824     -3833.79924        27.60024  24748250.54324  -1478776.40224     -2869.78524        26.30024
G30  23793486.81224  -4278183.47624      2729.35524        26.80024  23793520.08924  -3614227.66624      2039.08624        28.40024
G06  22484705.06316    -40690.62016      -333.15816        40.00016  22484710.75924  -1215098.40024      -247.05324        27.40024
R05  20765683.71608 111004993.65008      1169.15308        48.60008
E33  24409006.29707   -999721.70907     -1727.10607        45.20007  24409017.98806   2119757.83306     -1289.79306        35.60006
C34  25637881.66417    -11684.60517     -2502.01617        43.80017  25637888.25926  -2923263.22326     -1887.25726        39.00026
R14  20737166.85817 110541281.14617     -1945.23817        41.70017
R04  20719780.39506 110953998.16006     -1021.71306        40.90006
E29  23918941.86106     -7972.43306      -715.09506        39.70006  23918946.65815   2076436.19115      -534.05715        33.80015
E12  26165999.65506  -4186456.63506      1033.43306        39.20006  26166005.05205  -2970311.25605       771.39405        31.50005
C22  24140441.72005  -2212192.28405     -2033.66505        34.20005  24140379.06323  -1381017.72623     -1533.94723        21.00023
E27  26099631.00105  -3031614.42505      1267.76205        33.30005  26099583.93425  -1597823.93125       956.65325        34.60025
C26  23068510.40315   -244346.04915      2219.87615        32.30015  23068379.39323   -191634.68023      1664.72323        21.60023
E07  26655188.69725  -1518254.64425     -1974.66125        32.30025  26655212.68024    -32624.64824     -1470.44124        26.20024
E19  24385562.82616   -198768.51716       744.02416        36.20016  24385586.81024  -1647605.92324       555.96524        28.50024
R15  20108044.29126 107451806.01026      2124.05126        36.00026
E26  26369333.29025  -4816553.62025     -3327.47525        31.60025  26369201.98124  -1024263.90124     -2491.71624        24.70024
C21  22316118.27325   -104840.51725       -32.64625        32.10025  22316130.86424    -86535.32224       -36.11424        25.60024
C09  38072864.20525    -77353.95625      -846.51525        34.10025                                                                
C13  40426606.44325    -55844.12925     -1221.06225        29.70025                                                                
C16  40023483.91924   -351562.83524     -1146.27224        29.30024                                                                
E21  27310471.75425  -5484240.82025      2434.36325        29.50025  27310504.13124  -3163906.27424      1817.25024        26.80024
C36  25647458.23424  -2078832.10124     -3030.90124        29.40024  25647538.87824  -3650462.13924     -2253.52124        23.60024
R03  23685692.53624 126791880.56224     -2526.98124        28.30024
R19  23274723.54424 124504590.61824     -4116.87124        28.60024
R16  23431241.28924 125165999.02224      4164.61824        27.70024
E30  27427982.60324    -78747.11124      -860.35024        24.90024                                                                
C14  26173493.56723   -444396.09223      2101.86423        22.80023                                                                
E10  28135569.55123   -644541.83323      1932.97923        18.40023                                                                
> 2025 10 05 09 16 26.0000095  0 35                      
G07  21579748.25107  -1121131.41207      1384.70207        46.60007                                                                
G09  20715582.70126    -71349.14426       364.50126        41.30026  20715583.00026   -234910.57726       273.89126        38.30026
G06  22484782.10926    -40357.76526      -333.27726        40.00026  22484784.80724  -1214850.68124      -248.03724        29.40024
G03  21429353.76725    114537.95625     -2610.30625        34.70025  21429191.87924     77843.81024     -1952.09124        23.50024
G16  22673148.30626    -46940.41526       -71.88326        35.80026                                                                
G11  24554786.37525   -216194.44125      1832.33625        31.60025  24554722.81924  -3186794.80724      1373.97524        27.90024
G04  21476809.11425  -1312361.32225     -1495.68025        33.20025  21476765.34525     21498.12425     -1119.97625        34.40025
G01  24748955.35524  -5368751.14224     -3832.37324        27.70024  24748992.82924  -1475911.82624     -2862.62524        25.80024
G30  23792981.36224  -4280918.36024      2738.24224        26.70024  23793004.14624  -3616270.13824      2043.51824        27.00024
R05  20765467.86608 111003812.70308      1171.90608        48.40008
E33  24409353.75627   -997996.87427     -1724.34727        45.10027  24409352.25726   2121048.32326     -1291.33826        35.50026
R14  20737588.96617 110543502.92917     -1943.94517        41.60017
C34  25638355.33617     -9184.93117     -2499.14617        43.40017  25638376.62126  -2921373.66926     -1891.46626        38.70026
R04  20720000.74226 110955150.52826     -1018.48326        40.90026
E29  23919080.66516     -7259.72716      -712.02416        39.70016  23919088.46005   2076968.35505      -531.59905        33.70005
E12  26165809.88716  -4187491.28816      1035.29016        39.20016  26165812.88525  -2971084.30425       773.26025        31.20025
C22  24140830.85125  -2210161.90425     -2029.25225        34.30025  24140775.68923  -1379488.04323     -1527.02023        20.90023
E27  26099350.69525  -3032885.18225      1271.91825        33.30025  26099348.89725  -1598771.22525       946.05925        34.20025
E07  26655574.53025  -1516286.26225     -1965.85525        32.30025  26655586.22224    -31152.92624     -1473.03424        25.70024
C26  23068079.60125   -246568.05625      2222.58025        32.30025  23068100.88623   -193299.62923      1664.74823        22.20023
E26  26369970.94925  -4813224.48425     -3329.88125        31.70025  26369843.23724  -1021774.79424     -2486.45024        24.30024
C09  38073030.58925    -76507.64025      -846.71725        33.70025                                                                
C13  40426838.78225    -54624.55025     -1219.44025        31.00025                                                                
E19  24385431.81726   -199515.11826       747.84826        35.50026  24385446.50724  -1648159.72524       553.63124        27.90024
R15  20107588.30625 107449340.96125      2120.56125        35.30025
C16  40023719.85524   -350417.08324     -1145.45624        29.30024                                                                
R03  23686196.18824 126794549.84524     -2528.03524        28.40024
C36  25648056.62024  -2075796.85524     -3036.88924        29.20024                                                                
R19  23275558.46624 124509029.92024     -4120.50624        28.50024
R16  23430491.20824 125161964.13424      4157.94424        27.70024
E30  27428141.19324    -77888.97824      -857.92024        24.70024                                                                
C14  26173135.31524   -446494.15224      2096.80524        23.50024                                                                
E10  28135207.40123   -646464.93323      1916.66823        18.20023                                                                
C21  22316122.17025   -104803.70625       -38.56125        32.00025  22316140.45724    -86506.74924       -24.77524        25.30024
E21                                                                  27310046.64824  -3165721.85224      1815.54024        26.50024
> 2025 10 05 09 16 27.0000097  0 34                      
G07  21579488.03107  -1122511.12807      1377.41607        46.70007                                                                
G09  20715522.74226    -71707.57626       355.84426        41.30026  20715520.04426   -235178.86926       266.13126        38.30026
G06  22484849.56326    -40022.84426      -335.95326        39.90026  22484859.75515  -1214599.27715      -253.24615        31.20015
G03  21429845.12725    117156.33925     -2622.00725        34.60025  21429693.13223     79797.95923     -1955.13723        23.00023
G11  24554425.12525   -218028.68525      1833.86825        31.40025  24554368.46424  -3188167.70324      1372.58224        27.70024
G04  21477097.51525  -1310862.42125     -1501.08425        32.70025  21477056.74325     22618.38625     -1121.17625        34.10025
G01  24749721.62424  -5364916.47424     -3835.13324        27.70024  24749723.12324  -1473048.88124     -2862.12824        25.20024
G30  23792459.72324  -4283653.04224      2734.58024        26.60024  23792489.10324  -3618309.95024      2038.48224        25.80024
G16  22673190.57725    -46876.24725       -61.61825        35.30025                                                                
R05  20765258.01108 111002666.18008      1165.18608        48.10008
C34  25638855.39027     -6681.08727     -2505.93027        42.90027  25638863.18426  -2919481.73326     -1893.12726        38.40026
E29  23919209.57606     -6543.02706      -718.69806        39.70006  23919229.96205   2077503.93405      -537.28705        33.70005
E12  26165609.62506  -4188522.25406      1028.87306        39.10006  26165618.61925  -2971854.67125       769.02625        30.90025
C22  24141233.47225  -2208126.60225     -2037.76325        34.50025  24141167.51723  -1377955.44723     -1534.05323        23.30023
R04  20720198.90526 110956185.67926     -1023.83226        40.10026
E27  26099133.64625  -3034155.63125      1270.29425        33.20025  26099115.35825  -1599713.58125       939.88725        33.80025
R14  20737939.42306 110545346.41406     -1950.84206        41.40006
C13  40427086.41025    -53401.20125     -1225.23325        31.90025                                                                
E07  26655963.06125  -1514312.31325     -1976.98225        32.20025  26655871.92424    -29684.66824     -1466.52524        24.70024
C26  23067676.08025   -248783.87625      2212.72725        32.20025  23067681.47623   -194961.82123      1660.81323        22.20023
E19  24385288.21625   -200256.07125       738.12925        34.90025  24385311.90024  -1648711.14924       550.23624        27.30024
C09  38073188.58025    -75660.19025      -848.01725        33.40025                                                                
C21  22316132.06325   -104764.54325       -40.33725        31.90025  22316149.15124    -86472.69924       -36.78824        24.90024
R15  20107268.72825 107447608.39525      2111.10925        34.60025
E33  24409679.63027   -996267.08327     -1732.26827        43.90027  24409686.52625   2122341.62725     -1294.71025        34.60025
C16  40023942.00224   -349268.21124     -1150.43224        29.20024                                                                
C36  25648663.40024  -2072762.70424     -3033.60424        29.10024                                                                
R03  23686660.86624 126797011.56024     -2530.74224        28.40024
R19  23276331.93124 124513140.86924     -4116.28824        28.40024
E30  27428304.58024    -77027.36424      -863.35424        24.60024                                                                
C14  26172746.78424   -448590.34324      2095.25624        23.50024                                                                
E10  28134842.85423   -648372.41523      1899.67123        18.10023                                                                
E26  26370550.74825  -4809892.33025     -3333.66225        31.70025  26370478.19824  -1019286.43924     -2487.97824        23.80024
E21                                                                  27309590.66424  -3167534.39924      1811.03224        26.50024
> 2025 10 05 09 16 28.0000099  0 35                      
G07  21579231.70907  -1123884.93407      1370.85107        47.00007                                                                
G09  20715451.39126    -72061.24026       351.28126        41.20026  20715457.98726   -235441.69426       260.09126        37.90026
G03  21430377.55825    119777.60625     -2622.70925        34.50025  21430198.58223     81757.06623     -1961.58523        22.50023
G16  22673186.38015    -46804.30815       -75.82515        34.90015                                                                
G11  24554143.02125   -219853.89425      1820.69025        31.30025  24554025.80224  -3189532.62724      1360.93724        27.20024
G04  21477397.00725  -1309357.57625     -1507.81725        32.20025  21477347.84125     23745.13625     -1129.99425        33.80025
G01  24750470.50624  -5361072.29924     -3848.92824        27.60024  24750461.51224  -1470186.69024     -2861.81524        24.70024
G30  23791934.18724  -4286377.86224      2719.88924        26.50024  23791845.44824  -3620338.29324      2022.60824        24.80024
G06  22484913.11926    -39681.51726      -344.53026        39.70026  22484902.62605  -1214342.97405      -258.75305        30.60005
R05  20765051.75408 111001534.95308      1159.20408        47.80008
E29  23919361.57116     -5820.80916      -724.97616        39.70016  23919372.96305   2078043.81905      -542.03805        33.80005
E12  26165412.06206  -4189547.68206      1022.65806        39.00006  26165431.54925  -2972617.69825       759.35725        30.50025
C22  24141625.00125  -2206086.00925     -2043.23825        34.50025  24141570.13923  -1376414.20123     -1545.57023        23.00023
E27  26098932.48525  -3035415.30225      1254.28125        33.20025  26098880.92125  -1600654.16425       939.69525        33.30025
R04  20720427.04716 110957380.19416     -1032.01116        38.90016
C13  40427334.93825    -52172.75425     -1230.99625        32.10025                                                                
C26  23067235.38525   -250992.44925      2204.94825        32.20025  23067123.56323   -196621.19223      1657.96023        21.60023
E19  24385158.10625   -200991.35225       732.44425        34.40025  24385176.09424  -1649254.48824       539.29624        26.80024
E07  26656362.98425  -1512332.47425     -1982.78325        32.10025  26656356.08924    -28204.17824     -1486.60724        25.40024
C09  38073368.45525    -74805.81725      -857.83325        33.10025                                                                
R14  20738323.15826 110547364.56126     -1961.58326        39.70026
C21  22316158.44525   -104723.18625       -42.45525        31.70025  22316162.34224    -86431.91224       -44.15524        24.60024
E33  24410025.89127   -994532.80327     -1736.52527        42.00027  24410017.79625   2123637.27025     -1296.81325        33.70025
R15  20106780.66525 107444973.61625      2102.91025        34.00025
C34  25639362.33927     -4169.52627     -2515.41727        41.60027  25639351.24626  -2917579.94126     -1906.72026        38.00026
R03  23687151.92624 126799613.44024     -2536.97224        28.60024
C36  25649284.87024  -2069723.69324     -3041.43924        29.00024                                                                
C16  40024148.85824   -348110.24924     -1162.50724        29.10024                                                                
R19  23277078.11424 124517106.39424     -4125.22124        28.30024
R16  23428915.79924 125153495.41124      4150.39924        27.60024
C14  26172313.88424   -450682.03924      2089.44924        23.60024                                                                
E30  27428491.65024    -76158.31324      -872.77024        24.40024                                                                
E10  28134478.60623   -650263.97623      1883.60123        18.00023                                                                
E26  26371120.95325  -4806554.42925     -3340.77425        31.60025  26371120.05323  -1016796.77723     -2490.31523        23.40023
E21                                                                  27309134.38025  -3169343.88425      1807.95325        30.70025
> 2025 10 05 09 16 29.0000101  0 35                      
G07  21578958.29807  -1125254.72607      1367.78407        47.00007                                                                
G09  20715373.74526    -72409.00326       344.81126        41.20026  20715377.34326   -235701.91426       258.91626        37.60026
G03  21430853.92915    122403.51015     -2628.22215        34.50015  21430689.64223     83717.90323     -1961.70223        22.10023
G16  22673197.47225    -46725.54425       -82.17625        34.60025                                                                
G11  24553819.54425   -221674.27025      1817.95925        31.00025  24553675.34424  -3190876.51424      1333.36924        26.70024
G04  21477648.23425  -1307849.86725     -1509.14025        31.80025  21477624.55025     24878.25125     -1136.29725        33.40025
G01  24751195.70424  -5357218.05124     -3859.28324        27.50024  24751179.81524  -1467315.59324     -2875.54824        24.30024
G30  23791431.13524  -4289098.27124      2718.20324        26.50024  23791316.31424  -3622366.08224      2027.51224        23.90024
G06  22484951.19216    -39333.62516      -351.17516        39.60016  22484987.76706  -1214083.82606      -260.57106        37.30006
R05  20764816.11708 111000347.12208      1155.38008        47.60008
E29  23919488.68306     -5094.28306      -728.68106        39.70006  23919498.27605   2078586.32905      -543.82205        34.20005
E12  26165211.50106  -4190568.71606      1018.83706        38.90006  26165221.39425  -2973379.62525       761.37825        32.10025
C22  24142007.53615  -2204040.65515     -2047.73415        35.20015  24141951.77523  -1374870.15423     -1545.44723        22.80023
R03  23687622.00125 126802199.99925     -2538.30325        29.80025
R04  20720598.82806 110958370.12906     -1033.51506        38.10006
E19  24384997.71725   -201721.54025       727.64325        34.10025  24384989.32324  -1649793.12024       536.27824        26.50024
E27  26098653.07825  -3036669.52325      1251.49625        33.00025                                                                
C26  23066805.78325   -253199.01025      2205.55525        32.20025  23066683.46723   -198275.95723      1652.46223        21.10023
C13  40427546.29225    -50938.68325     -1236.88225        32.10025                                                                
R14  20738672.71626 110549298.03726     -1960.50826        38.40026
C09  38073509.65825    -73945.32625      -863.55125        32.80025                                                                
E07  26656706.54625  -1510351.41425     -1981.67025        32.00025  26656620.80524    -26725.75624     -1477.38724        26.70024
E26  26371799.08325  -4803206.37625     -3353.12925        31.50025  26371743.32223  -1014302.34023     -2496.82523        23.00023
C21  22316143.15625   -104673.19025       -54.31525        31.60025  22316159.64424    -86387.52224       -46.19224        24.20024
C34  25639824.01926     -1657.72226     -2511.92626        40.00026  25639818.92326  -2915672.24726     -1910.64426        37.50026
R15  20106396.93125 107442992.55025      2098.88725        33.50025
C36  25649839.18624  -2066679.02624     -3047.49524        28.90024                                                                
E33  24410358.66026   -992791.02026     -1745.53426        39.80026  24410339.17425   2124934.90925     -1298.63625        33.70025
C16  40024383.59624   -346952.65424     -1157.41124        29.00024                                                                
R19  23277849.78024 124521304.59124     -4131.81024        28.30024
R16  23428081.17724 125149107.40924      4150.47724        27.60024
C14  26171916.95924   -452772.31724      2089.56724        23.80024                                                                
E30  27428634.35224    -75282.27224      -879.53624        24.30024                                                                
E10  28134154.23023   -652142.32123      1871.73623        17.90023                                                                
E21                                                                  27308661.30725  -3171151.49725      1806.67625        30.20025
> 2025 10 05 09 16 30.0000103  0 34                      
G07  21578700.47707  -1126626.04507      1372.08307        47.00007                                                                
G06  22485036.93326    -38988.65626      -343.50726        39.40026  22485012.65006  -1213825.49806      -257.91806        35.80006
G03  21431330.59925    125031.01125     -2628.29925        34.50025  21431190.59523     85676.41623     -1957.35023        21.60023
G16  22673195.07415    -46651.43115       -71.78815        34.30015                                                                
G04  21477933.03625  -1306344.29725     -1504.50125        31.40025  21477916.54825     26011.33525     -1133.06925        31.90025
G01  24751878.33124  -5353371.63024     -3842.50724        27.50024  24751916.10524  -1464446.64624     -2867.87224        23.80024
G30  23790906.49824  -4291822.83724      2726.64524        26.50024                                                                
G09  20715314.38616    -72761.16416       354.36016        41.10016  20715316.48516   -235963.98416       262.99616        37.60016
R05  20764600.86627 110999169.99727      1161.42527        47.30027
E29  23919632.88306     -4369.81706      -723.43506        39.70006  23919640.37806   2079127.19606      -540.04606        35.90006
E12  26165023.53106  -4191591.37806      1023.47606        38.90006  26165032.82525  -2974143.62325       765.03225        31.60025
C22  24142410.15726  -2201995.24426     -2045.43826        36.00026  24142350.79823  -1373327.71823     -1541.63023        23.40023
R04  20720770.90926 110959267.35226     -1033.04526        37.40026
C26  23066379.17825   -255409.02325      2211.73825        32.80025  23066255.96323   -199939.26923      1667.58623        20.70023
R14  20739054.35126 110551307.02026     -1958.16426        37.50026
E19  24384840.02725   -202456.39625       736.43925        33.80025  24384848.12124  -1650334.93624       543.40724        26.40024
C13  40427754.04825    -49708.01125     -1228.97225        32.20025                                                                
R03  23688152.03425 126805010.97925     -2535.24725        33.00025
E07  26657069.29525  -1508372.47025     -1977.88525        31.90025  26657001.54225    -25245.83025     -1480.67825        33.40025
C09  38073673.94425    -73089.51025      -853.47725        32.60025                                                                
E26  26372419.05425  -4799866.43725     -3335.88125        31.50025  26372383.07923  -1011812.40223     -2487.68723        22.60023
C21  22316159.04525   -104625.86925       -45.98425        31.40025  22316171.93624    -86351.25024       -32.21224        24.00024
R15  20105997.00825 107440830.27125      2109.70025        33.00025
C34  25640330.36926       850.48526     -2506.40826        38.50026  25640307.28526  -2913767.14626     -1903.80426        36.90026
E33  24410683.03626   -991049.78026     -1740.96926        38.10026  24410678.83925   2126235.99525     -1302.81025        33.50025
R19  23278620.24724 124525399.46424     -4117.43524        28.30024
C36  25650373.11624  -2063635.78424     -3042.52924        28.80024                                                                
R16  23427300.81724 125144914.31124      4148.06124        27.60024
C16  40024614.73624   -345799.34724     -1151.16224        28.80024                                                                
C14  26171519.13424   -454864.20124      2092.68724        23.80024                                                                
E30  27428822.62124    -74407.16324      -874.64324        24.20024                                                                
E10  28133797.77723   -654017.65623      1873.83123        17.80023                                                                
G11                                                                  24553342.27524  -3192232.25424      1361.66724        26.20024
E21                                                                  27308205.02325  -3172960.56925      1809.80225        29.70025
> 2025 10 05 09 16 31.0000105  0 32                      
G07  21578446.25307  -1128000.71507      1376.34507        47.00007                                                                
G09  20715251.43006    -73115.24606       355.04306        41.00006  20715253.82806   -236228.59206       265.87706        37.40006
G03  21431836.94825    127653.34425     -2619.74825        34.50025  21431693.64713     87633.87113     -1956.92513        21.20013
G16  22673228.05125    -46579.35925       -71.05125        34.00025                                                                
G06  22485110.98226    -38646.13226      -341.30126        39.10026  22485123.87315  -1213569.58915      -254.69915        35.00015
G11  24553050.57725   -225330.48425      1831.91925        29.90025                                                                
G01  24752618.21924  -5349529.14024     -3840.52424        27.40024  24752657.19223  -1461592.69223     -2846.45623        23.40023
G30  23790398.05024  -4294554.32524      2734.94724        26.90024                                                                
G04  21478207.64625  -1304843.05525     -1499.07825        31.10025  21478204.34925     27139.12225     -1125.13825        31.60025
R05  20764394.00917 110998038.00017      1165.30017        47.00017
E29  23919769.58806     -3649.15106      -718.76606        39.80006  23919783.37906   2079665.43106      -536.91906        35.70006
E12  26164836.16106  -4192617.23806      1027.45906        38.90006  26164842.45625  -2974910.56725       768.41825        31.30025
C22  24142791.49326  -2199953.69026     -2039.62726        36.00026  24142753.71923  -1371789.37623     -1536.29523        23.40023
C26  23065917.49825   -257622.62825      2215.40025        33.10025  23065834.45523   -201607.51923      1670.71823        20.40023
R04  20721001.14926 110960471.82526     -1028.94026        36.70026
R14  20739414.40216 110553199.31016     -1952.40816        36.80016
E19  24384692.52925   -203196.55425       743.05825        33.60025  24384712.31524  -1650885.93124       555.58524        25.70024
C13  40427968.10025    -48480.02925     -1226.63725        32.20025                                                                
C09  38073849.02325    -72237.09025      -850.72125        32.40025                                                                
C21  22316162.94225   -104584.10225       -38.99025        31.40025  22316187.82524    -86319.68324       -29.21424        23.70024
E07  26657404.76325  -1506399.52825     -1969.94125        31.80025  26657382.87815    -23770.59115     -1472.89515        32.30015
E26  26373024.63525  -4796528.23325     -3337.33525        31.40025  26373030.93123  -1009322.68123     -2489.61223        22.20023
R15  20105585.69325 107438604.54325      2113.57825        32.60025
C34  25640815.13326      3352.48026     -2498.88826        37.10026                                                                
E33  24411052.68026   -989318.75126     -1725.92326        36.60026  24411010.40925   2127525.88025     -1284.28425        33.30025
R19  23279378.72124 124529430.04424     -4122.31824        28.40024
R16  23426522.55624 125140728.85624      4156.85224        27.80024
C16  40024853.97024   -344649.01424     -1148.84624        28.60024                                                                
C14  26171115.01424   -456963.10524      2102.41424        23.80024                                                                
E30  27429018.38624    -73541.28024      -861.27024        24.10024                                                                
E10  28133457.21323   -655894.07723      1876.96323        17.80023                                                                
E21                                                                  27307748.13924  -3174772.39624      1813.20424        29.20024
> 2025 10 05 09 16 32.0000107  0 32                      
G07  21578188.43107  -1129371.20707      1368.40307        46.90007                                                                
G09  20715195.06916    -73465.85416       348.87016        40.90016  20715192.07126   -236487.14926       255.53026        36.70026
G06  22485184.43126    -38296.94326      -352.52226        38.40026  22485146.65725  -1213310.09125      -261.29325        33.60025
G03  21432363.68325    130277.15425     -2624.54925        34.40025  21432236.57114     89594.63114     -1962.41314        24.40014
G16  22673242.74125    -46505.17325       -75.24325        33.80025                                                                
G11  24552676.43625   -227159.74325      1829.25925        29.90025                                                                
G04  21478490.95025  -1303337.92025     -1507.08025        30.90025  21478495.44725     28265.36625     -1125.47325        30.40025
G01  24753361.70424  -5345686.23224     -3843.11724        27.40024  24753382.09023  -1458740.78123     -2850.88923        23.10023
G30  23789898.59624  -4297280.85224      2724.04724        27.00024                                                                
R05  20764181.45607 110996873.88507      1158.22607        46.80007
E29  23919918.58506     -2924.54806      -727.32106        39.90006  23919924.88105   2080206.46305      -542.43005        35.30005
E12  26164647.89126  -4193639.26026      1020.10326        38.80026  26164653.88725  -2975673.72025       761.25725        31.20025
E21  27307273.26825  -6261632.84725      2423.48725        33.80025  27307289.45724  -3176583.38924      1810.57524        29.10024
C22  24143147.04726  -2197906.29026     -2050.32126        35.90026  24143152.14424  -1370248.34124     -1542.38224        24.00024
C26  23065427.63725   -259829.73725      2203.86225        33.80025  23065417.74423   -203274.30523      1666.05523        20.20023
R04  20721199.61216 110961506.97016     -1031.17116        36.10016
E19  24384573.51125   -203930.38725       730.67025        33.50025  24384577.10924  -1651434.47924       547.32424        25.30024
R14  20739799.93526 110555226.61126     -1960.31126        36.10026
C06  38609103.27425  -6210856.77325     -1121.02125        31.60025                                                                
C21  22316180.63025   -104538.54925       -47.44625        31.50025  22316200.11623    -86290.06223       -28.64923        23.40023
E07  26657794.19325  -1504419.48125     -1983.59925        31.70025  26657764.51405    -22292.28505     -1479.83905        31.50005
C09  38074020.50425    -71382.19225      -856.13825        32.20025                                                                
C34  25641324.48026      5859.03026     -2508.82726        36.00026                                                                
E33  24411350.67425   -987585.70125     -1734.06025        35.40025  24411344.97825   2128813.13525     -1285.93925        32.90025
R19  23280130.90124 124533426.95124     -4126.79224        28.60024
C16  40025106.09624   -343492.22624     -1160.01524        28.50024                                                                
R16  23425706.52124 125136343.15724      4149.59724        27.80024
E27  26097944.36924  -6308006.23824      1254.49124        26.70024                                                                
C14  26170724.08524   -459061.13824      2097.59824        24.00024                                                                
E30  27429200.06024    -72682.98224      -854.50524        24.00024                                                                
E10  28133113.35123   -657771.61923      1878.10223        17.70023                                                                
E26  26373654.49925  -4793187.79025     -3341.56325        31.30025  26373670.68823  -1006834.08423     -2488.03523        22.00023
> 2025 10 05 09 16 33.0000109  0 35                      
G07  21577932.70807  -1130737.22607      1363.78207        46.80007                                                                
G09  20715124.31816    -73812.77116       345.07216        40.90016  20715129.71426   -236740.24126       250.36026        36.30026
G06  22485261.47716    -37944.61616      -353.89616        37.90016  22485224.00325  -1213046.71725      -265.31125        32.80025
G16  22673266.72425    -46425.12325       -82.98225        33.60025                                                                
G11  24552384.43825   -228980.68425      1816.78125        29.80025                                                                
G04  21478800.03625  -1301826.43125     -1514.66625        30.60025  21478791.34225     29395.19625     -1131.62225        30.10025
G30  23789366.16524  -4299992.57524      2704.31924        27.10024                                                                
G01  24754067.11624  -5341834.74124     -3855.78124        27.30024  24754127.97423  -1455875.33623     -2872.21223        22.80023
G03  21432859.54025    132907.67225     -2633.87025        34.40025  21432742.32124     91557.65924     -1964.16224        27.10024
R05  20763966.20507 110995695.23907      1152.89607        46.60007
E29  23920062.48526     -2195.67126      -730.76426        39.90026  23920069.68005   2080750.60405      -545.69505        35.20005
E12  26164451.52726  -4194656.53826      1014.90626        38.80026  26164463.21925  -2976432.71225       756.91225        31.10025
C26  23064986.34215   -262029.22815      2195.68115        34.70015  23064995.63623   -204935.21223      1657.96723        20.00023
C22  24143597.33526  -2195852.11426     -2057.56426        35.80026  24143551.16714  -1368704.55914     -1545.15514        24.00014
E21  27306806.19125  -6264048.71825      2416.37125        35.20025  27306836.17124  -3178389.73924      1804.02924        28.80024
E19  24384436.20615   -204659.14015       726.96315        33.50015  24384441.30325  -1651980.41425       544.62925        33.60025
R04  20721391.47926 110962507.64126     -1038.93926        35.70026
C21  22316196.21925   -104485.69125       -56.50925        31.80025  22316212.40823    -86250.91923       -43.90423        23.10023
R14  20740177.07426 110557209.67326     -1970.51126        35.50026
E07  26658180.32625  -1502431.76325     -1991.55325        31.60025  26658147.34905    -20810.85205     -1482.99605        30.90005
C09  38074183.89125    -70520.73225      -864.74125        32.00025                                                                
E26  26374323.03625  -4789835.96025     -3357.52325        31.20025  26374311.64423  -1004337.60123     -2500.42623        21.80023
R15  20104881.78025 107434788.46225      2099.35425        30.40025
E27  26097718.32624  -6309257.85924      1251.62024        27.00024  26097734.21524  -4718592.49424       926.31724        28.20024
C34  25641825.43425      8375.64925     -2521.65325        35.10025                                                                
E33  24411705.62825   -985841.62225     -1749.59325        34.40025  24411684.34325   2130112.09125     -1304.80725        32.50025
R19  23280905.26524 124537542.49224     -4135.76624        28.80024
C16  40025315.95024   -342328.17424     -1167.68424        28.40024                                                                
R16  23424918.66624 125132106.49724      4151.03124        27.80024
R03  23689533.77724 126812325.91024     -2552.27324        26.80024
C13  40428461.85824    -46008.72024     -1246.48824        28.40024                                                                
C14  26170303.77624   -461149.37624      2083.34024        24.00024                                                                
E30  27429350.25624    -71820.47024      -864.61924        23.90024                                                                
E10  28132749.10323   -659641.65523      1866.28323        17.70023                                                                
C36                                                                  25652225.83423  -4292042.12123     -2313.63623        19.60023
> 2025 10 05 09 16 34.0000111  0 35                      
G07  21577651.20307  -1132097.50607      1357.41007        46.70007                                                                
G09  20715045.47206    -74153.47006       337.59106        40.80006  20715053.56726   -236993.78626       253.77126        36.70026
G03  21433346.40315    135543.49415     -2638.47415        34.70015  21433228.88424     93519.98124     -1961.96724        26.70024
G04  21479094.73225  -1300312.34225     -1515.38925        30.50025  21479063.55425     30530.81825     -1138.51825        29.80025
G11  24552075.35225   -230798.22425      1815.83925        29.80025                                                                
G30  23788834.93224  -4302702.38624      2708.85524        27.40024                                                                
G01  24754757.23824  -5337980.66524     -3855.36724        27.20024  24754675.39523  -1452996.62523     -2885.34323        23.00023
G06  22485298.65226    -37588.17826      -358.49326        37.40026  22485276.46725  -1212776.70725      -273.32825        32.30025
G16  22673271.82125    -46334.93925       -95.25025        33.50025                                                                
R05  20763736.56407 110994541.06107      1147.07907        46.40007
E29  23920193.49526     -1460.07226      -738.96126        39.90026  23920196.19305   2081298.93005      -550.41805        35.10005
E12  26164248.26826  -4195668.39026      1009.13826        38.70026  26164259.06025  -2977187.35125       752.46225        31.10025
C26  23064548.04616   -264222.28416      2189.83816        35.50016  23064559.13824   -206589.13824      1650.43424        24.40024
C22  24143966.08026  -2193796.30326     -2056.62826        35.70026  24143926.80704  -1367156.80704     -1549.73604        26.70004
E21  27306341.21325  -6266461.93625      2411.64025        35.20025  27306363.99824  -3180192.28424      1800.64224        28.60024
E19  24384301.29905   -205383.61605       722.08705        33.70005  24384290.80725  -1652524.02825       542.45425        32.60025
R04  20721580.94815 110963594.88215     -1042.34615        35.30015
C21  22316195.91925   -104428.03025       -60.06425        32.10025  22316208.81023    -86205.40923       -48.69323        22.90023
R14  20740512.54225 110559069.93125     -1973.23725        34.90025
E07  26658582.04825  -1500438.83825     -1995.52925        31.50025  26658512.19625    -19325.08925     -1487.92825        30.30025
C09  38074336.48525    -69651.52925      -873.07425        31.80025                                                                
R15  20104507.93925 107432863.98125      2093.44225        30.50025
E33  24412027.90525   -984093.76225     -1749.75125        33.70025  24412005.42025   2131418.49025     -1310.12125        32.00025
E26  26374931.91525  -4786478.01525     -3361.00125        31.10025  26374947.20423  -1001839.19623     -2499.36423        21.70023
C34  25642265.22925     10894.66125     -2520.20925        34.20025                                                                
R19  23281688.32324 124541803.45424     -4143.74724        28.90024
C16  40025505.41924   -341161.12224     -1168.55224        28.40024                                                                
R16  23424084.64424 125127724.61424      4135.85624        27.70024
C36  25652732.48324  -2051450.84724     -3052.71824        27.50024  25652796.03923  -4289738.21923     -2299.03323        21.20023
R03  23689982.56624 126814800.63924     -2552.90224        26.40024
C13  40428671.11324    -44759.84924     -1248.87124        27.70024                                                                
C14  26169898.75624   -463226.99024      2072.30124        24.00024                                                                
E30  27429469.27424    -70951.29024      -872.51424        23.80024                                                                
E10  28132400.14523   -661505.83023      1861.24323        17.60023                                                                
E27  26097454.20825  -6310503.81725      1243.12725        30.80025  26097481.78924  -4719518.03724       925.54324        27.70024
> 2025 10 05 09 16 35.0000113  0 35                      
G07  21577404.17407  -1133458.15507      1360.83307        46.60007                                                                
G09  20714986.11406    -74493.70606       340.00406        40.80006  20714993.90826   -237247.14726       253.26926        36.70026
G03  21433839.26225    138178.18125     -2634.11925        34.90025  21433740.93024     95489.85024     -1973.64224        26.40024
G06  22485357.11126    -37230.85826      -357.76126        36.90026  22485349.31725  -1212508.18725      -267.77425        32.10025
G16  22673280.81425    -46247.74425       -85.70025        33.40025                                                                
G30  23788351.06725  -4305418.03825      2718.57225        30.80025                                                                
G11  24551808.83625   -232610.14025      1809.10425        29.70025                                                                
G01  24755532.50124  -5334127.69024     -3852.42524        27.10024  24755421.27823  -1450109.46923     -2891.37723        22.40023
G04  21479380.13525  -1298795.27525     -1518.55625        30.40025  21479356.75124     31663.07224     -1130.57024        29.40024
R05  20763528.80807 110993402.94707      1150.13707        46.30007
E29  23920330.80016      -726.65716      -731.57216        39.80016  23920340.69305   2081846.99505      -547.93405        35.00005
E12  26164057.60026  -4196680.95326      1012.91826        38.70026  26164071.09025  -2977942.36725       755.20425        31.00025
C26  23064141.22706   -266416.42406      2194.68106        36.00006  23064135.53124   -208245.37124      1657.38624        24.20024
C22  24144370.50026  -2191743.12826     -2051.85726        35.80026  24144330.02804  -1365609.08204     -1547.71204        26.30004
E21  27305897.22125  -6268880.60925      2421.40125        35.00025  27305910.71124  -3181995.18824      1803.08324        28.40024
E19  24384194.27415   -206106.52815       722.12915        33.80015  24384157.09925  -1653065.45625       540.33525        32.60025
R04  20721755.12725 110964500.53525     -1041.46325        35.00025
C21  22316203.41425   -104373.06725       -53.61325        32.70025  22316223.80023    -86158.78123       -47.18723        22.60023
E33  24412369.66825   -982347.18525     -1745.93525        34.70025  24412343.88625   2132723.14925     -1303.78825        31.50025
R14  20740895.37725 110561084.25825     -1973.09325        34.40025
E27  26097236.85925  -6311750.31825      1246.77225        31.80025  26097247.95124  -4720445.36524       928.21924        27.10024
E07  26658981.97125  -1498454.05125     -1980.71625        31.50025  26658897.72925    -17841.67925     -1482.23325        29.80025
C09  38074527.15325    -68787.97225      -860.73325        31.60025                                                                
R15  20104139.49425 107430866.85925      2097.11125        30.80025
E26  26375569.27325  -4783123.77325     -3352.39125        31.00025  26375585.76214   -999339.32614     -2500.60314        24.70014
C34  25642773.67725     13411.01825     -2515.02825        33.60025                                                                
R19  23282495.96324 124546095.03324     -4129.27724        29.00024
C16  40025724.56724   -339994.69824     -1166.11024        28.80024                                                                
R16  23423366.04124 125123857.88224      4146.17224        27.90024
C36  25653313.48124  -2048401.29024     -3049.55624        27.50024  25653389.62823  -4287435.42923     -2302.23423        21.30023
R03  23690442.44824 126817235.54024     -2544.54124        26.30024
C13  40428913.34624    -43513.95424     -1244.40724        27.30024                                                                
C14  26169504.52924   -465303.99824      2076.70424        24.00024                                                                
E10  28132050.88623   -663369.69423      1863.70823        17.50023                                                                
E30  27429624.26624    -70079.03224      -873.79724        23.70024                                                                
> 2025 10 05 09 16 36.0000115  0 35                      
G07  21577158.04407  -1134818.81107      1360.66007        46.50007                                                                
G06  22485440.45326    -36872.42526      -358.99026        36.70026  22485423.36516  -1212240.18616      -267.74216        37.20016
G03  21434317.13115    140816.78115     -2640.55615        35.10015  21434247.87915     97460.92915     -1971.68315        33.70015
G30  23787828.52925  -4308127.39225      2706.20425        32.90025                                                                
G16  22673305.39725    -46156.18825       -93.73725        33.30025                                                                
G11  24551480.26425   -234419.44025      1807.99025        29.70025                                                                
G04  21479697.61525  -1297276.43525     -1519.72625        30.30025  21479652.64624     32794.46624     -1130.96424        29.10024
G01  24756281.98324  -5330276.51924     -3850.26724        27.00024  24756155.17023  -1447218.23223     -2893.27823        22.00023
G09  20714939.94526    -74833.00026       338.82326        40.70026  20714931.25216   -237499.96516       252.54616        36.20016
R05  20763318.95307 110992253.36407      1145.49807        46.90007
E29  23920474.10006        10.12006      -738.70806        40.10006  23920486.39205   2082397.12905      -551.16905        34.80005
E12  26163873.52726  -4197691.12826      1008.98126        38.70026  26163886.11925  -2978696.10925       753.10425        30.80025
R14  20741272.81615 110563068.84115     -1975.54315        35.40015
C26  23063712.82406   -268609.70306      2192.84806        36.60006  23063721.81825   -209898.22525      1651.16425        31.80025
C22  24144760.53026  -2189686.63326     -2058.15526        36.20026  24144725.75414  -1364059.35514     -1550.72714        26.10014
E21  27305441.23625  -6271296.43025      2414.39525        34.90025  27305455.32725  -3183799.89425      1805.60725        34.80025
E19  24384016.19725   -206828.41125       721.36925        33.80025  24384025.49025  -1653605.87325       539.91125        31.90025
E33  24412715.32925   -980596.17525     -1753.22625        34.60025  24412686.84925   2134029.73425     -1307.54925        30.90025
C21  22316209.11025   -104313.66925       -61.61625        33.30025  22316225.59823    -86115.92623       -40.96923        23.00023
R04  20721988.06625 110965720.33925     -1045.55225        34.80025
E27  26096991.92825  -6312992.88625      1240.60125        32.30025  26097018.91024  -4721371.45524       925.47224        26.70024
E07  26659348.31725  -1496465.38425     -1990.60725        31.50025  26659284.16224    -16355.98724     -1486.83324        29.30024
R15  20103772.84825 107428881.21625      2089.19425        31.00025
C34  25643257.54225     15932.30525     -2523.75225        33.10025                                                                
C09  38074683.64525    -67922.59625      -866.28625        31.50025                                                                
E26  26376254.89925  -4779768.42525     -3355.90025        30.90025  26376230.61624   -996837.13924     -2503.34424        24.20024
R19  23283234.95224 124550021.52124     -4137.84524        29.20024
C16  40025930.22524   -338822.42524     -1175.19724        29.00024                                                                
R16  23422552.40424 125119485.17024      4144.69324        28.10024
C36  25653945.74324  -2045349.09324     -3053.51524        27.80024  25653979.02023  -4285130.67223     -2305.74023        21.30023
R03  23690916.12024 126819743.98024     -2544.92824        26.20024
C13  40429146.88424    -42269.41624     -1243.86024        27.00024                                                                
C14  26169101.90824   -467387.80824      2087.21024        24.30024                                                                
E30  27429790.65124    -69203.07824      -877.80224        23.60024                                                                
E10  28131675.54623   -665237.07623      1869.14123        17.50023                                                                
> 2025 10 05 09 16 37.0000117  0 35                      
G07  21576894.52707  -1136178.58507      1359.33207        46.40007                                                                
G09  20714867.39616    -75169.19016       334.63816        40.70016  20714874.29116   -237750.92016       250.02516        36.20016
G06  22485520.49826    -36512.32526      -360.93326        36.50026  22485493.21716  -1211970.93416      -269.87816        36.30016
G03  21434820.18325    143459.50425     -2644.78425        35.10025  21434751.23115     99433.19915     -1972.86515        35.00015
G16  22673346.16925    -46061.27725       -96.58825        33.20025                                                                
G30  23787318.88225  -4310835.11225      2706.90325        32.80025  23787271.81423  -4616275.01823      2027.52423        23.40023
G11  24551153.19025   -236228.87925      1809.50925        30.20025  24551145.39623  -4682605.17923      1331.38223        19.30023
G04  21479948.24125  -1295756.03225     -1521.18525        30.20025  21479941.04624     33925.53224     -1130.90024        28.50024
G01  24757011.97724  -5326419.81624     -3859.46924        27.00024  24756894.15923  -1444329.32823     -2887.73523        21.60023
R05  20763112.99607 110991127.48907      1143.45907        47.10007
C26  23063295.81307   -270802.24207      2192.17007        41.70007  23063304.20716   -211549.92316      1651.12116        38.00016
E21  27304989.74916  -6273710.92716      2413.83416        37.50016  27305001.44115  -3185602.67215      1801.81315        34.60015
E29  23920625.19607       749.40707      -740.54107        41.60007  23920632.39105   2082949.13605      -552.94205        34.70005
E19  24383883.08916   -207551.49916       722.94016        39.10016  24383893.28215  -1654145.50615       539.24015        31.40015
E12  26163688.25616  -4198698.04716      1005.29016        39.10016  26163698.14925  -2979447.88225       750.79025        30.00025
R14  20741637.96326 110564989.35526     -1977.49026        37.80026
C22  24145167.94816  -2187628.91716     -2058.32616        36.20016  24145126.87624  -1362506.60624     -1554.26124        25.50024
C21  22316239.68925   -104251.65025       -63.33025        33.90025  22316241.78723    -86070.74523       -46.34423        23.20023
R04  20722185.03025 110966749.35225     -1048.36025        34.50025
E27  26096777.27725  -6314234.58025      1241.25825        32.30025  26096786.27124  -4722297.96724       926.72324        26.40024
E33  24413063.08825   -978840.70125     -1757.70525        34.30025  24413017.22025   2135324.24525     -1288.47325        30.30025
E07  26659754.23625  -1494473.59025     -1993.35825        31.60025  26659667.29624    -14864.10324     -1494.97924        28.70024
C09  38074862.62125    -67051.99925      -873.20825        31.40025                                                                
R15  20103390.31225 107426810.69825      2085.90825        31.10025
C34  25643782.47925     18455.95825     -2524.83625        32.80025                                                                
E26  26376952.81625  -4776414.22625     -3353.62525        30.80025  26376873.67024   -994334.55024     -2502.79024        23.70024
R19  23284027.00425 124554233.50125     -4138.78025        29.60025
C16  40026184.44924   -337648.49024     -1174.76624        29.20024                                                                
R16  23421856.58624 125115741.50624      4142.45524        28.10024
C36  25654541.13124  -2042291.34524     -3060.52324        28.10024  25654763.87723  -4282820.97623     -2312.16523        22.60023
R03  23691376.30124 126822181.19124     -2554.47524        26.00024
C13  40429445.17824    -41023.39424     -1246.76324        26.70024                                                                
C14  26168698.38724   -469472.35324      2084.91324        24.30024                                                                
E30  27429982.51824    -68321.65024      -884.16524        23.60024                                                                
E10  28131321.79123   -667106.01523      1869.71723        17.50023                                                                
> 2025 10 05 09 16 38.0000119  0 35                      
G06  22485562.76917    -36146.98917      -367.95517        46.50017  22485548.37905  -1211697.84905      -275.00105        35.20005
G09  20714788.25107    -75501.03807       329.67607        41.70007  20714798.74316   -237998.74816       246.26316        36.10016
G07  21576616.02007  -1137533.87307      1353.04607        45.40007                                                                
G03  21435272.57015    146105.40115     -2647.48315        35.00015  21435242.29105    101408.32105     -1976.54705        35.30005
G16  22673348.86715    -45963.71615       -98.88715        33.10015                                                                
G11  24550810.82725   -238033.14525      1801.68025        30.70025  24550830.01423  -4683936.23123      1331.05223        23.00023
G04  21480237.84125  -1294233.43825     -1523.68925        30.20025  21480222.85124     35060.86824     -1137.47224        28.20024
G01  24757688.90924  -5322553.17024     -3871.61724        26.90024  24757614.86023  -1441460.52623     -2858.75223        21.30023
G30  23786796.04425  -4313538.68225      2701.49525        32.70025  23786784.35223  -4618284.99123      2001.19623        22.70023
C26  23062864.41107   -272990.25107      2185.74207        46.90007  23062870.70706   -213198.79706      1647.46106        36.90006
R05  20762886.05307 110989984.02107      1137.56207        47.20007
E21  27304512.47907  -6276120.90207      2407.71407        42.30007  27304529.56807  -3187402.33107      1798.09907        46.20007
E29  23920744.51307      1493.13507      -745.95007        41.90007  23920759.80315   2083504.73015      -557.38815        34.00015
E12  26163490.09306  -4199700.65206      1000.44906        39.40006  26163493.99024  -2980197.59424       748.68024        29.40024
E19  24383740.98726   -208269.97726       717.17326        39.60026  24383742.48615  -1654682.05215       535.00215        30.90015
C22  24145539.39106  -2185566.30406     -2065.06206        36.50006  24145512.41024  -1360951.84324     -1555.76824        25.20024
R14  20742011.20426 110567050.21126     -1987.81426        37.60026
C21  22316236.69125   -104184.64925       -69.49125        34.30025  22316240.58823    -86021.99223       -50.53923        23.00023
R04  20722335.22615 110967624.35715     -1052.08215        34.30015
E27  26096532.94625  -6315469.31325      1231.25225        32.40025  26096539.24224  -4723222.79724       923.98724        26.10024
E33  24413361.98125   -977087.29525     -1752.37225        34.00025  24413356.28525   2136647.15025     -1337.10325        29.70025
E07  26660120.88225  -1492478.57025     -1996.63125        31.80025  26660032.14424    -13360.69624     -1509.16924        28.20024
R15  20102899.55225 107424259.24925      2084.60525        31.20025
C09  38075019.71225    -66177.79925      -876.00125        31.40025                                                                
C34  25644237.56425     20982.48925     -2527.96925        32.40025                                                                
E26  26377601.26725  -4773056.20725     -3359.92725        30.80025  26377498.43823   -991826.68623     -2510.50123        23.40023
R19  23284764.49325 124558248.77225     -4142.85825        30.00025
C16  40026417.38825   -336473.83525     -1175.01425        29.70025                                                                
R16  23421091.51624 125111726.49524      4134.56924        28.70024
C36  25655129.02424  -2039226.81124     -3067.92724        28.10024                                                                
R03  23691873.05824 126824911.74724     -2554.42524        26.00024
C13  40429670.62124    -39776.21424     -1247.76024        26.50024                                                                
C14  26168284.67324   -471553.92124      2080.07824        24.90024                                                                
E30  27430149.50324    -67435.26624      -888.86124        23.50024                                                                
E10  28130945.25223   -668979.79323      1876.19723        17.80023                                                                
> 2025 10 05 09 16 39.0000121  0 35                      
G06  22485641.31427    -35783.10527      -363.15827        46.20027  22485625.72525  -1211426.11025      -271.06725        34.20025
G09  20714733.38817    -75832.54917       331.34217        42.40017  20714740.88316   -238246.60216       247.86816        36.00016
G03  21435767.22725    148750.72325     -2645.03425        35.20025  21435751.03806    103383.34206     -1974.97106        37.50006
G07  21576382.48107  -1138888.56507      1354.39307        43.80007                                                                
G16  22673359.06025    -45866.42925       -97.15025        33.10025                                                                
G04  21480538.23325  -1292709.60825     -1524.44725        31.00025  21480519.94524     36195.17924     -1133.79724        27.90024
G11  24550487.95125   -239835.91825      1802.02525        31.10025  24550487.05123  -4685278.80323      1348.33023        23.30023
G01  24758438.98924  -5318689.16424     -3862.68624        26.80024  24758358.34523  -1438579.08023     -2887.76623        21.10023
G30  23786328.06825  -4316242.52925      2703.98625        32.60025  23786288.79523  -4620285.81223      1996.24523        22.10023
C26  23062448.29907   -275177.98207      2187.59207        47.30007  23062456.39406   -214847.59906      1648.76506        36.20006
R05  20762679.49607 110988853.55507      1139.98307        47.20007
E29  23920894.11007      2236.95707      -743.86807        41.90007  23920907.30025   2084059.91525      -554.98125        33.30025
E21  27304051.99807  -6278530.73807      2409.76607        42.20007  27304075.68207  -3189202.00707      1799.68507        46.00007
E12  26163301.82306  -4200703.27106      1002.62606        39.60006  26163309.01824  -2980946.04624       747.82324        29.30024
E19  24383599.18626   -208988.07526       717.65926        39.50026  24383611.77725  -1655219.17725       537.41625        30.60025
C22  24145924.32426  -2183506.47726     -2058.43326        36.50026  24145913.83224  -1359397.34224     -1554.37024        24.90024
R14  20742371.85526 110568945.54726     -1980.23426        37.30026
C21  22316248.38325   -104119.02525       -64.93525        34.70025  22316253.17923    -85965.13623       -60.90823        22.70023
R04  20722525.29405 110968615.05905     -1050.39905        34.20005
E27  26096300.00715  -6316704.78115      1235.83615        32.40015  26096308.10224  -4724147.88424       925.21624        25.80024
E33  24413714.23725   -975333.40725     -1754.12825        33.70025  24413690.55424   2137953.28024     -1297.74224        29.10024
E07  26660494.72425  -1490482.00425     -1997.34025        31.80025  26660413.78024    -11860.49324     -1498.60124        27.60024
R15  20102456.75925 107421866.07025      2081.61825        31.40025
C09  38075160.31525    -65305.11925      -871.92025        31.40025                                                                
C34  25644716.03325     23501.46625     -2515.19925        32.10025                                                                
E26  26378175.06925  -4769696.25525     -3360.91825        30.70025  26378139.99423   -989307.82623     -2524.35823        23.00023
R19  23285564.03925 124562498.25625     -4145.56925        30.10025
C16  40026635.63725   -335298.43425     -1175.77425        29.70025                                                                
R16  23420283.57524 125107382.82824      4134.51524        29.10024
C36  25655719.61524  -2036155.22324     -3075.11424        28.10024  25655937.26424  -5190729.53324     -2310.59424        24.70024
R03  23692302.06124 126827180.44624     -2553.96324        26.70024
C14  26167903.03824   -473635.13424      2081.03624        25.60024                                                                
C13  40429945.23124    -38525.39324     -1252.64124        26.40024                                                                
E30  27430298.79924    -66547.50424      -888.45024        23.90024                                                                
E10  28130584.00223   -670858.09323      1880.56023        18.20023                                                                
> 2025 10 05 09 16 40.0000123  0 35                      
G09  20714653.64407    -76169.16207       339.16407        42.90007  20714662.63716   -238497.70416       252.72516        35.90016
G06  22485679.38817    -35421.35517      -360.68317        45.80017  22485678.78825  -1211155.34325      -270.28125        33.40025
G03  21436237.00226    151391.75126     -2638.88126        36.40026  21436239.40006    105355.31206     -1970.44406        39.90006
G07  21576146.84407  -1140248.18707      1362.08807        42.50007                                                                
G16  22673358.76025    -45772.14525       -92.78225        33.00025                                                                
G30  23785776.15025  -4318951.18725      2711.06225        32.30025  23785761.76023  -4622296.87423      2016.18323        21.60023
G01  24759180.07624  -5314833.82324     -3851.00724        27.00024  24759073.65023  -1435692.63523     -2888.94423        20.80023
G11  24550119.80625   -241643.23225      1809.58525        31.20025  24550129.09924  -4686627.25124      1351.38724        23.90024
G04  21480822.43625  -1291188.68125     -1519.47625        31.50025  21480788.85924     37322.79024     -1124.26124        27.20024
C26  23062014.50008   -277369.83008      2193.90708        47.50008  23062021.69506   -216499.29406      1653.14206        35.80006
R05  20762448.35607 110987690.19107      1147.28007        47.10007
E21  27303585.52107  -6280945.35107      2417.00107        42.30007  27303603.20907  -3191004.90507      1804.50907        45.80007
E29  23921019.12307      2976.23907      -737.01307        42.00007  23921034.11315   2084611.96015      -550.47515        32.80015
E12  26163097.06506  -4201710.03706      1008.83906        40.00006  26163103.96024  -2981699.34324       755.71924        29.20024
E19  24383452.58716   -209711.65816       726.32416        39.40016  24383460.08225  -1655759.35625       541.70525        30.20025
C21  22316248.38316   -104057.51116       -59.46016        35.70016  22316259.77523    -85913.72323       -48.69123        22.50023
C22  24146303.86226  -2181449.23626     -2055.94726        36.40026  24146297.56624  -1357844.72424     -1551.67624        26.00024
R14  20742697.13016 110570750.88416     -1975.88716        37.00016
E33  24414023.62315   -973582.34515     -1748.89815        33.60015  24414006.83524   2139254.10024     -1298.16524        28.50024
R04  20722712.36525 110969689.26625     -1042.21525        34.00025
E27  26096039.78825  -6317945.21825      1242.92025        32.60025  26096060.47324  -4725061.90424       908.48724        25.40024
R15  20102029.55525 107419655.61725      2092.01825        31.90025
E07  26660881.15625  -1488490.99425     -1988.23125        31.70025  26660774.13024    -10368.62124     -1487.70624        27.10024
C09  38075323.10225    -64437.41225      -865.22025        31.30025                                                                
E26  26378760.86425  -4766342.74025     -3350.29725        30.70025  26378765.36124   -986785.30724     -2524.34824        24.60024
C34  25645193.90225     26017.83425     -2515.06325        31.90025                                                                
R19  23286306.92525 124566544.90325     -4135.26525        30.10025
C16  40026855.68425   -334125.40725     -1171.84025        29.60025                                                                
R16  23419521.20324 125103381.56724      4152.45924        29.40024
C36  25656283.82424  -2033092.12424     -3058.85524        28.00024  25656509.86824  -5188421.26524     -2308.26824        24.60024
R03  23692744.25424 126829619.93624     -2550.59024        27.00024
C13  40430186.26424    -37276.32024     -1248.20024        26.30024                                                                
C14  26167470.73724   -475722.06124      2089.78424        25.60024                                                                
E30  27430444.79824    -65665.66424      -878.88024        23.90024                                                                
E10  28130210.16123   -672742.81323      1887.93023        18.50023                                                                
> 2025 10 05 09 16 41.0000125  0 34                      
G09  20714595.48407    -76510.35307       343.48107        42.90007  20714603.87816   -238752.53116       256.69116        35.80016
G06  22485766.92717    -35064.96017      -353.71717        45.30017  22485754.03625  -1210890.03925      -262.57225        32.70025
G07  21575882.12827  -1141613.56527      1368.25527        41.50027                                                                
G16  22673399.23225    -45686.37525       -81.51325        33.00025                                                                
G04  21481111.43625  -1289677.27625     -1506.64425        32.40025  21481082.35624     38441.94324     -1114.92324        26.90024
G11  24549763.05325   -243460.79425      1822.68525        31.30025  24549791.53324  -4687980.71524      1355.97224        24.50024
G30  23785285.98925  -4321666.62225      2718.82225        32.10025  23785190.35523  -4624314.40223      2020.76123        23.00023
G01  24759937.05224  -5310984.82024     -3845.83324        27.40024  24759817.13523  -1432811.46223     -2878.53723        20.60023
G03  21436740.65326    154028.00126     -2633.86126        39.50026  21436745.75006    107323.48506     -1966.27406        39.90006
C26  23061599.88708   -279566.85708      2199.61608        47.60008  23061604.98306   -218154.90106      1657.56406        35.60006
R05  20762233.40507 110986513.83207      1152.37507        47.10007
E21  27303120.84317  -6283366.21017      2423.23217        42.30017  27303147.22407  -3192812.04507      1809.26107        45.60007
E29  23921166.92107      3710.40907      -731.61307        42.00007  23921177.71325   2085161.39125      -548.12325        32.20025
E12  26162909.69506  -4202721.87406      1014.37106        40.40006  26162915.99025  -2982456.03625       758.39025        31.70025
R03  23693306.96524 126832604.01524     -2537.37524        28.70024
E19  24383323.37616   -210439.79216       730.41016        39.20016  24383326.97425  -1656304.33925       547.38625        30.00025
C21  22316263.07306   -104000.89606       -54.16506        36.50006  22316269.36823    -85863.78723       -49.19723        22.20023
C22  24146717.27526  -2179395.53526     -2051.93026        36.30026  24146692.99224  -1356293.17724     -1551.01024        25.70024
R14  20743115.64026 110572953.60026     -1970.28626        36.70026
E33  24414348.59825   -971838.80725     -1740.77725        33.50025  24414357.59224   2140558.08724     -1305.57024        27.90024
E27  26095806.84915  -6319190.37115      1247.51115        32.80015  26095829.93324  -4725989.56624       934.48224        25.10024
R04  20722953.39825 110970952.73725     -1038.32125        33.90025
R15  20101721.36815 107417981.15715      2094.65915        32.30015
E07  26661274.48425  -1486504.13025     -1984.79125        31.60025  26661158.16424     -8885.19024     -1479.21024        26.60024
C09  38075503.57725    -63573.77925      -861.59625        31.20025                                                                
E26  26379411.71325  -4762995.10125     -3344.70025        30.70025  26379409.61524   -984284.58624     -2489.82024        24.30024
C34  25645696.95325     28528.56425     -2507.91125        31.70025  25645666.07523  -4656207.78923     -1892.25423        19.80023
C16  40027074.53325   -332958.19125     -1164.31025        29.70025                                                                
R16  23418714.76125 125099047.83425      4147.70025        29.50025
C36  25656893.30224  -2030038.37324     -3049.07624        27.90024  25657098.36024  -5186125.84824     -2288.99024        25.70024
C13  40430442.28724    -36037.21624     -1234.11924        26.30024                                                                
C14  26167069.31524   -477817.70824      2100.00624        25.60024                                                                
E30  27430631.86924    -64795.11324      -864.90624        23.90024                                                                
E10  28129868.09823   -674637.60923      1899.83423        18.50023                                                                
> 2025 10 05 09 16 42.0000128  0 35                      
G09  20714544.21907    -76856.66107       348.86507        43.00007  20714554.11305   -239011.09405       260.42905        35.30005
G06  22485840.97607    -34712.73307      -350.14307        44.80007  22485834.68125  -1210629.32025      -258.42725        32.10025
G03  21437279.08116    156659.21516     -2628.69416        41.20016  21437263.79106    109288.38506     -1963.26306        39.20006
G07  21575637.19726  -1142978.72526      1365.05126        40.60026                                                                
G16  22673428.31225    -45601.77425       -84.01725        33.10025                                                                
G04  21481442.40725  -1288166.51725     -1510.43525        32.30025  21481387.54524     39560.30124     -1117.96024        26.60024
G11  24549412.59525   -245280.65025      1821.00225        31.30025  24549464.75924  -4689333.85924      1352.98324        24.40024
G30  23784806.62125  -4324386.24625      2721.71825        31.90025  23784745.16423  -4626336.65723      2024.61723        22.40023
G01  24760708.41824  -5307137.39524     -3846.63524        27.60024  24760566.01723  -1429943.44923     -2861.43123        20.50023
C26  23061192.46908   -281768.04208      2203.26408        47.70008  23061198.46506   -219813.79906      1660.54306        35.60006
R05  20762044.23627 110985411.65727      1158.11927        46.90027
E21  27302676.25107  -6285790.86607      2426.80307        42.30007  27302702.33207  -3194622.62807      1812.30307        45.40007
E29  23921328.20917      4438.43117      -724.94817        41.90017  23921333.60525   2085707.51325      -544.46725        31.90025
E12  26162731.61806  -4203738.46106      1018.96306        40.80006  26162739.71225  -2983215.91725       761.47625        31.30025
E19  24383202.56016   -211173.79116       736.18216        39.00016  24383204.35925  -1656858.30725       558.45925        29.70025
C21  22316289.45406   -103948.88306       -49.71206        36.80006  22316292.75223    -85822.98023       -36.24323        22.00023
C22  24147120.49626  -2177345.87126     -2047.64526        36.10026  24147103.40824  -1354747.56924     -1542.63824        25.30024
C13  40430657.23815    -34802.59315     -1232.38115        29.70015                                                                
R14  20743516.76226 110575003.00126     -1967.54426        36.40026
R03  23693817.81126 126835249.54426     -2537.46026        35.80026
E27  26095602.39025  -6320440.88825      1253.19825        33.30025  26095606.58724  -4726923.73024       937.41524        24.80024
E33  24414718.24225   -970098.47025     -1737.73625        33.50025  24414717.04324   2141858.56624     -1298.72524        27.40024
R04  20723138.67015 110971854.55015     -1032.05415        33.70015
R15  20101330.13915 107415800.52615      2097.26015        32.60015
C09  38075668.76325    -62713.81325      -858.13225        31.20025                                                                
E26  26380146.20525  -4759650.68025     -3342.81125        30.70025  26380061.36415   -981788.24715     -2494.14815        32.90015
C16  40027315.56625   -331794.31525     -1162.20625        29.80025                                                                
C34  25646184.11625     31036.43525     -2506.44125        31.50025  25646151.73922  -4654317.12422     -1890.66522        16.80022
R19  23287983.06525 124575393.64825     -4117.63325        29.70025
R16  23417997.35825 125095124.53925      4154.36625        29.50025
C36  25657482.39524  -2026990.25624     -3045.29924        27.90024  25657701.24324  -5183834.59924     -2289.16524        25.70024
C14  26166671.49024   -479918.77624      2103.77924        25.60024                                                                
E30  27430806.04824    -63927.40524      -866.28524        24.10024                                                                
E10  28129516.44123   -676537.32523      1902.17523        18.50023                                                                
E07                                                                  26661555.98924     -7407.13924     -1475.36024        26.10024
> 2025 10 05 09 16 43.0000129  0 34                      
G09  20714450.08507    -77205.49207       350.09207        43.20007  20714462.97605   -239271.70605       261.63705        35.20005
G03  21437732.96607    159288.16007     -2627.81107        42.20007  21437738.96206    111251.53506     -1962.27506        38.70006
G06  22485891.34127    -34363.16427      -348.24027        44.40027  22485871.55525  -1210370.24925      -258.24725        31.50025
G07  21575345.79926  -1144349.79926      1374.03026        39.80026                                                                
G04  21481674.14625  -1286661.14025     -1502.68625        32.40025  21481647.46524     40675.97324     -1114.32824        26.30024
G11  24549091.51825   -247101.33325      1821.09625        31.40025  24549096.61424  -4690690.04424      1357.70724        24.30024
G01  24761403.03724  -5303296.95324     -3836.95124        27.70024  24761272.92723  -1427076.63123     -2866.22023        20.40023
G16  22673417.81915    -45518.31315       -82.89215        33.60015                                                                
C26  23060740.08208   -283971.72308      2204.92808        47.90008  23060750.27506   -221474.54406      1661.66806        35.60006
R05  20761799.30517 110984237.59517      1158.67917        46.80017
E21  27302193.28507  -6288218.35207      2428.90107        42.40007  27302215.47007  -3196435.33707      1813.77307        44.80007
E29  23921434.33607      5164.83607      -725.59707        41.80007  23921447.82625   2086250.51225      -541.43825        32.20025
E12  26162518.46506  -4204757.48106      1020.23706        41.10006  26162519.96425  -2983975.83225       759.93125        31.00025
C21  22316282.25906   -103899.02006       -48.78706        37.40006  22316278.06223    -85787.87523       -32.25323        22.00023
E19  24383022.68526   -211908.56626       735.41226        38.80026  24383038.57424  -1657413.91424       556.42724        29.40024
C22  24147462.85916  -2175302.24716     -2040.60416        36.00016  24147471.55324  -1353199.72324     -1548.96524        25.00024
R14  20743853.42926 110576932.67226     -1969.44326        36.20026
R03  23694261.80416 126837761.04216     -2534.46016        35.50016
E27  26095341.87115  -6321694.18615      1255.43815        33.60015  26095346.06824  -4727855.23224       930.17124        24.50024
E33  24415010.24015   -968360.59915     -1736.88715        33.50015  24415026.42924   2143152.88224     -1291.23424        26.90024
R04  20723291.26405 110972806.17405     -1031.44805        33.60005
R15  20100890.94315 107413588.55815      2101.04715        33.00015
C13  40430899.77125    -33569.66025     -1232.08925        34.50025                                                                
E26  26380786.56125  -4756310.90025     -3337.45925        30.70025  26380669.94225   -979295.02425     -2491.66625        31.60025
C09  38075806.66825    -61858.17525      -853.47525        31.20025                                                                
C16  40027510.13125   -330635.10725     -1156.87425        30.30025                                                                
C34  25646621.81325     33541.93025     -2504.30625        31.30025  25646628.10922  -4652364.24022     -1983.99422        16.60022
R16  23417183.12125 125090910.03725      4157.30825        29.70025
R19  23288709.46225 124579413.51525     -4123.70325        29.70025
C36  25658023.52024  -2023939.05624     -3052.74124        27.80024  25658258.55724  -5181549.11624     -2282.60124        25.60024
C14  26166248.48324   -482018.23124      2098.64724        25.50024                                                                
E07  26662018.86824  -1482546.67624     -1976.04824        28.00024  26661908.24524     -5929.87324     -1476.87424        25.60024
E10  28129106.32523   -678441.09123      1905.79123        18.60023                                                                
G30                                                                  23784204.63823  -4628380.48123      2054.60923        22.00023
