     4.01           OBSERVATION DATA    M                   RINEX VERSION / TYPE
GnssLogger          samsung 15          20251005 083211 UTC PGM / RUN BY / DATE
Google GnssLogger                                           MARKER NAME
Unknown                                                     MARKER NUMBER
Unknown             Unknown                                 OBSERVER / AGENCY
Unknown             GnssLogger          v3.1.1.1            REC # / TYPE / VERS
Unknown             Unknown                                 ANT # / TYPE
        0.0000        0.0000        0.0000                  ANTENNA: DELTA H/E/N
G    8 C1C L1C D1C S1C C5Q L5Q D5Q S5Q                      SYS / # / OBS TYPES
R    4 C1C L1C D1C S1C                                      SYS / # / OBS TYPES
C    8 C2I L2I D2I S2I C5P L5P D5P S5P                      SYS / # / OBS TYPES
E    8 C1C L1C D1C S1C C5Q L5Q D5Q S5Q                      SYS / # / OBS TYPES
  2025    10    05    08    32   11.0000000     GPS         TIME OF FIRST OBS
 8 R03  5 R04  6 R05  1 R13 -2 R14 -7 R15  0 R19  3 R20  2  GLONASS SLOT / FRQ #
samsung SM-S711B (Android 15) HW Year: 2021 HW Model:       COMMENT
S.LSI,K040,SPOTNAV_4.6.2_7_E23                              COMMENT
                                                            END OF HEADER
> 2025 10 05 08 32 11.0000000  0 33                      
G04  20965297.22707    572841.38507     -1680.09607        44.10007  20965302.92306 -14882972.08606     -1254.64806        40.40006
G09  21168033.67505 -28003896.17905       269.30805        34.10005                                                                
G01  22949743.42326  -5593975.49426     -4335.26626        36.10026  22949782.39623 -19994776.23623     -3235.74223        21.00023
G07  22692111.97825 -11883897.28725      1803.72125        34.30025                                                                
G26  23826468.77925 -22945121.50525     -1761.44425        31.50025                                                                
G06  22887110.18326   -201677.00226       733.29426        36.20026  22887033.73625   1932126.07025       547.81025        33.10025
G31  24503427.43024 -26838220.00924     -4531.73224        28.90024                                                                
G16  23192955.75124 -28217353.71424       859.38624        27.30024                                                                
G03  20554951.20324    590735.15824     -2004.65224        27.60024                                                                
C21  22561140.74707     44578.58207      -199.32507        47.20007  22561156.33626     25889.30026      -149.56826        38.40026
R14  20485695.24807 109569273.00307      -228.42707        44.70007
R19  21490057.24307 115327604.78807     -4068.51107        43.70007
E27  27063578.27507 -26785282.75707      1297.40707        44.30007  27063594.16406 -18988988.41606       968.95506        39.10006
E33  23994980.02106   -945060.53206     -1055.79206        41.20006  23994930.55525 -15369874.29225      -787.28225        30.80025
C22  23369461.85807  -4453112.80807     -2168.31507        42.50007  23369475.64906 -19020353.46506     -1635.60706        37.70006
R15  21706521.78806 116362970.70306      2944.61806        37.60006
C09  37832745.13605 -27985450.02705     -1232.83305        34.10005                                                                
C34  24602186.56125 -29632898.72625     -2619.71725        33.40025  24602026.47114 -17011502.25214     -1975.88714        26.30014
R05  21537129.15605 115498327.31405       730.62505        33.50005
E07  25793473.05015 -29805905.12715     -2605.66315        32.90015  25793470.35224 -17972233.04924     -1947.80424        27.10024
R03  22672703.71425 121739307.56525     -2787.47525        31.00025
E26  24929676.54425 -21132890.26825     -3455.63625        30.80025  24929697.53024 -19644995.67424     -2578.84624        28.50024
C36  24464113.54726  -2224119.69226     -2686.83826        36.00026  24464170.20724 -16269092.27024     -2022.17724        28.50024
C16  39593764.40724 -29305914.23424     -1669.43324        29.20024                                                                
C06  38215111.82924    464673.42324     -1566.70824        28.60024                                                                
E29  23758790.63225    373382.37525     -1063.62125        32.30025  23758796.32825  -5355539.54625      -794.95425        31.10025
R04  20479634.04426 110038188.68426     -1175.32926        36.10026
C13  40034421.54724 -29587138.40224     -1470.52524        27.70024                                                                
R20  21514488.53024 115417797.92124      -508.61324        28.00024
C26  24538026.17824   -744814.00424      2299.77824        27.80024  24537997.69823 -21914098.88123      1738.83723        22.20023
E19  24972359.49524 -30133650.78524       436.68324        25.00024                                                                
E30  27436538.68023 -28917288.62823      -291.63923        21.40023                                                                
R13  23315575.96323 124873515.23923     -3934.82623        19.50023
> 2025 10 05 08 32 12.0000006  0 33                      
G04  20965625.49907    574521.11507     -1680.44607        43.70007  20965638.99006 -14881717.76706     -1254.82306        40.20006
G09  21167975.21605 -28004165.78705       268.82405        34.40005                                                                
G06  22886983.07116   -202407.80416       729.55516        35.70016  22886903.92625   1931582.67625       540.55825        32.90025
G16  23192827.44024 -28218210.81224       855.13124        28.40024                                                                
G01  22950565.15426  -5589640.57826     -4335.82826        35.70026  22950622.11523 -19991537.69923     -3239.93323        20.90023
G07  22691808.88825 -11885702.03325      1804.74425        34.20025                                                                
G26  23826809.94325 -22943359.90025     -1762.52725        31.90025                                                                
G31  24504286.33624 -26833684.42524     -4536.39324        28.70024                                                                
G03  20555334.63824    592741.57724     -2007.96524        26.60024  20555355.02424 -22471129.08324     -1493.46424        24.50024
C21  22561182.71807     44777.64207      -199.76207        47.00007  22561211.19826     26038.68426      -149.84426        37.40026
R19  21490840.90007 115331714.96807     -4069.26407        44.30007
R14  20485761.50207 109569544.52707      -229.77207        44.60007
E33  23995205.46506   -944004.75906     -1056.72906        41.40006  23995148.20515 -15369085.29115      -789.74115        30.40015
C22  23369892.66007  -4450943.41807     -2170.23307        42.30007  23369913.34626 -19018720.03926     -1633.08326        37.20026
E27  27063342.63807 -26786580.94207      1297.60907        43.40007  27063361.82406 -18989957.84606       968.97706        39.40006
R15  21705994.45306 116360070.59106      2944.31606        37.30006
C34  24602698.90615 -29630278.77815     -2621.07215        33.80015  24602546.01204 -17009527.76504     -1975.01204        26.70004
C09  37832979.27305 -27984218.12905     -1232.34205        34.10005                                                                
R05  21537004.74205 115497580.80605       730.43705        33.50005
E07  25793991.99105 -29803297.55505     -2608.85005        32.90005  25793981.19824 -17970285.49124     -1947.85524        26.90024
R04  20479860.08825 110039317.29825     -1181.85225        35.10025
E26  24930344.48225 -21129435.63625     -3454.70425        30.80025  24930371.76324 -19642415.46324     -2581.45624        28.90024
R03  22673250.23525 121742149.94525     -2783.91225        31.00025
C36  24464642.98025  -2221433.28325     -2687.00825        35.10025  24464703.83815 -16267068.65015     -2024.86215        29.50015
C16  39594084.88525 -29304240.82225     -1675.49625        29.60025                                                                
C06  38215400.52924    466242.92924     -1571.29424        28.50024                                                                
E29  23759037.96025    374447.75025     -1065.37425        31.60025  23759015.47625  -5354743.72325      -796.68925        30.30025
E19  24972317.82424 -30134086.95324       436.16824        26.70024  24972287.84524 -22510154.87724       321.60524        25.50024
C13  40034764.50924 -29585664.17124     -1476.45324        27.70024                                                                
R20  21514672.60224 115418700.00724      -506.56424        27.80024
E30  27436588.74523 -28916992.76423      -298.32723        21.60023                                                                
R13  23316234.00723 124876946.60823     -3938.09623        19.30023
C26                                                                  24537571.09323 -21915830.62223      1728.91423        21.80023
> 2025 10 05 08 32 13.0000011  0 31                      
G04  20965922.59407    576199.82907     -1678.20507        43.30007  20965945.37806 -14880464.08306     -1253.36506        40.10006
G26  23827131.62015 -22941599.08715     -1760.41615        33.60015                                                                
G09  21167915.25705 -28004436.22805       270.85905        34.80005                                                                
G06  22886723.15106   -203140.06906       732.99506        35.50006  22886748.93325   1931035.12025       549.63725        32.70025
G01  22951375.79325  -5585310.87725     -4327.09125        35.30025  22951432.75423 -19988302.95023     -3232.85323        20.80023
G07  22691470.72215 -11887509.20615      1808.38715        34.00015                                                                
G16  23192638.27125 -28219070.16625       860.48225        31.70025                                                                
G31  24505144.94124 -26829142.91624     -4544.47024        28.70024                                                                
G03  20555716.27424    594747.92424     -2006.31024        25.70024  20555722.56924 -22469635.72824     -1493.35424        24.30024
C21  22561232.48407     44975.73807      -197.61507        46.80007  22561235.78126     26187.66526      -148.78026        37.60026
R04  20480062.74816 110040483.45916     -1178.02316        40.20016
R19  21491597.57707 115335842.75107     -4067.79707        44.30007
R14  20485789.38307 109569773.33907      -228.15707        44.50007
E33  23995393.13507   -942949.54407     -1054.93607        41.70007  23995333.77605 -15368297.26605      -787.53705        30.00005
C22  23370300.07807  -4448774.86807     -2168.12807        42.00007  23370314.16826 -19017091.08426     -1626.71926        36.70026
E27  27063080.61907 -26787879.82207      1299.22507        42.80007  27063099.20606 -18990927.71606       970.08906        40.30006
R15  21705407.75926 116357015.26626      2946.04126        37.00026
C34  24603180.37305 -29627659.35405     -2619.16005        34.30005  24603034.67404 -17007553.96104     -1973.46004        26.90004
E07  25794468.36105 -29800690.81105     -2606.33005        33.70005  25794466.86224 -17968346.59024     -1934.57324        26.70024
C09  37833223.90425 -27982988.42725     -1228.60425        34.00025                                                                
E26  24930989.93525 -21125984.59325     -3449.24825        30.80025  24931011.82025 -19639838.04025     -2576.02825        30.50025
C36  24465168.21625  -2218748.88525     -2683.39025        34.40025  24465207.78905 -16265045.35405     -2023.13205        30.00005
C16  39594380.48125 -29302573.50025     -1664.27625        29.70025                                                                
E29  23759224.43125    375511.64925     -1063.16125        31.10025  23759198.04924  -5353949.38724      -793.59224        29.40024
C06  38215650.85524    467810.42824     -1566.49524        28.40024                                                                
E19  24972181.71824 -30134524.45824       438.17424        27.10024  24972187.41424 -22510473.06924       318.19224        25.20024
C26  24537351.34524 -30032531.12224      2299.12124        25.80024  24537116.00823 -21917558.59523      1726.08723        21.40023
R20  21514807.50924 115419501.86424      -518.18224        27.70024
R03  22673636.66825 121744299.92125     -2786.31825        29.60025
E30  27436625.32023 -28916693.85723      -300.42823        21.90023                                                                
R13  23316812.00723 124880112.84823     -3933.63823        19.10023
> 2025 10 05 08 32 14.0000017  0 33                      
G04  20966266.75607    577875.62107     -1674.33007        43.00007  20966272.75107 -14879213.19507     -1249.48907        43.70007
G09  21167887.97605 -28004709.11905       274.11505        35.30005                                                                
G06  22886609.23005   -203874.90105       736.11605        35.40005  22886620.92225   1930485.00925       551.38925        32.60025
G26  23827497.66706 -22939842.82706     -1753.98406        36.50006  23827493.17024 -22615201.79024     -1303.98324        23.70024
G01  22952257.48315  -5580980.11215     -4331.29515        35.10015  22952270.07423 -19985074.32123     -3225.56723        20.80023
G07  22691074.39605 -11889318.97805      1811.06905        33.90005                                                                
G31  24506017.33724 -26824607.12324     -4532.93324        28.90024                                                                
G03  20556106.60424    596747.89724     -1996.78524        25.10024  20556115.59724 -22468141.77824     -1494.24724        23.80024
G16  23192526.44825 -28219931.33125       862.07025        31.40025                                                                
C21  22561288.84507     45171.21007      -194.16007        46.60007  22561287.94526     26333.37926      -144.07926        37.60026
R14  20485848.14207 109570007.48607      -223.20507        44.50007
R19  21492357.25107 115339825.87507     -4064.88707        44.20007
R04  20480296.28607 110041653.44707     -1175.09607        43.80007
E33  23995655.15407   -941897.73507     -1050.10407        42.00007  23995546.62905 -15367511.84505      -784.11905        31.60005
C22  23370732.97807  -4446610.51907     -2162.24807        41.90007  23370733.57826 -19015463.82126     -1626.41626        35.80026
E27  27062839.58607 -26789183.39607      1305.92107        42.30007  27062866.86706 -18991901.14606       975.21006        39.90006
R15  21704871.73026 116354070.80426      2954.05826        36.70026
C34  24603710.10625 -29625042.94025     -2614.90825        34.70025  24603556.61224 -17005580.50424     -1973.28324        26.80024
R05  21536829.96325 115496646.13925       739.27525        33.80025
C09  37833473.33115 -27981761.39815     -1225.69115        34.00015                                                                
E07  25794966.01725 -29798086.62125     -2602.91025        33.70025  25794977.40924 -17966408.90324     -1937.07824        26.50024
C26  24536690.90225 -30118227.03325      2302.75625        32.00025  24536694.20023 -21919288.13223      1730.31823        21.10023
C36  24465701.84725  -2216067.61225     -2679.71025        33.90025  24465742.01925 -16263022.46925     -2022.67825        29.90025
E26  24931688.15125 -21122534.23625     -3450.01025        30.80025  24931681.55625 -19637261.39325     -2576.25825        29.90025
C16  39594719.24625 -29300908.05225     -1664.51125        29.70025                                                                
R03  22674202.97624 121747251.06224     -2773.70824        29.30024
E19  24972116.36424 -30134962.88524       438.88824        27.60024  24972118.46224 -22510795.02424       323.83624        24.80024
C06  38215954.54524    469377.90724     -1567.46824        28.30024                                                                
C13  40035243.57824 -30144702.34124     -1469.84424        26.00024                                                                
R20  21514887.85324 115419851.52624      -519.58724        27.60024
E30  27436694.57223 -28916397.82423      -294.59523        21.90023                                                                
R13  23317582.17423 124884146.29023     -3923.97023        19.00023
E29  23759539.51325    376570.90925     -1056.94025        30.60025  23759421.69525  -5353156.37425      -792.35025        30.10025
> 2025 10 05 08 32 15.0000022  0 33                      
G04  20966570.44507    579547.32907     -1669.66507        42.80007  20966576.14107 -14877964.60607     -1247.43807        43.60007
G06  22886474.92326   -204610.20726       735.54326        35.60026  22886465.03025   1929932.38725       553.87725        32.40025
G09  21167816.32615 -28004985.11215       277.54415        35.30015  21167827.11824 -22474801.74124       214.02024        25.00024
G01  22953107.09525  -5576654.88225     -4322.46025        34.90025  22953081.91223 -19981846.28323     -3227.74123        20.80023
G26  23827811.54926 -22938094.49426     -1744.36726        36.10026  23827817.54524 -22613897.23524     -1304.55424        23.50024
G07  22690724.53825 -11891132.19325      1814.93625        33.80025                                                                
G16  23192341.17625 -28220794.51725       864.19625        31.10025                                                                
G31  24506857.35624 -26820078.62224     -4524.85324        29.00024                                                                
G03  20556483.44324    598744.20424     -1994.47324        25.80024  20556477.14724 -22466654.35824     -1484.15424        24.60024
C21  22561308.03107     45363.42307      -190.58407        46.50007  22561310.43016     26478.02716      -144.11616        37.90016
R14  20485873.92507 109570224.09407      -217.80107        44.40007
C22  23371133.20107  -4444452.01407     -2155.58107        42.80007  23371136.19926 -19013837.35726     -1626.06326        35.50026
R05  21536667.17626 115495856.03526       735.68226        39.10026
E33  23995835.02907   -940850.87607     -1044.38407        42.00007  23995731.00105 -15366730.14605      -779.83705        32.50005
R04  20480497.74607 110042812.71107     -1171.16307        43.50007
E27  27062587.16107 -26790492.57207      1311.97607        42.00007  27062602.15006 -18992878.87206       979.87206        39.80006
R15  21704287.43416 116351030.01116      2952.84716        36.50016
C34  24604221.85225 -29622432.65625     -2607.21725        34.60025  24604038.67824 -17003612.77024     -1964.87224        26.70024
R19  21493112.72827 115343947.53527     -4062.13327        43.70027
E07  25795467.56925 -29795489.60825     -2593.42425        33.70025  25795473.56524 -17964467.86824     -1942.70824        26.40024
C09  37833695.77705 -27980539.58505     -1219.20605        33.90005                                                                
C36  24466215.09225  -2213391.33725     -2673.77425        33.70025  24466238.17624 -16261000.36924     -2021.70824        29.40024
C26  24536267.59525 -30120531.86625      2304.83225        32.00025  24536237.01723 -21921023.67623      1738.54623        20.80023
E19  24972012.63524 -30489518.58724       441.23224        29.00024  24972021.03024 -22511118.90624       324.84424        24.70024
E26  24932315.91725 -21119081.93125     -3453.27825        30.70025  24932320.71425 -19634690.23125     -2568.41725        29.70025
C16  39595019.33825 -29299247.03025     -1658.80825        29.60025                                                                
R03  22674703.33024 121750009.95524     -2772.03124        29.20024
C06  38216214.46524    470940.05024     -1559.47424        28.20024                                                                
R20  21514894.14924 115419964.76324      -509.84724        27.50024
C13  40035520.58624 -30143235.75524     -1466.58524        25.80024                                                                
E30  27436688.27623 -28916105.89423      -289.87923        21.90023                                                                
R13  23318346.34523 124888306.56623     -3925.83223        18.80023
E29  23759750.26725    377626.96225     -1054.44925        30.30025  23759608.76525  -5352366.29325      -788.61425        30.20025
> 2025 10 05 08 32 16.0000028  0 33                      
G04  20966903.51507    581221.64207     -1675.61407        42.90007  20966910.41007 -14876714.43507     -1250.96107        43.20007
G06  22886354.10726   -205344.23326       733.38526        36.10026  22886341.81525   1929385.36925       544.21625        32.30025
G09  21167779.45125 -28005256.10025       268.48525        35.30025  21167777.65224 -22475013.74724       212.00624        24.60024
G01  22953990.58325  -5572324.20725     -4333.39425        34.80025  22953921.63123 -19978612.56823     -3236.55123        20.70023
G26  23828161.40726 -22936341.64826     -1755.10326        35.70026  23828164.40523 -22612586.22723     -1314.23423        23.40023
G03  20556881.56725    600741.19325     -1997.32925        33.20025  20556875.87124 -22465168.23424     -1485.47424        24.50024
G16  23192187.38325 -28221652.99525       856.12325        30.80025                                                                
G31  24507754.63524 -26815548.84824     -4530.40624        29.00024                                                                
G07  22690410.35625 -11892942.24225      1808.46525        33.80025                                                                
C21  22561361.09507     45558.32107      -196.24007        46.80007  22561364.09306     26624.93006      -148.03006        38.40006
C22  23371561.00507  -4442291.69707     -2161.22407        44.00007  23371567.00125 -19012208.29625     -1630.35925        35.20025
R14  20485928.48707 109570435.36707      -224.55607        44.40007
R05  21536548.75817 115495143.94617       732.54517        43.40017
E33  23996037.68907   -939801.43707     -1050.72907        42.00007  23995946.25205 -15365946.35805      -784.83205        32.00005
R04  20480736.68107 110044011.05507     -1177.22807        43.20007
E27  27062356.02107 -26791799.96207      1306.49607        41.80007  27062368.61206 -18993855.06006       975.42006        39.40006
R19  21493885.59327 115348001.07727     -4062.51027        42.40027
R15  21703700.74106 116347813.36006      2948.66706        36.30006
E29  23759809.02625 -30614096.80625     -1063.51225        32.60025  23759828.21325  -5351575.49325      -791.15925        30.40025
C34  24604706.91615 -29619821.75015     -2611.21615        34.60015  24604557.31924 -17001645.01924     -1967.75824        26.60024
E07  25795964.62525 -29792890.75125     -2599.77825        33.80025  25795985.31124 -17962527.66424     -1939.78824        26.20024
C09  37833947.60325 -27979314.34125     -1226.95925        33.80025                                                                
C36  24466753.51925  -2210710.62625     -2682.92825        33.60025  24466761.31424 -16258981.83824     -2016.74324        28.80024
C26  24535833.49625 -30122832.17525      2298.04625        32.10025  24535817.90723 -21922754.90523      1729.07123        20.50023
E26  24932989.85025 -21115630.45025     -3451.06625        30.70025  24932989.25124 -19632122.55724     -2565.93024        29.40024
C16  39595349.41025 -29297582.53525     -1666.22925        29.60025                                                                
E19  24971944.58224 -30489955.99724       437.40924        29.00024  24971953.87624 -22511438.93524       318.10424        24.60024
R03  22675189.59324 121752532.94324     -2775.82024        29.20024
C06  38216545.43624    472504.71024     -1565.91824        28.10024                                                                
R20  21515010.46824 115420508.00424      -512.82724        27.40024
C13  40035817.38024 -30141766.16224     -1471.09724        25.80024                                                                
E30  27436784.80923 -28915814.27823      -291.45823        21.90023                                                                
R13  23319135.69823 124892440.86723     -3935.61223        18.60023
> 2025 10 05 08 32 17.0000034  0 34                      
G04  20967217.69707    582897.90507     -1677.23707        43.70007  20967229.38907 -14875462.69607     -1252.52207        42.80007
G06  22886221.89816   -206074.57116       728.49416        40.60016  22886199.11425   1928840.51525       543.77225        32.10025
G09  21167742.87725 -28005522.66825       264.35925        35.20025  21167726.38824 -22475220.27024       203.78224        24.30024
G01  22954814.41325  -5567993.23225     -4331.12425        34.70025  22954742.46223 -19975376.84723     -3236.72323        20.60023
G26  23828479.48725 -22934586.21125     -1756.73025        35.30025                                                                
G03  20557278.49225    602741.92825     -2002.60625        33.10025  20557248.81324 -22463675.62424     -1495.85424        28.40024
G16  23192001.51125 -28222513.72325       861.85425        30.50025                                                                
G31  24508609.94224 -26811013.33124     -4538.38624        28.90024                                                                
G07  22690043.41025 -11894748.74225      1804.72425        33.80025                                                                
C21  22561395.27107     45754.86407      -197.36707        47.40007  22561400.66706     26772.96406      -148.59906        38.90006
C22  23371976.51707  -4440129.53807     -2163.07707        45.00007  23371979.81525 -19010576.96225     -1632.47025        35.10025
R14  20485961.76407 109570630.62407      -226.18707        44.30007
R05  21536406.95607 115494402.79507       731.49407        43.30007
E33  23996235.85207   -938749.79907     -1052.73607        42.50007  23996142.01725 -15365161.12725      -785.95325        31.70025
E27  27062095.50107 -26793105.89807      1305.20807        41.70007  27062115.58706 -18994830.19206       974.60206        38.70006
R04  20480959.42727 110045222.42227     -1177.53727        42.90027
R19  21494611.99016 115351905.37016     -4073.67116        41.40016
R15  21703147.62426 116344876.55326      2947.82326        36.20026
C36  24467261.96725  -2208029.03625     -2682.02725        33.60025  24467278.75524 -16256960.45424     -2022.81024        29.40024
E07  25796460.18225 -29790293.29425     -2596.75525        34.00025  25796458.98324 -17960584.86724     -1944.09324        26.10024
C34  24605212.36625 -29617208.15525     -2614.93825        34.50025  24605055.27524 -16999671.40424     -1976.54624        26.40024
E29  23759999.09525 -30613033.80525     -1063.00025        34.40025  23760023.97825  -5350782.17925      -794.57125        31.70025
C09  37834177.54415 -27978087.32915     -1227.89415        33.80015                                                                
C26  24535399.39625 -30125125.41125      2289.69725        32.10025  24535379.91023 -21924486.62023      1731.95723        20.20023
E26  24933627.80925 -21112174.79425     -3457.74125        31.20025  24933643.09824 -19629545.62524     -2581.55924        29.10024
R03  22675675.85624 121755153.20624     -2774.17424        29.40024
C16  39595675.88425 -29295912.32425     -1673.06825        29.60025                                                                
E19  24971861.84024 -30711137.39524       433.78724        28.80024  24971868.13524 -22511757.63224       318.03024        25.20024
C06  38216859.61924    474068.67124     -1563.61024        28.00024                                                                
C13  40036083.59624 -30140291.18024     -1477.67424        27.00024                                                                
R20  21515080.02024 115420897.45724      -520.18524        27.30024
E30  27436847.46623 -28915517.92523      -298.72223        21.90023                                                                
R13  23319943.93923 124896775.35223     -3947.20323        18.60023
E12  27094949.45722 -30256107.76822      1410.76522        17.00022                                                                
> 2025 10 05 08 32 18.0000039  0 34                      
G04  20967517.49017    584573.51917     -1676.04017        43.80017  20967536.37707 -14874210.25607     -1252.79007        42.40007
G06  22886070.20317   -206804.91717       730.35117        41.50017  22886045.32125   1928296.14325       544.13025        32.10025
G07  22689714.23825 -11896555.73825      1807.24425        34.40025                                                                
G01  22955651.13325  -5563660.11925     -4334.17925        34.60025  22955552.50223 -19972141.84923     -3234.63423        20.60023
G26  23828820.95125 -22932829.50725     -1757.33725        35.00025                                                                
G03  20557619.95625    604740.62325     -1997.67625        32.90025  20557616.65824 -22462182.57924     -1493.26124        27.90024
G16  23191817.73925 -28223377.47625       865.26425        30.20025                                                                
G31  24509462.55224 -26806473.27824     -4542.31924        28.70024                                                                
G09  21167685.91625 -28005797.09425       278.35425        35.10025  21167658.03524 -22475422.41524       199.95524        24.10024
C21  22561411.46008     45951.26608      -196.33108        47.50008  22561424.95106     26920.82206      -147.77106        39.10006
C22  23372375.24127  -4437967.52127     -2161.94627        45.10027  23372378.83925 -19008946.14225     -1630.56225        35.40025
R14  20486003.43507 109570930.36707      -225.81707        44.30007
R05  21536255.26117 115493670.05517       734.72817        43.30017
E33  23996437.91217   -937697.02917     -1053.33717        42.80017  23996330.58625 -15364370.61525      -793.15225        31.50025
E27  27061834.08207 -26794411.74607      1305.80407        42.00007  27061853.26906 -18995805.46206       975.33906        38.50006
R04  20481159.68817 110046372.49117     -1178.38817        42.50017
R19  21495371.66426 115356047.69626     -4072.32826        40.80026
R15  21702570.22326 116341869.39726      2950.06826        36.00026
C36  24467749.13025  -2205348.61425     -2679.83825        34.10025  24467780.60824 -16254941.56124     -2017.64624        29.30024
C34  24605520.25325 -30506290.23225     -2612.32825        34.30025  24605533.14424 -16997700.22324     -1969.96424        28.20024
E29  23760178.07125 -30611972.33925     -1060.69925        34.30025  23760193.06125  -5349990.40425      -791.00625        31.50025
E07  25796927.85825 -29787693.20225     -2601.40925        34.00025  25796953.34124 -17958640.45724     -1945.21524        25.90024
C09  37834390.39725 -27976860.30125     -1227.03725        33.70025                                                                
C26  24534961.99925 -30127422.15825      2298.50225        32.10025  24534925.72423 -21926218.32823      1731.70323        20.00023
E26  24934295.74625 -21108720.66925     -3453.35925        31.60025  24934287.35224 -19626966.08524     -2580.84324        28.70024
R03  22676185.80325 121757961.88725     -2777.72925        30.60025
E19  24971759.91024 -30711570.70424       433.30924        29.40024  24971769.50424 -22512077.27524       320.11724        25.00024
C16  39595985.27025 -29294243.73625     -1667.77625        29.60025                                                                
C06  38217150.71724    475630.93324     -1561.41324        28.10024                                                                
C13  40036349.81224 -30138818.99124     -1470.79224        27.40024                                                                
R20  21515144.47524 115421319.80724      -522.29124        27.10024
E30  27436845.06723 -28915219.59623      -299.31723        22.10023  27436755.72923 -22335136.12523      -218.44823        18.80023
R13  23320676.33223 124900765.24523     -3954.60723        18.50023
E12  27094652.36222 -30257515.59322      1407.82522        17.10022                                                                
> 2025 10 05 08 32 19.0000045  0 33                      
G04  20967855.95507    586246.02507     -1670.70107        43.80007  20967875.14227 -14872959.93627     -1249.26027        41.90027
G06  22885949.08716   -207539.32416       736.43616        41.40016  22885920.30725   1927744.28125       555.60625        32.00025
G07  22689359.58325 -11898368.67625      1815.90725        34.90025                                                                
G01  22956487.85425  -5559333.26925     -4323.71625        34.70025  22956389.52223 -19968910.17523     -3230.00923        20.50023
G26  23829155.21925 -22931077.57925     -1749.53825        34.60025                                                                
G03  20557996.79515    606736.04115     -1993.77715        32.70015  20558011.78524 -22460691.42224     -1490.21224        27.50024
G16  23191655.55125 -28224242.49125       865.64625        29.90025                                                                
G09  21167643.04625 -28006074.70625       279.20425        35.00025  21167622.66024 -22475627.10324       205.96024        24.10024
C21  22561470.51908     46142.80608      -189.10808        47.50008  22561475.31606     27065.37906      -142.90606        38.50006
R14  20486060.09607 109571152.31307      -219.79207        44.20007
C22  23372800.34727  -4435811.65927     -2152.78327        45.00027  23372808.74125 -19007317.79325     -1627.11325        35.20025
E27  27061605.04107 -26795722.08807      1312.58807        42.60007  27061619.13106 -18996783.90206       980.02406        38.40006
E33  23996663.05607   -936646.66107     -1049.16507        42.70007  23996545.53725 -15363584.11625      -784.49325        32.60025
R05  21536119.75527 115492866.18127       742.08627        43.10027
R04  20481385.43217 110047501.87317     -1169.44117        42.30017
R19  21496154.12226 115360152.51726     -4061.78226        40.20026
E29  23760408.61115 -30610915.91715     -1053.14915        34.50015  23760407.71225  -5349202.09525      -786.57525        33.40025
R15  21702032.39616 116338914.23216      2955.98516        35.90016
C36  24468286.35825  -2202673.12625     -2673.01825        34.60025  24468303.14624 -16252926.04524     -2013.82624        29.00024
E07  25797435.40725 -29785097.96225     -2592.81125        33.90025  25797456.69224 -17956700.33424     -1937.98024        27.60024
C09  37834657.21225 -27975637.34125     -1220.92525        33.70025                                                                
C34  24606039.79325 -30503681.66525     -2608.56625        34.20025  24606052.68424 -16995734.46624     -1963.04324        27.80024
E26  24934964.58325 -21105270.92625     -3447.54925        31.90025  24934957.38824 -19624389.86224     -2574.56224        28.30024
C26  24534529.69925 -30129726.19825      2307.68525        32.00025  24534499.12023 -21927955.94023      1740.56423        19.80023
R03  22676747.61425 121760887.75325     -2770.61625        30.60025
C16  39596309.94525 -29292579.44225     -1662.14625        29.60025                                                                
E19  24971693.05725 -30712008.64725       440.25925        29.70025  24971700.55124 -22512404.31724       330.74024        24.90024
C06  38217433.72124    477189.42024     -1556.59824        28.20024                                                                
C13  40036669.09124 -30137352.71524     -1463.31924        27.70024                                                                
R20  21515248.80324 115421798.01024      -511.23824        27.10024
E30  27436890.33623 -28914925.82623      -291.48923        22.20023  27436829.77813 -22334916.30013      -220.51413        18.90013
R13  23321401.82923 124904558.77523     -3954.48123        18.50023
E12  27094408.03222 -30258923.44722      1407.86722        17.20022                                                                
> 2025 10 05 08 32 20.0000050  0 34                      
G04  20968164.44207    587916.45007     -1669.38407        43.70007  20968185.42726 -14871711.50126     -1247.49226        41.40026
G06  22885817.17826   -208276.26326       738.20626        41.30026  22885767.71325   1927196.45625       545.80725        32.40025
G07  22689005.52825 -11900182.54625      1814.33525        35.20025                                                                
G01  22957348.85815  -5555009.65715     -4321.99215        34.70015  22957197.16323 -19965679.39223     -3230.33723        20.40023
G26  23829477.19625 -22929324.11225     -1754.23725        34.30025                                                                
G03  20558355.94615    608730.11815     -1993.40615        32.60015  20558376.33224 -22459202.41024     -1487.93924        27.20024
G16  23191541.03025 -28225111.47625       870.96925        29.60025                                                                
G31  24511179.16424 -26797410.61524     -4528.74924        27.60024                                                                
G09  21167556.10625 -28006352.82125       278.36725        34.90025  21167554.30724 -22475833.97324       207.96124        24.70024
C21  22561492.70408     46332.86608      -189.32008        47.50008  22561492.10406     27208.57606      -142.51606        38.30006
R14  20486085.57807 109571368.16107      -220.90407        44.60007
C22  23373202.06917  -4433655.53817     -2156.25017        44.90017  23373204.76725 -19005692.26625     -1624.11625        34.90025
E27  27061337.02607 -26797033.66907      1312.20007        42.90007  27061353.81506 -18997763.24806       979.79806        37.90006
E33  23996839.33407   -935598.32207     -1046.57507        42.60007  23996731.40925 -15362798.29825      -785.47725        32.40025
R05  21535979.15217 115492193.86717       739.10517        42.90017
E29  23760597.78006 -30609859.97706     -1055.94806        36.80006  23760594.18325  -5348412.45325      -790.30925        34.40025
R04  20481587.19227 110048662.67227     -1170.96827        42.00027
R19  21496920.09226 115364330.81826     -4060.15226        39.70026
R15  21701471.48426 116335997.30126      2956.76326        35.80026
C36  24468768.12425  -2199997.06725     -2676.34425        34.90025  24468789.70924 -16250907.18024     -2020.53924        28.70024
C34  24606525.15725 -30501073.57425     -2607.85125        34.10025  24606537.14924 -16993776.26124     -1954.42924        27.40024
E07  25797949.25125 -29782503.74325     -2593.70825        33.80025  25797935.76124 -17954763.17024     -1935.68224        27.50024
C09  37834871.86325 -27974414.30125     -1223.07925        33.60025                                                                
E26  24935598.94425 -21101824.53525     -3444.71325        32.30025  24935600.14324 -19621824.97524     -2559.21824        27.90024
C26  24534087.50525 -30132034.78425      2310.85725        32.00025  24534041.63623 -21929697.40123      1743.38323        19.70023
R03  22677186.21125 121763316.53025     -2766.71525        30.80025
C16  39596626.52625 -29290919.57525     -1657.65325        29.90025                                                                
E19  24971599.52124 -30980630.53424       445.28724        29.30024  24971604.31824 -22512735.89124       333.84124        24.70024
C06  38217724.52024    478744.90424     -1553.98224        28.50024                                                                
C13  40036923.01524 -30135888.60924     -1463.02124        27.70024                                                                
R20  21515332.14524 115422322.89024      -514.97424        27.00024
E30  27436933.80623 -28914637.26523      -285.95723        22.20023  27436872.34923 -22334694.98723      -222.05723        18.90023
R13  23322114.43623 124908443.22823     -3954.92623        18.50023
E12  27094154.10722 -30260331.69222      1408.44022        17.20022                                                                
> 2025 10 05 08 32 21.0000056  0 32                      
G04  20968499.91007    589587.25807     -1670.99707        43.60007  20968518.49726 -14870465.66826     -1244.53026        40.20026
G06  22885676.27626   -209011.39426       734.22626        41.20026  22885643.29925   1926649.81425       546.05025        32.60025
G07  22688676.35625 -11901992.15225      1807.47325        35.20025                                                                
G09  21167521.03025 -28006630.28225       277.13425        34.80025  21167518.63224 -22476039.30524       204.56324        25.50024
G03  20558755.86905    610724.45605     -1994.46805        32.60005  20558770.85924 -22457712.87924     -1489.79124        26.90024
G26  23829818.06025 -22927568.85425     -1756.15125        33.90025                                                                
G01  22958170.58915  -5550687.06415     -4322.08015        34.80015  22958032.68523 -19962448.92223     -3230.31123        20.40023
C21  22561543.36908     46523.14308      -190.38608        47.60008  22561541.27006     27351.95306      -143.46606        37.90006
R14  20486143.43807 109571597.73607      -222.18207        45.00007
C22  23373626.27527  -4431499.33527     -2156.24227        44.70027  23373633.47025 -19004064.86225     -1628.34125        34.40025
E27  27061105.58607 -26798345.56307      1312.05007        42.90007  27061119.97606 -18998742.82706       979.69506        37.80006
E29  23760802.53907 -30608803.73907     -1056.38707        43.10007  23760810.03416  -5347624.06516      -787.76016        35.70016
E33  23997065.67707   -934549.80907     -1049.59907        42.50007  23996945.16125 -15362012.55825      -785.70025        32.00025
R05  21535869.12817 115491526.13917       738.78517        42.60017
R04  20481832.42217 110049895.49017     -1171.28917        41.80017
R19  21497699.85226 115368421.09726     -4068.99726        39.20026
R15  21700907.27516 116332902.21916      2954.30616        35.80016
C36  24469290.66325  -2197318.07225     -2680.46125        34.90025  24469318.24324 -16248884.95024     -2023.91124        28.20024
C34  24607046.19625 -30498465.70225     -2607.76125        34.50025  24607054.29124 -16991815.75224     -1961.66024        27.10024
E07  25798440.31125 -29779907.38625     -2597.42525        33.70025  25798442.41024 -17952821.98424     -1943.19624        27.00024
C09  37835110.49825 -27973191.61225     -1222.51225        33.50025                                                                
E26  24936267.48125 -21098381.05825     -3442.01925        32.40025  24936264.78324 -19619261.00824     -2563.50624        27.20024
R03  22677706.05125 121766018.74525     -2771.13125        31.00025
C16  39596947.30425 -29289257.10225     -1663.77525        29.90025                                                                
C06  38218035.70424    480302.41024     -1558.51524        28.90024                                                                
E19  24971523.07424 -30981071.65624       441.12224        29.00024  24971534.16724 -22513069.45924       334.56424        24.60024
C13  40037245.29224 -30134421.54324     -1468.54424        27.60024                                                                
R20  21515441.27024 115422827.10824      -522.77824        27.10024
E30  27437006.65623 -28914349.24123      -287.75623        22.10023  27437091.19724 -22334475.04524      -219.25524        24.50024
R13  23322904.68923 124912584.40523     -3961.38723        19.00023
E12  27093913.07422 -30261735.54822      1401.66122        17.10022                                                                
C26  24533658.50225 -30134337.04025      2299.09025        31.90025  24533619.82823 -21931430.98323      1729.64223        19.60023
> 2025 10 05 08 32 22.0000061  0 34                      
G04  20968812.59317    591259.43917     -1672.86717        43.40017  20968820.38826 -14869220.20026     -1245.28726        39.90026
G06  22885497.89916   -209743.37816       730.41116        41.10016  22885490.70425   1926102.84225       547.13625        32.60025
G09  21167448.78025 -28006906.46425       275.54225        34.80025  21167452.07824 -22476244.32824       204.87024        26.10024
G07  22688341.48825 -11903804.18925      1813.25125        35.20025                                                                
G01  22958948.85025  -5546356.25225     -4334.92025        34.80025  22958839.42623 -19959217.83123     -3231.40023        20.20023
G03  20559123.71525    612719.06925     -1994.75025        32.50025  20559134.50724 -22456222.82824     -1490.30924        26.80024
G16  23191248.73324 -28226841.66824       863.35524        28.40024                                                                
G31  24512937.44724 -26788346.55724     -4539.60724        27.30024                                                                
G26  23830144.83425 -22925816.25525     -1751.26925        33.50025                                                                
C21  22561562.85508     46714.69508      -192.18908        47.60008  22561565.55316     27496.19116      -144.66916        37.90016
R14  20486165.92207 109571797.56707      -224.98407        45.40007
C05  37229883.78817 -30821153.70517      -897.31117        43.40017                                                                
E27  27060843.26807 -26799656.07307      1309.81607        42.90007  27060855.56006 -18999721.51406       978.24106        37.60006
C22  23374028.89717  -4429341.28617     -2158.97117        44.40017  23374033.39325 -19002439.98625     -1623.61125        34.30025
E29  23760985.71207 -30607746.31007     -1058.02407        43.00007  23760997.70405  -5346834.34905      -790.38005        35.30005
R15  21700349.66106 116330003.64006      2952.04106        37.10006
R04  20482031.18507 110051039.43307     -1174.89307        41.60007
E33  23997232.66217   -933499.67717     -1049.94217        41.50017  23997132.53125 -15361226.96025      -785.52725        31.80025
R19  21498451.43216 115372522.09216     -4064.02516        38.80016
R05  21535714.43527 115490779.63327       738.02527        41.80027
C36  24469801.50925  -2194641.26825     -2675.70725        34.90025  24469823.99314 -16246863.46814     -2021.10714        27.60014
C34  24607544.15225 -30495855.98525     -2610.63925        34.50025  24607541.75324 -16989851.23924     -1966.51424        27.00024
E07  25798902.89115 -29777310.86415     -2596.60215        33.60015  25798912.78424 -17950881.23524     -1940.52924        26.40024
C09  37835339.83915 -27971969.93515     -1221.17115        33.40015                                                                
E26  24936891.34925 -21094937.06825     -3444.24425        32.40025  24936903.64124 -19616691.02624     -2572.98824        26.90024
R03  22678288.54825 121769218.05425     -2778.04825        31.20025
C16  39597245.89725 -29287596.13625     -1660.21225        30.30025                                                                
C06  38218320.50724    481859.03524     -1556.18424        28.90024                                                                
E19  24971429.83924 -30981509.93024       436.85024        28.90024  24971434.93524 -22513403.24524       333.89524        24.50024
R20  21515549.79524 115423487.41224      -512.18024        27.10024
E30  27437009.95323 -28914061.17823      -288.08223        22.10023  27437137.36524 -22334253.32524      -222.61024        24.30024
R13  23323593.91223 124916343.55323     -3968.44123        19.40023
E12  27093607.58622 -30263134.12422      1395.93522        17.10022                                                                
C26                                                                  24533160.54613 -21933166.75513      1736.86613        19.50013
> 2025 10 05 08 32 23.0000067  0 34                      
G04  20969145.96227    592928.67827     -1667.76727        43.30027  20969154.95626 -14867972.14726     -1249.34326        39.50026
G06  22885408.86106   -210476.90506       734.29806        41.00006  22885367.79025   1925557.54325       544.46325        32.60025
G09  21167409.20825 -28007184.26625       278.61225        35.30025  21167414.90414 -22476450.34614       206.51414        27.60014
G07  22687984.13525 -11905618.04525      1814.76525        35.20025                                                                
G01  22959742.70115  -5542030.02715     -4323.92915        34.70015  22959677.94623 -19955986.65923     -3231.21023        20.10023
G03  20559538.62815    614714.66515     -1996.08615        32.50015  20559530.83324 -22454732.51324     -1490.44724        26.60024
G16  23191118.32324 -28227708.94124       867.27324        28.60024                                                                
G31  24513819.43624 -26783810.32024     -4536.23424        27.30024                                                                
G26  23830501.58725 -22924064.07425     -1751.97125        33.20025                                                                
C21  22561613.52008     46904.40708      -188.79108        47.60008  22561618.61606     27639.20006      -142.39406        37.90006
R14  20486228.27917 109572050.02017      -222.14117        45.40017
C22  23374460.59807  -4427185.17407     -2155.14207        44.20007  23374463.59625 -19000815.59625     -1624.14625        34.30025
E27  27060606.13207 -26800967.98007      1311.85507        42.90007  27060621.12206 -19000701.37706       980.45106        37.40006
C05  37230072.65727 -30820262.50627      -891.19827        43.30027                                                                
E29  23761208.45827 -30606689.62127     -1056.31827        42.70027  23761216.25205  -5346046.06905      -787.56105        35.10005
R04  20482280.31216 110052294.46516     -1168.68816        41.30016
R15  21699798.94206 116326979.66006      2954.92006        40.40006
R05  21535578.03016 115489970.40616       739.55716        41.30016
E33  23997494.08126   -932447.91526     -1052.82626        40.90026  23997348.38125 -15360439.95925      -787.70125        31.70025
R19  21499249.47916 115376710.34216     -4059.91016        38.50016
C36  24470331.84225  -2191961.78825     -2680.81725        34.90025  24470351.02804 -16244843.11704     -2019.78504        27.10004
E07  25799404.14425 -29774715.30525     -2595.07725        33.50025  25799435.02314 -17948941.43514     -1939.32514        26.20014
C09  37835597.96125 -27970745.69825     -1225.51625        33.30025                                                                
E26  24937577.87425 -21091485.56625     -3455.25625        32.30025  24937573.07724 -19614114.08624     -2580.41824        26.50024
R03  22678879.73825 121772301.70325     -2774.63225        31.50025
C26  24532761.22325 -30138947.33525      2304.75725        31.20025  24532730.94403 -21934903.30403      1736.93703        19.50003
C16  39597580.76525 -29285930.49725     -1667.97425        30.60025                                                                
E19  24971369.28124 -30981949.51624       440.24124        29.00024  24971367.48224 -22513732.50024       326.98924        24.50024
C06  38218634.99024    483415.99024     -1557.12024        29.10024                                                                
R20  21515700.29124 115424211.98924      -512.68324        27.10024
E30  27437100.49123 -28913772.78623      -288.55623        22.00023  27437205.41825 -22334031.51825      -221.84925        29.80025
R13  23324412.94523 124920638.30123     -3963.03823        19.50023
E12  27093390.83622 -30264532.08722      1397.65622        17.00022                                                                
C34                                                                  24608055.29824 -16987885.49124     -1966.36324        25.90024
> 2025 10 05 08 32 24.0000072  0 35                      
G04  20969448.75317    594591.52717     -1659.65417        43.20017  20969456.54726 -14866727.83926     -1242.43626        38.40026
G09  21167359.44226 -28007470.34926       290.22326        35.50026  21167345.05206 -22476661.43006       213.61706        36.50006
G07  22687619.58815 -11907438.62215      1823.93515        35.10015                                                                
G01  22960516.76525  -5537714.69925     -4309.87825        34.70025  22960485.28723 -19952764.63423     -3217.44923        20.00023
G03  20559910.97025    616706.02725     -1989.24525        32.40025  20559894.48124 -22453247.43824     -1482.45524        26.30024
G26  23830817.86825 -22922319.30225     -1741.06725        32.90025  23830811.27323 -22968027.32223     -1303.58223        19.60023
G16  23190954.63624 -28228581.85724       875.73624        28.80024                                                                
G31  24514678.04224 -26779285.51924     -4519.08124        27.30024                                                                
G06  22885291.34206   -211218.19206       745.16606        40.80006  22885208.60025   1925004.98325       556.19025        32.20025
C21  22561642.00008     47087.06508      -179.13208        47.90008  22561640.50106     27776.87506      -135.00906        37.90006
R14  20486250.76407 109572247.55707      -213.58607        45.40007
C22  23374859.32207  -4425036.48907     -2144.97107        44.10007  23374862.32015 -18999196.33315     -1616.69915        34.30015
E27  27060340.81607 -26802287.07707      1322.94107        42.80007  27060355.80506 -19001686.23306       987.35106        36.20006
C05  37230225.55117 -30819379.32617      -879.17117        43.10017                                                                
R15  21699226.33806 116323999.26306      2965.66906        41.00006
E29  23761398.82617 -30605641.70417     -1044.28017        42.40017  23761401.22405  -5345263.06305      -780.36905        35.10005
R04  20482473.97806 110053409.28706     -1159.78706        41.10006
R05  21535424.23606 115489226.19106       750.00206        41.00006
E33  23997515.06616 -31354879.29216     -1041.93916        40.50016  23997533.35325 -15359657.93025      -779.54225        31.60025
R19  21499986.36926 115380731.73326     -4054.18826        38.20026
C36  24470834.59425  -2189290.39125     -2667.35425        35.10025  24470855.57924 -16242828.18024     -2012.22924        26.90024
C34  24608523.57415 -30490645.41915     -2598.08415        34.40015  24608542.46124 -16985925.79824     -1956.66424        26.70024
E07  25799874.81815 -29772127.94615     -2583.25715        33.50015  25799913.49214 -17947006.84414     -1931.98414        25.90014
C09  37835802.11925 -27969529.24625     -1212.55925        33.20025                                                                
E26  24938219.73025 -21088044.64025     -3435.63625        32.30025  24938219.43024 -19611542.61824     -2568.73124        26.20024
C16  39597883.85525 -29284276.96025     -1647.48525        31.30025                                                                
R03  22679341.41925 121774852.25825     -2759.63725        31.80025
C26  24532281.85525 -30141257.01925      2309.68225        31.40025  24532271.36223 -21936644.96723      1744.21823        19.50023
C06  38218923.98924    484964.92524     -1544.92324        29.10024                                                                
E19  24971251.76224 -31365336.11324       452.72124        28.70024  24971268.55124 -22514064.31324       333.09224        24.40024
R20  21515811.21424 115424883.00424      -506.54224        27.10024
C13  40038019.65624 -31079066.99124     -1465.92724        23.80024                                                                
E30  27437098.09223 -28913489.94223      -280.06923        22.00023  27437248.28824 -22333815.60324      -212.97024        29.10024
R13  23325224.78323 124925050.71323     -3951.81123        19.50023
E12  27093105.13422 -30265942.07922      1416.00522        17.00022                                                                
> 2025 10 05 08 32 25.0000077  0 35                      
G04  20969774.02807    596253.79707     -1661.98007        43.00007  20969777.02526 -14865487.95326     -1237.67326        38.10026
G06  22885144.14406   -211961.71806       744.64506        40.70006  22885073.09425   1924448.93425       557.79425        32.20025
G07  22687304.80625 -11909260.70025      1822.82925        35.10025                                                                
G01  22961299.52315  -5533402.23715     -4311.02615        34.70015  22961290.52924 -19949544.38924     -3219.35524        25.00024
G26  23831138.04615 -22920576.77415     -1741.40415        32.80015  23831146.14124 -22966727.42724     -1298.04924        28.30024
G03  20560280.91425    618695.03125     -1987.82325        32.30025  20560274.91824 -22451769.30424     -1474.66224        26.10024
G16  23190808.63724 -28229462.39024       884.34224        28.80024                                                                
G31  24515545.34124 -26774767.05924     -4515.28724        27.20024                                                                
G09  21167302.48126 -28007754.58426       283.31126        35.50026  21167294.38706 -22476875.04506       214.88106        35.50006
C21  22561677.97508     47265.20708      -175.88408        47.90008  22561678.57506     27910.57506      -131.71206        37.80006
R14  20486294.83307 109572464.17107      -213.87907        45.40007
C22  23375269.13807  -4422890.09507     -2145.24807        44.00007  23375278.13205 -18997578.71005     -1616.80205        34.30005
E27  27060091.98807 -26803606.92407      1320.22207        42.80007  27060106.67825 -19002672.06525       986.32025        34.60025
C05  37230403.32807 -30818497.73607      -880.79407        43.00007                                                                
R15  21698671.42206 116321015.05306      2963.57706        41.30006
E33  23997731.21606 -31353837.71106     -1041.58106        40.50006  23997732.71525 -15358881.35825      -773.84425        31.40025
E29  23761592.49207 -30604598.02507     -1041.31007        42.20007  23761602.38506  -5344484.10406      -776.93506        37.00006
R04  20482708.11606 110054645.94306     -1159.28806        40.90006
R05  21535269.84306 115488384.08006       750.31706        40.80006
R19  21500725.95726 115384670.46926     -4046.74326        38.00026
C16  39598210.03015 -29282624.78415     -1651.49415        34.70015                                                                
C34  24609026.92505 -30488045.60405     -2599.81305        35.10005  24609040.11625 -16983967.66225     -1957.35725        32.80025
C36  24471334.64825  -2186621.62025     -2667.45625        35.10025  24471364.32725 -16240817.22325     -2008.96625        31.50025
E07  25800392.56025 -29769543.52125     -2582.95725        33.40025  25800405.45124 -17945076.65824     -1927.98324        25.70024
C09  37836025.16525 -27968318.18325     -1208.36825        33.10025                                                                
R03  22679778.21615 121777172.27815     -2756.12615        32.30015
E26  24938868.78025 -21084609.05825     -3433.65725        32.30025  24938876.27524 -19608975.08424     -2565.56624        25.80024
C26  24531898.12025 -30143572.50925      2318.39325        31.40025  24531829.76823 -21938391.23823      1748.57423        19.50023
C06  38219214.78824    486512.25624     -1546.52824        29.20024                                                                
E19  24971173.81624 -31365790.31524       454.20224        28.50024  24971185.80824 -22514398.96624       336.07424        24.30024
R20  21515936.82724 115425537.95824      -498.65324        27.00024
C13  40038339.83424 -31077609.58424     -1457.40724        24.50024                                                                
E30  27437147.55823 -28913212.25123      -275.11623        22.00023  27437147.85824 -22333605.49624      -207.20224        27.50024
R13  23325869.93623 124928478.26323     -3943.34123        19.60023
E12  27092835.62022 -30267365.71622      1430.46022        17.00022                                                                
> 2025 10 05 08 32 26.0000083  0 35                      
G04  20970096.90427    597917.73927     -1664.77627        42.60027  20970111.59426 -14864243.60526     -1246.57926        37.70026
G09  21167262.30926 -28008041.30526       287.96326        35.50026  21167255.11415 -22477088.93415       214.02515        34.80015
G07  22686970.83725 -11911079.78025      1817.58025        35.10025                                                                
G26  23831486.70505 -22918828.22905     -1751.55205        33.70005  23831495.99924 -22965422.31424     -1307.72224        27.50024
G03  20560671.54325    620684.51925     -1989.72925        32.10025  20560668.24624 -22450290.10024     -1479.73724        25.90024
G06  22885007.73916   -212706.04316       744.72516        39.80016  22884945.08225   1923894.75725       553.24025        32.20025
G16  23190598.48324 -28230345.47224       884.35524        28.80024                                                                
G31  24516416.53824 -26770246.08624     -4522.22724        27.20024                                                                
G01  22962150.93425  -5529085.84225     -4318.35925        34.70025  22962142.54024 -19946325.95624     -3217.52524        24.20024
C21  22561725.64208     47442.24408      -176.48508        47.80008  22561726.54206     28044.19106      -133.57306        37.60006
R14  20486352.69307 109572692.98807      -221.46407        45.30007
C22  23375702.93807  -4420740.53307     -2151.14407        43.90007  23375705.63605 -18995958.65505     -1621.27005        34.60005
C05  37230587.10127 -30817613.09227      -886.17127        42.80027                                                                
E33  23997937.17406 -31352796.62806     -1040.83206        41.10006  23997946.16815 -15358103.07415      -779.14015        31.30015
E29  23761811.04127 -30603555.08727     -1042.56727        41.90027  23761812.53906  -5343705.30806      -778.71506        36.20006
R15  21698128.49826 116318033.89726      2963.37026        41.20026
C16  39598533.20616 -29280974.60716     -1649.17716        37.90016                                                                
R05  21535143.33026 115487627.62826       751.63526        40.40026
R19  21501477.83716 115388612.26316     -4055.33216        37.70016
C34  24609546.46506 -30485440.93606     -2607.09406        35.50006  24609556.95825 -16982003.37025     -1967.37025        32.10025
C36  24471897.35825  -2183950.10725     -2672.88325        35.10025  24471896.45925 -16238807.75625     -2008.72125        30.80025
E07  25800900.10925 -29766954.84825     -2591.54525        33.40025  25800910.60124 -17943151.42224     -1922.76024        25.40024
C09  37836281.48725 -27967107.04425     -1211.17625        33.00025                                                                
R03  22680396.68825 121780403.75325     -2760.59025        32.70025
E26  24939540.31625 -21081173.05825     -3435.95825        32.20025  24939553.50624 -19606404.05224     -2572.77924        25.50024
E19  24971106.96225 -31558027.87325       452.18825        30.90025  24971113.85824 -22514737.32924       340.21824        24.30024
C26  24531529.07625 -30145890.35725      2319.02525        31.60025  24531399.86523 -21940137.53823      1746.31423        19.90023
R04  20482960.54126 110055917.07626     -1166.03026        39.50026
C06  38219531.66925    488060.12125     -1548.13125        29.60025                                                                
R20  21515948.81924 115425521.12624      -512.96824        27.00024
C13  40038639.32724 -31076159.54324     -1446.35624        25.90024                                                                
R13  23326535.47623 124931953.18223     -3941.64223        19.90023
E12  27092588.59122 -30268798.72222      1437.68822        17.00022                                                                
E30  27437199.12223 -28912933.35423      -279.50023        21.90023  27437372.40224 -22333394.26624      -211.79324        27.10024
E27                                                                  27059871.34125 -19003658.34725       986.50725        34.50025
> 2025 10 05 08 32 27.0000088  0 35                      
G04  20970402.09327    599588.53427     -1674.22127        41.70027  20970414.08426 -14862991.72326     -1255.64826        35.70026
G07  22686606.28925 -11912896.62125      1815.72025        35.00025                                                                
G01  22962992.75125  -5524768.88725     -4317.23325        34.60025  22962953.17824 -19943099.44224     -3230.55224        23.70024
G26  23831815.57715 -22917073.51515     -1757.79815        33.80015  23831811.98025 -22964112.40025     -1312.31425        31.70025
G06  22884818.87026   -213443.22726       733.61326        38.50026  22884790.38925   1923344.95625       547.61225        32.20025
G03  20561044.18525    622676.64925     -1993.45125        32.10025  20561035.19224 -22448803.76224     -1489.90524        25.60024
G16  23190422.80424 -28231215.90124       864.10224        28.70024                                                                
G31  24517265.85024 -26765718.71024     -4530.57624        27.20024                                                                
G09  21167191.25816 -28008321.56716       277.03316        35.70016  21167187.06115 -22477298.55715       207.49115        34.20015
C21  22561745.72808     47625.98008      -187.08508        47.70008  22561746.02816     28181.21916      -138.73516        37.00016
R14  20486381.17307 109572924.85507      -227.78907        45.30007
C22  23376098.96307  -4418586.01707     -2156.99107        43.90007  23376105.25905 -18994335.06005     -1625.36405        35.00005
C16  39598838.99406 -29279321.23806     -1654.96506        41.40006                                                                
E33  23998121.84606 -31351750.17206     -1049.14306        41.40006  23998132.03915 -15357320.85415      -784.18715        31.10015
E29  23761991.51617 -30602506.55617     -1050.57717        41.80017  23761996.31206  -5342923.06306      -783.96806        35.90006
R15  21697550.79816 116315027.51416      2948.55616        41.10016
R19  21502225.21916 115392690.29716     -4061.09816        37.50016
C34  24610038.12516 -30482830.87916     -2612.75016        35.80016  24609896.92325 -16980038.53025     -1965.11325        30.90025
C36  24472392.91515  -2181274.08015     -2678.28215        35.00015  24472394.11425 -16236791.44625     -2019.73125        30.10025
C05  37230745.69127 -30816724.08127      -891.19427        41.50027                                                                
C09  37836499.13725 -27965890.23125     -1219.65025        33.10025                                                                
E07  25801360.59025 -29764365.83725     -2588.92925        33.40025  25801386.97124 -17941218.29624     -1937.06924        25.10024
R03  22680911.73225 121783240.01025     -2770.23825        32.70025
E19  24971017.32425 -31558478.38625       450.51225        32.10025  24971014.02724 -22515067.47924       326.04324        26.50024
E26  24940177.97425 -21077730.88125     -3445.26425        32.20025  24940195.96224 -19603828.52324     -2577.77724        25.10024
C26  24531048.50925 -30148203.35425      2310.57025        31.60025  24530945.08023 -21941881.09823      1742.18923        20.00023
C06  38219805.97925    489610.50425     -1551.64125        30.80025                                                                
R04  20483158.40526 110057057.18626     -1168.60426        38.30026
R05  21534981.74226 115486844.40926       745.23526        39.20026
C13  40038916.33524 -31074702.87124     -1459.98824        27.00024                                                                
R20  21515980.29724 115425769.79224      -520.64924        26.90024
E27  27059600.32926 -26806222.64826      1298.30426        37.60026  27059601.52825 -19004637.55925       975.67625        34.30025
E30  27437224.00523 -28912651.94123      -282.67023        21.90023  27437412.87424 -22333179.07824      -217.16624        26.80024
R13  23327299.04723 124936110.40323     -3944.65023        20.10023
E12  27092274.40922 -30270236.59922      1440.31322        17.10022                                                                
> 2025 10 05 08 32 28.0000094  0 35                      
G09  21167137.89506 -28008596.73606       272.62306        36.10006  21167131.60025 -22477503.60525       202.75925        33.70025
G04  20970727.66726    601259.60626     -1671.20926        40.80026  20970733.96325 -14861732.83225     -1262.39425        35.40025
G07  22686275.61825 -11914706.85125      1806.92325        35.00025                                                                
G01  22963862.14925  -5520446.33125     -4325.35425        34.50025  22963768.01424 -19939867.51124     -3234.63724        24.30024
G06  22884672.87116   -214174.47016       728.27116        37.60016  22884647.38825   1922799.19125       543.74825        32.80025
G03  20561406.93425    624676.11325     -2003.13025        32.20025  20561406.63424 -22447310.46624     -1496.77324        25.30024
G16  23190203.05624 -28232077.54724       857.25424        28.90024                                                                
G31  24518110.06624 -26761184.92724     -4536.98324        27.20024                                                                
G26  23832135.15605 -22915313.67205     -1762.40605        34.20005  23832143.25125 -22962798.37425     -1316.08225        30.80025
C21  22561779.60508     47816.16608      -193.41008        47.60008  22561777.50626     28322.98726      -144.13726        36.10026
R14  20486422.24507 109573162.06207      -234.59507        45.20007
C22  23376515.97507  -4416426.05407     -2162.68607        43.90007  23376516.27505 -18992707.36705     -1629.74105        34.90005
C16  39599153.17707 -29277662.62407     -1661.23507        42.30007                                                                
E33  23998316.71107 -31350697.84907     -1055.25607        41.50007  23998325.70525 -15356534.78125      -787.99925        31.00025
E29  23762193.57627 -30601453.55627     -1056.23427        41.60027  23762194.47506  -5342136.67306      -788.46306        35.70006
C34  24610535.48106 -30480215.06806     -2618.68506        36.40006  24610542.67625 -16978070.16025     -1970.13325        30.40025
R19  21502998.08426 115396841.81126     -4065.03126        37.30026
C36  24472914.25425  -2178596.83125     -2677.85925        35.00025  24472905.26024 -16234771.34524     -2021.99424        29.40024
C09  37836727.87815 -27964669.51715     -1222.66415        33.90015                                                                
E19  24970919.29225 -31741319.93225       443.05425        32.00025  24970925.88824 -22515397.22224       329.54024        26.30024
C05  37230908.17916 -30815831.50216      -894.36216        40.30016                                                                
R15  21696983.29126 116312012.71626      2943.68926        40.00026
E07  25801843.25625 -29761769.60125     -2599.84725        33.40025  25801887.02524 -17939273.94524     -1949.96224        24.90024
C06  38220097.37725    491167.63125     -1560.49825        32.10025                                                                
R03  22681455.55525 121786168.94525     -2769.62825        32.70025
C26  24530615.00925 -30150511.16825      2305.22225        31.80025  24530502.88623 -21943620.88923      1737.90423        20.00023
R04  20483376.35426 110058242.50926     -1173.89626        37.30026
E26  24940833.02125 -21074281.55425     -3452.89925        32.10025  24940852.80724 -19601248.68524     -2581.99024        24.80024
R05  21534816.55726 115485978.58626       736.48726        37.90026
E27  27059341.90726 -26807520.72226      1298.07426        36.10026  27059357.19725 -19005613.27725       973.97025        34.00025
C13  40039186.74824 -31073241.45124     -1463.79224        27.80024                                                                
R20  21516125.09724 115426562.47024      -527.94624        26.90024
E30  27437287.86123 -28912356.45023      -302.53123        22.10023  27437465.93824 -22332964.05424      -214.94224        26.60024
R13  23328046.13023 124940117.10823     -3950.80123        20.70023
E12  27091999.19922 -30271676.97622      1441.62622        17.10022                                                                
> 2025 10 05 08 32 29.0000100  0 35                      
G03  20561796.66426    626677.83226     -2002.84526        36.50026  20561805.05924 -22445814.73624     -1496.94724        25.00024
G09  21167120.50726 -28008868.94726       270.73226        36.10026  21167095.92425 -22477704.73725       199.17325        33.20025
G07  22685929.35825 -11916516.88825      1809.93825        35.00025                                                                
G04  20971046.64726    602933.69926     -1675.60226        39.80026  20971067.63225 -14860468.25425     -1267.42225        35.10025
G26  23832477.21905 -22913548.96105     -1767.14605        34.30005  23832495.50725 -22961480.40525     -1319.94025        29.80025
G01  22964729.74825  -5516120.51425     -4327.44425        34.40025  22964608.63224 -19936637.51624     -3229.02524        23.80024
G06  22884522.67526   -214904.39726       729.27026        36.80026  22884523.87425   1922255.82625       542.16525        33.70025
G31  24519007.34424 -26756646.80324     -4540.29124        27.10024                                                                
G16  23190066.65125 -28232937.60725       859.26725        29.60025                                                                
C21  22561829.07107     48009.25007      -194.53407        47.40007  22561829.97026     28465.17026      -142.39226        36.00026
R14  20486479.80507 109573387.06507      -238.74307        45.10007
C22  23376954.87127  -4414262.56827     -2165.24627        43.80027  23376947.67605 -18991076.38705     -1632.62305        34.90005
C16  39599491.64217 -29275999.80217     -1664.92517        42.40017                                                                
E33  23998545.15307 -31349640.59607     -1059.71807        41.60007  23998543.65425 -15355746.53525      -789.33225        30.80025
E29  23762405.22916 -30600396.27816     -1058.41716        41.40016  23762411.52506  -5341347.19806      -791.01706        35.70006
C34  24611052.62306 -30477594.66806     -2622.69406        37.10006  24611063.11625 -16976098.27925     -1973.63625        29.90025
R15  21696510.21916 116309403.15916      2945.60916        39.30016
R19  21503725.38126 115400650.43026     -4070.66226        37.10026
C36  24473482.66115  -2175914.70515     -2684.56315        35.40015  24473435.29324 -16232746.29824     -2027.51924        29.10024
C09  37836985.10015 -27963444.12415     -1227.73015        34.40015                                                                
C06  38220419.05415    492727.09515     -1560.63215        33.30015                                                                
E07  25802395.47325 -29759168.13525     -2603.33025        33.30025  25802393.37524 -17937330.83824     -1942.48424        24.80024
C05  37231113.53626 -30814931.42726      -903.82326        39.20026                                                                
R03  22682007.77325 121789043.49725     -2774.67925        32.70025
C26  24530188.10425 -30152813.52225      2299.62225        32.60025  24530081.37823 -21945354.42423      1730.40723        20.00023
E19  24970842.54525 -31741758.87125       438.93925        32.00025  24970857.23524 -22515730.40824       334.90724        26.00024
R04  20483585.30926 110059279.17926     -1170.13526        36.50026
E26  24941521.04425 -21070828.98125     -3454.19525        32.10025  24941526.14124 -19598663.19724     -2588.31124        24.40024
R05  21534707.13226 115485312.39026       735.73426        36.90026
C13  40039485.04124 -31071779.39124     -1462.38124        28.70024                                                                
E27  27059125.15725 -26808822.13225      1303.07725        34.90025  27059123.05925 -19006588.35025       974.75025        33.60025
R20  21516207.24024 115426919.02024      -530.44524        26.80024
E30  27437359.51123 -28912052.49323      -308.19023        22.20023  27437536.38924 -22332740.82624      -227.33024        26.30024
R13  23328810.30123 124944116.16923     -3958.27523        21.00023
E12  27091715.89522 -30273114.49522      1436.08922        17.10022                                                                
> 2025 10 05 08 32 30.0000105  0 35                      
G03  20562160.01316    628684.09916     -2008.53916        38.60016  20562174.40324 -22444315.01724     -1501.71224        24.80024
G09  21167081.23526 -28009138.29326       267.91226        36.00026  21167027.27225 -22477905.35425       200.36125        32.20025
G07  22685565.71025 -11918321.52725      1801.94025        34.90025                                                                
G16  23189882.57825 -28233795.49425       856.79925        33.40025                                                                
G01  22965527.49625  -5511792.10225     -4329.70725        34.40025  22965418.07223 -19933407.60623     -3229.86623        23.40023
G26  23832801.59525 -22911781.53825     -1768.77725        34.30025  23832815.08524 -22960162.79724     -1317.42624        28.80024
G06  22884379.07426   -215627.05026       719.01626        36.20026  22884371.87915   1921716.33815       537.54915        34.00015
G31  24519862.65224 -26752113.65924     -4530.65224        27.10024                                                                
G04  20971356.03226    604614.39326     -1683.99426        39.00026  20971371.02225 -14859202.74425     -1265.97425        34.70025
C21  22561850.35607     48203.39507      -194.67407        47.30007  22561850.65625     28611.11625      -147.82625        34.80025
R14  20486512.48307 109573641.81107      -240.09307        45.00007
C16  39599792.93407 -29274334.12807     -1667.09907        42.40007                                                                
E33  23998733.42307 -31348581.12607     -1061.32707        41.60007  23998730.72425 -15354955.06525      -793.08225        30.70025
E29  23762587.50316 -30599336.85916     -1060.73916        41.30016  23762598.59506  -5340555.96306      -792.11406        35.60006
C34  24611540.08516 -30474972.00316     -2623.79516        37.70016  24611400.38224 -16974126.97624     -1971.01324        28.20024
R15  21695959.50026 116306539.74526      2942.02726        38.80026
R19  21504461.07116 115404666.46616     -4079.74616        36.90016
C36  24473944.34126  -2173228.02526     -2688.95526        35.50026  24473937.74524 -16230719.99824     -2026.92624        28.60024
C09  37837203.94925 -27962216.47225     -1228.78125        35.10025                                                                
C06  38220698.76105    494289.28005     -1563.54405        33.80005                                                                
E07  25802851.75725 -29756563.26825     -2606.81625        33.30025  25802865.54824 -17935385.27724     -1946.78824        24.70024
C26  24529765.69725 -30155110.98625      2295.01925        32.60025  24529622.39623 -21947090.36923      1737.15023        20.00023
E19  24970757.10515 -31742195.86115       436.76515        32.40015  24970759.80324 -22516056.83024       323.04024        25.90024
R03  22682487.44125 121791690.56825     -2785.00225        32.60025
R04  20483794.56426 110060479.06026     -1180.50026        35.90026
C05  37231271.82726 -30814020.91126      -915.73626        38.20026                                                                
C22  23377350.89727  -4412096.06427     -2168.01227        43.00027  23377348.79825 -18989443.55325     -1633.76025        34.70025
E26  24942149.70925 -21067370.98225     -3460.70925        32.00025  24942173.69224 -19596076.18124     -2587.78024        24.10024
R05  21534568.02926 115484647.72426       729.22826        36.10026
C13  40039768.34524 -31070312.74624     -1468.93624        29.00024                                                                
E27  27058866.43725 -26810125.75125      1304.72425        33.70025  27058858.34225 -19007559.28025       968.85725        33.20025
R20  21516270.19624 115427336.77924      -532.40024        26.80024
E30  27437423.06723 -28911745.18523      -308.98323        22.40023  27437576.86124 -22332515.87724      -225.80924        26.00024
R13  23329518.11123 124947975.40823     -3958.17023        21.40023
E12  27091414.30422 -30274552.03422      1437.54822        17.10022                                                                
> 2025 10 05 08 32 31.0000111  0 35                      
G03  20562557.53806    630691.23506     -2007.57006        38.80006  20562572.82724 -22442814.76824     -1500.51324        24.70024
G09  21167023.97426 -28009411.39226       274.97726        35.90026  21166997.89225 -22478105.34425       199.67525        31.80025
G07  22685260.22125 -11920125.72625      1803.97725        34.90025                                                                
G01  22966362.71825  -5507460.23525     -4333.59325        34.40025  22966256.59123 -19930175.70423     -3232.89723        23.00023
G26  23833150.85315 -22910011.88315     -1770.77015        34.20015  23833167.34224 -22958844.17424     -1319.13124        28.10024
G04  20971679.20926    606294.62626     -1680.00326        38.20026  20971678.60925 -14857948.39325     -1248.77125        32.90025
G06  22884275.34626   -216350.65926       724.08626        35.80026  22884249.56405   1921177.59305       538.37305        34.00005
G31  24520725.45524 -26747580.69624     -4532.87124        27.10024                                                                
G16  23189738.07825 -28234654.46625       859.51425        34.90025                                                                
C21  22561906.11717     48400.03117      -197.88217        47.10017  22561904.01925     28755.43625      -143.50725        34.80025
R14  20486567.94417 109573856.13617      -242.33417        44.80017
E33  23998938.48107 -31347519.96407     -1061.75807        41.80007  23998947.17525 -15354165.96225      -787.91925        30.70025
C16  39600141.29327 -29272670.09727     -1663.20927        42.20027                                                                
E29  23762812.64716 -30598276.49516     -1061.58516        41.30016  23762815.34516  -5339764.32516      -791.83916        35.60016
C34  24612054.82926 -30472350.81926     -2620.44226        38.00026  24611919.02324 -16972150.68924     -1978.77824        26.90024
R15  21695451.05226 116303743.62326      2943.68226        38.50026
R19  21505240.23206 115408754.44906     -4074.74006        36.80006
C36  24474476.17326  -2170541.61026     -2686.28226        36.00026  24474469.27724 -16228691.59424     -2029.45424        28.20024
C09  37837455.17516 -27960987.82316     -1229.14816        35.50016                                                                
C06  38221017.14025    495850.44825     -1560.65925        34.40025                                                                
C22  23377804.18327  -4409927.02927     -2170.29927        41.60027  23377780.79925 -18987808.01825     -1636.88325        34.50025
C26  24529351.98325 -30157414.83425      2307.03825        33.30025  24529192.49323 -21948828.73623      1739.57723        19.90023
E19  24970677.66015 -31742632.15515       435.69615        33.30015  24970690.55124 -22516388.92824       334.93524        25.80024
E07  25803370.69825 -29753962.59425     -2598.57525        33.30025  25803376.09424 -17933439.61424     -1945.71224        24.60024
R03  22683015.07515 121794434.90915     -2778.88015        32.60015
C05  37231452.60226 -30813104.12026      -919.92726        37.30026                                                                
R04  20484034.09825 110061682.76625     -1185.56625        35.30025
R05  21534452.30925 115483949.40225       733.22125        35.40025
E26  24942817.64725 -21063914.71725     -3455.39725        31.90025  24942839.83124 -19593489.33824     -2586.75324        23.80024
C13  40040071.13624 -31068845.91524     -1466.92424        29.10024                                                                
R20  21516429.38624 115428107.26224      -525.20224        26.70024
E27  27058641.29225 -26811429.26325      1303.45625        32.60025  27058626.90215 -19008529.13315       969.31415        32.70015
E30  27437503.11223 -28911439.26523      -305.22523        22.60023  27437652.40824 -22332289.52124      -227.06024        25.80024
R13  23330328.74923 124952224.31423     -3954.81223        21.80023
E12  27091147.18922 -30275992.96322      1442.62322        17.00022                                                                
> 2025 10 05 08 32 32.0000116  0 35                      
G03  20562920.88626    632702.61926     -2013.50726        38.80026  20562943.67024 -22441311.22424     -1505.19024        24.60024
G09  21166968.81226 -28009678.12026       263.54126        35.80026  21166933.13725 -22478305.40225       200.09325        31.60025
G16  23189556.70425 -28235508.07025       850.92125        35.20025                                                                
G07  22684917.55815 -11921928.34415      1801.82815        34.90015                                                                
G01  22967165.86225  -5503124.73325     -4337.31625        34.50025  22967065.43123 -19926939.30523     -3238.64523        22.70023
G04  20971990.99326    607976.53926     -1682.75126        37.40026  20972015.27625 -14856695.62725     -1251.97425        32.60025
G06  22884136.24225   -217071.28825       719.14025        35.30025  22884098.76805   1920642.50405       533.26005        34.70005
G31  24521552.28324 -26743039.73824     -4544.95324        27.10024                                                                
G26  23833489.61825 -22908236.68725     -1777.96525        34.10025  23833486.92024 -22957523.19824     -1322.15124        27.40024
C21  22561931.30017     48600.86017      -202.92517        46.90017  22561925.30425     28894.87325      -136.99625        34.60025
R14  20486599.42207 109574104.01907      -248.83907        44.70007
E33  23999125.25127 -31346455.16827     -1066.61327        42.10027  23999136.64325 -15353371.59425      -796.99925        30.90025
E29  23762998.21906 -30597212.03206     -1066.26206        41.20006  23763002.71606  -5338969.36806      -796.61606        35.80006
C34  24612547.08826 -30469720.05626     -2635.55226        38.00026  24612410.68324 -16970168.73824     -1984.78124        25.80024
R15  21694801.70126 116300353.41226      2929.84526        38.20026
R19  21505990.61306 115412847.79306     -4083.50306        36.80006
C36  24474969.33126  -2167849.13726     -2695.50026        36.50026  24474971.13024 -16226659.33824     -2034.18224        27.70024
C09  37837679.71926 -27959756.94626     -1231.99026        36.20026                                                                
C06  38221307.63915    497416.62215     -1568.67615        34.80015                                                                
C16  39600441.98426 -29270996.59226     -1678.24126        41.10026                                                                
C26  24528893.60025 -30159711.50325      2293.07925        33.70025  24528736.20923 -21950560.09823      1727.85823        19.90023
E07  25803859.95925 -29751356.69425     -2608.51225        33.30025  25803861.45824 -17931491.17924     -1949.82024        24.60024
E19  24970585.62305 -31743064.64105       429.83105        33.40005  24970589.52124 -22516720.37124       331.11624        25.70024
C22  23378217.59726  -4407753.26326     -2176.13226        40.20026  23378185.81925 -18986169.49825     -1640.01325        34.10025
R03  22683483.95125 121797026.06425     -2783.98325        32.60025
C05  37231611.79126 -30812177.65326      -931.30526        36.50026                                                                
R04  20484231.36225 110062819.04225     -1181.85525        34.90025
E26  24943469.39525 -32133161.89725     -3464.36825        31.70025  24943478.38924 -19590899.47124     -2591.37824        23.50024
R05  21534293.41925 115483179.95025       728.01625        34.70025
C13  40040325.65924 -31067375.14124     -1472.74524        29.30024                                                                
R20  21516510.63024 115428622.95924      -534.68124        26.60024
R13  23331042.85523 124956118.70123     -3961.65923        21.90023
E12  27090849.49522 -30277435.32522      1443.07822        17.00022                                                                
E27  27058403.55725 -26812726.50725      1294.11025        31.50025  27058365.48305 -19009495.90105       965.22405        32.10005
E30  27437527.99523 -28911129.80323      -311.23323        22.70023  27437689.28324 -22332060.57924      -230.23524        25.50024
> 2025 10 05 08 32 33.0000122  0 35                      
G03  20563328.60426    634718.08726     -2017.50826        38.70026  20563337.29824 -22439803.88524     -1509.23624        24.40024
G16  23189441.58425 -28236352.65125       840.06925        35.20025                                                                
G09  21166945.12916 -28009936.25216       253.83516        35.70016  21166898.96125 -22478500.10525       192.02625        31.30025
G07  22684608.47225 -11923720.31325      1786.64225        34.80025                                                                
G01  22968037.95825  -5498786.20125     -4340.04625        34.60025  22967906.94923 -19923706.63423     -3230.80623        22.30023
G04  20972350.74426    609668.47526     -1696.94726        36.80026  20972345.94725 -14855447.62525     -1245.61825        32.20025
G06  22884027.71725   -217785.03525       710.30425        34.90025  22883979.45115   1920113.04715       526.64115        34.60015
G31  24522423.77924 -26738494.47324     -4547.41524        27.40024                                                                
G26  23833842.17425 -22906455.56225     -1784.08925        34.00025  23833839.17624 -22956209.37624     -1310.24424        26.80024
C21  22561981.96527     48805.60927      -206.70927        46.70027  22561982.56425     29048.64025      -160.93125        34.50025
R14  20486661.47907 109574354.95407      -256.19207        44.60007
E33  23999345.89917 -31345382.62717     -1075.66317        42.10017  23999356.39125 -15352571.68125      -802.68625        30.90025
E29  23763209.87207 -30596141.19807     -1074.01807        41.50007  23763221.56406  -5338169.71906      -801.99506        35.90006
C34  24613079.52016 -30467085.59116     -2636.31316        38.00016  24613074.12324 -16968182.80324     -1987.92724        25.70024
R15  21694249.48426 116297321.79826      2923.36326        38.00026
R19  21506771.27206 115416944.96306     -4090.49306        37.00006
C36  24475515.55326  -2165150.44326     -2701.80426        36.50026  24475505.36024 -16224622.48424     -2039.15124        27.30024
C09  37837930.04626 -27958518.61526     -1242.05826        36.20026                                                                
C06  38221617.32525    498989.78625     -1576.65825        35.00025                                                                
C16  39600791.54226 -29269319.84726     -1678.36326        40.10026                                                                
C26  24528484.08425 -30162004.08725      2290.54025        33.70025  24528311.10423 -21952286.94823      1724.59223        19.80023
E07  25804382.79825 -29748744.15225     -2615.86225        33.60025  25804374.70324 -17929538.45024     -1954.87624        25.00024
E19  24970515.77205 -31743490.47805       422.76305        33.40005  24970526.26424 -22517049.76124       328.36424        25.60024
R04  20484470.59625 110064019.68625     -1187.34325        34.50025
R03  22684051.45825 121799982.57325     -2791.71225        32.60025
C05  37231802.16026 -30811243.35026      -938.22026        35.90026                                                                
E26  24944145.42725 -32129696.13925     -3465.75625        31.60025  24944152.92223 -19588310.29323     -2588.83123        23.20023
C13  40040631.14825 -31065893.61225     -1486.90625        30.50025                                                                
R05  21534175.90025 115482472.45225       720.87525        34.20025
E27  27058236.27325 -26814014.17725      1282.88225        30.70025  27058136.14205 -19010457.96205       959.70805        31.50005
R20  21516628.44824 115429171.55924      -540.74624        26.50024
R13  23331783.64223 124959993.22323     -3972.30123        22.40023
E12  27090582.08022 -30278878.34022      1443.34122        17.00022                                                                
E30  27437589.75223 -28910817.95323      -313.04523        23.10023  27437760.93324 -22331826.14324      -237.18224        25.20024
C22                                                                  23378623.51625 -18984523.67025     -1649.48025        33.80025
> 2025 10 05 08 32 34.0000127  0 34                      
G03  20563711.73916    636742.87016     -2029.43916        38.50016  20563708.74124 -22438292.05924     -1514.07024        24.20024
G01  22968888.17015  -5494441.81515     -4347.31015        34.70015  22968725.38223 -19920461.52423     -3251.32823        22.10023
G09  21166862.68626 -28010190.45426       252.23626        35.60026  21166836.60425 -22478685.80725       181.20125        30.80025
G07  22684240.02715 -11925508.24615      1785.91515        34.80015                                                                
G16  23189248.81725 -28237194.94725       841.15325        35.20025                                                                
G04  20972646.93926    611367.85026     -1703.09426        36.30026  20972655.63325 -14854182.87325     -1273.12625        31.80025
G06  22883831.35325   -218491.53525       702.87725        34.60025  22883809.76825   1919585.76125       526.20025        33.40025
G31  24523260.80024 -26733944.89724     -4551.72924        27.70024                                                                
G26  23834160.25425 -22904666.16925     -1793.52625        33.90025  23834160.25424 -22954890.29624     -1321.70924        26.10024
C21  22562005.94817     49015.56117      -212.55417        46.50017  22562001.75125     29210.44425      -165.82325        33.10025
R14  20486698.95307 109574634.87107      -260.18107        44.50007
E29  23763399.64107 -30595066.03407     -1077.32907        41.80007  23763410.73306  -5337366.78306      -804.57906        35.90006
E33  23999540.16427 -31344306.81427     -1077.69727        42.00027  23999547.65925 -15351767.75125      -805.93825        30.70025
C34  24613563.98406 -30464446.84106     -2640.89206        38.00006  24613573.87724 -16966185.82324     -2002.50024        26.60024
R19  21507524.35106 115421052.84806     -4094.06406        37.30006
R15  21693697.26626 116294451.50626      2923.00526        37.90026
C36  24476024.00116  -2162446.96316     -2705.87016        36.50016  24476010.21125 -16222580.75825     -2044.16125        30.50025
C09  37838151.89326 -27957271.17826     -1251.99026        36.10026                                                                
C06  38221915.61825    500568.29925     -1581.18725        35.10025                                                                
C16  39601092.23426 -29267637.12726     -1685.70726        39.20026                                                                
E07  25804858.86825 -29746127.33725     -2618.95025        33.60025  25804852.27324 -17927582.25724     -1957.92424        28.90024
C26  24528030.19825 -30164288.46125      2280.26725        33.70025  24527853.62023 -21954010.26423      1721.54923        19.80023
C22  23379137.36016  -4403395.00916     -2183.58716        36.60016  23379030.63425 -18982866.48225     -1662.86725        33.30025
R03  22684559.90625 121802785.12525     -2791.19725        32.50025
C13  40040885.37225 -31064410.12725     -1484.46125        31.90025                                                                
R04  20484686.14725 110065254.04625     -1203.25825        34.20025
C05  37231965.24725 -30810317.43725      -921.71825        35.30025                                                                
R05  21534006.21825 115481645.63425       712.21425        33.70025
E26  24944786.38425 -32335522.82025     -3474.65025        31.20025  24944800.47423 -19585722.06623     -2587.75123        22.90023
E19  24970430.03125 -32346870.20425       421.89725        32.30025  24970431.53024 -22517369.38724       314.74324        25.40024
E27  27058018.62325 -26815296.03025      1278.94425        30.10025  27057878.62005 -19011416.66705       957.02605        30.80005
R20  21516730.07824 115429795.13924      -550.62524        26.50024
R13  23332533.72323 124964078.62423     -3986.38923        23.20023
E12  27090278.39122 -30280318.39422      1438.57322        17.00022                                                                
> 2025 10 05 08 32 35.0000133  0 33                      
G03  20564111.96216    638771.30816     -2030.26516        38.40016  20564111.96224 -22436784.65724     -1505.18924        23.90024
G01  22969667.33025  -5490094.75025     -4348.40225        34.90025  22969566.00023 -19917213.11623     -3250.05423        21.80023
G09  21166834.20626 -28010445.78426       255.89426        35.50026  21166796.13225 -22478869.41125       182.55525        29.70025
G07  22683906.95825 -11927293.27225      1783.57125        34.80025                                                                
G16  23189121.40525 -28238031.13025       833.12725        35.00025                                                                
G06  22883710.23725   -219200.83025       710.69225        34.30025  22883710.83725   1919060.28925       524.56425        33.40025
G04  20972977.31026    613065.99826     -1697.53326        35.70026  20972980.00825 -14852901.98925     -1288.94925        30.40025
G31  24524152.98224 -26729393.87924     -4551.73724        27.70024                                                                
G26  23834537.69325 -22902879.24925     -1785.68225        33.70025  23834511.61124 -22953574.93324     -1313.50324        25.50024
C21  22562060.81017     49228.35017      -214.20717        46.40017  22562063.20925     29370.10725      -158.59425        33.20025
E29  23763626.28407 -30593986.41307     -1081.09807        41.90007  23763631.98006  -5336561.18506      -806.92806        35.90006
C34  24614085.62326 -30461804.34126     -2644.37326        37.90026  24614096.11624 -16964183.67824     -2004.72624        26.50024
R19  21508303.81106 115425140.06806     -4098.75106        37.50006
R15  21693154.04226 116291466.52926      2914.86026        37.80026
C36  24476582.21526  -2159742.66426     -2704.70826        36.80026  24476544.44126 -16220536.90126     -2044.92126        35.60026
C06  38222224.40515    502148.69715     -1581.34015        35.40015                                                                
C09  37838421.10626 -27956025.95126     -1244.12126        36.00026                                                                
E27  27057922.69025 -32424369.49925      1274.05825        32.90025  27057652.57715 -19012373.84515       956.41515        30.10015
C16  39601424.10526 -29265953.63126     -1683.88226        38.50026                                                                
E07  25805390.70025 -29743506.81125     -2623.13025        33.70025  25805371.21324 -17925626.94624     -1954.86824        28.50024
C26  24527530.14425 -30166567.91025      2276.98625        33.60025  24527433.01123 -21955729.71223      1717.51223        19.70023
C22  23379522.89326  -4401208.37926     -2186.62926        36.00026  23379464.43425 -18981212.21425     -1652.80725        32.70025
R03  22685116.02115 121805681.12315     -2795.13315        32.60015
C13  40041203.45215 -31062924.29215     -1487.01015        32.50015                                                                
R04  20484919.08625 110066419.44025     -1199.82625        33.90025
C05  37232156.51425 -30809377.18825      -947.41725        34.70025                                                                
R05  21533848.52725 115480720.91425       714.29025        33.30025
E26  24945434.53525 -32332046.79025     -3476.02925        30.90025  24945474.10823 -19583130.62923     -2593.04023        22.60023
R20  21516882.37224 115430528.89924      -555.30924        26.40024
E19  24970407.84625 -32347289.86825       419.66425        31.30025  24970367.37424 -22517687.47224       317.31524        25.10024
R13  23333310.78523 124968146.45023     -3998.30323        23.40023
E12  27090045.75222 -30281754.98522      1434.85922        16.90022                                                                
E33  23999750.01917 -31343225.70317     -1083.76117        41.60017  23999769.20625 -15350960.55925      -808.82325        30.50025
> 2025 10 05 08 32 36.0000139  0 34                      
G03  20564522.67726    640801.88626     -2031.64526        38.20026  20564496.59524 -22435272.78924     -1514.09924        23.70024
G07  22683548.70625 -11929072.02025      1775.60825        34.70025                                                                
G09  21166772.44815 -28010694.01715       244.68415        35.30015  21166755.36025 -22479053.58125       184.45225        29.50025
G16  23188944.22825 -28238868.22725       837.55425        34.90025                                                                
G06  22883563.63925   -219899.88825       693.93925        34.20025  22883578.02925   1918543.52825       512.40625        33.30025
G04  20973300.18625    614763.85625     -1697.71225        35.30025  20973323.27025 -14851615.28025     -1289.62125        30.00025
G31  24525020.28224 -26724839.44124     -4556.14424        28.10024                                                                
G26  23834906.13825 -22901093.55425     -1785.08025        32.10025                                                                
G01  22970466.87725  -5485741.25125     -4356.71225        34.90025  22970381.43624 -19913962.13424     -3252.26824        23.90024
C21  22562101.28217     49444.85817      -218.36817        46.20017  22562101.58225     29534.06925      -166.11025        33.50025
E29  23763822.64807 -30592903.35007     -1085.03307        41.90007  23763834.64006  -5335752.62806      -810.03606        35.80006
R19  21509061.68606 115429211.98106     -4103.92906        37.80006
C34  24614583.87826 -30459155.81126     -2651.54326        37.90026  24614597.66924 -16962183.74024     -1998.83424        26.50024
R15  21692656.38626 116288825.61726      2913.53726        37.80026
C36  24477061.88326  -2157033.91326     -2710.97626        37.00026  24477061.58315 -16218493.95715     -2042.48715        35.20015
C06  38222520.00026    503732.92926     -1586.14726        36.00026                                                                
C16  39601748.18026 -29264267.38526     -1687.61926        37.90026                                                                
E27  27057712.53525 -32425645.54825      1276.04825        32.90025  27057410.04514 -19013325.07514       948.25514        29.40014
E07  25805861.97425 -29740884.49925     -2622.95325        33.90025  25805866.17124 -17923669.95324     -1957.83324        28.10024
E33  23999951.77906 -31342139.74406     -1088.38206        40.50006  23999971.86525 -15350152.14425      -809.02625        30.30025
R03  22685634.36205 121808472.19105     -2800.83105        33.00005
R14  20486896.81626 109575625.64026      -265.59526        41.30026
C26  24527099.94225 -30168840.76425      2269.55525        33.50025  24526994.11523 -21957447.60623      1717.11723        19.60023
C13  40041479.86025 -31061431.99925     -1495.52125        32.70025                                                                
C22  23379972.88226  -4399014.71826     -2197.17626        35.50026  23379877.84725 -18979559.96125     -1651.24425        32.20025
R04  20485148.12725 110067663.75725     -1197.82825        33.60025
C05  37232340.28725 -30808435.07125      -943.05025        34.30025                                                                
R05  21533741.20125 115480164.09625       709.55525        33.00025
C09  37838648.04926 -27954777.81326     -1249.59326        35.70026                                                                
E26  24946256.56625 -32518445.30525     -3476.48725        30.60025  24946126.15623 -19580568.46223     -2547.53123        22.30023
R20  21516941.43124 115430862.49724      -556.01024        26.30024
E19  24970322.10625 -32347704.86725       412.66525        30.30025  24970286.73024 -22518002.27924       313.16824        24.80024
R13  23333980.82124 124971742.85724     -3987.98224        23.60024
E12  27089754.65322 -30283186.69622      1429.26922        16.80022                                                                
> 2025 10 05 08 32 37.0000144  0 35                      
G07  22683241.71925 -11930852.81425      1781.81625        34.90025                                                                
G09  21166707.69325 -28010937.54225       241.17025        35.20025  21166668.42024 -22479236.07424       181.65424        29.40024
G16  23188771.54825 -28239699.06025       827.70025        34.70025                                                                
G06  22883424.83525   -220597.34525       696.65625        34.00025  22883396.65425   1918027.75425       515.27925        32.30025
G04  20973616.16825    616464.33425     -1701.78625        34.80025  20973633.25625 -14850330.59225     -1283.67725        29.50025
G31  24525939.44524 -26720283.62024     -4556.51224        28.20024                                                                
G03  20564898.01726    642832.56426     -2030.72826        36.80026  20564886.02624 -22433754.43324     -1521.60024        23.50024
G26  23835268.28725 -22899302.72625     -1793.39525        30.80025                                                                
G01  22971311.09225  -5481388.85725     -4351.84125        34.90025  22971194.77323 -19910706.06223     -3258.61623        23.40023
R19  21509818.06306 115433338.23506     -4104.58806        40.60006
C21  22562126.16507     49663.02307      -218.99207        46.00007  22562128.86325     29698.54725      -164.73625        33.50025
E29  23764013.61607 -30591819.06607     -1084.89507        41.80007  23764026.20706  -5334942.87506      -810.35206        35.80006
C34  24615081.83316 -30456506.62016     -2649.52016        38.60016  24615094.72524 -16960185.87024     -1996.83424        26.40024
R15  21692092.17726 116285890.33526      2918.09126        37.70026
C36  24477576.62616  -2154322.62116     -2712.56216        37.20016  24477558.33915 -16216449.98615     -2044.48315        34.50015
C06  38222815.29616    505318.57716     -1586.35616        36.80016                                                                
E07  25806337.14525 -29738261.62725     -2623.15225        34.40025  25806354.53324 -17921708.18324     -1964.15824        27.70024
E27  27057446.61925 -32426919.76825      1273.30425        34.60025  27057154.32224 -19014274.49524       948.51524        28.70024
C16  39602044.67526 -29262578.60726     -1690.04326        37.30026                                                                
C26  24526725.80115 -30171117.49415      2278.66715        33.50015  24526545.62623 -21959163.90923      1715.50623        19.50023
C22  23380413.27715  -4396826.56915     -2185.39115        35.10015  23380286.76425 -18977908.14525     -1651.59725        31.50025
R03  22686144.30925 121811283.17125     -2804.89325        33.30025
E33  24000155.93826 -31341052.24326     -1088.27126        39.50026  24000165.83125 -15349341.16425      -812.26125        30.10025
C09  37838867.79725 -27953526.64425     -1252.68425        35.20025                                                                
C13  40041762.26525 -31059935.09825     -1499.20425        32.70025                                                                
R04  20485350.78725 110068829.91825     -1206.42725        33.30025
R14  20486986.75426 109576184.70826      -265.09126        39.90026
C05  37232490.48325 -30807499.57625      -932.18425        33.90025                                                                
R05  21533541.24025 115479175.89325       707.38125        32.70025
E26  24946898.72125 -32514969.34825     -3475.95525        30.50025                                                                
R20  21517011.58324 115431316.98324      -559.43224        26.30024
E30  27438123.68223 -32558563.81023      -326.64423        23.40023                                                                
E19  24970210.28325 -32348113.31825       405.17725        29.50025  24970198.89124 -22518314.42424       310.81324        24.50024
R13  23334769.57524 124976033.78524     -3985.10224        23.60024
E12  27089452.76222 -30284611.61222      1421.51922        16.80022                                                                
> 2025 10 05 08 32 38.0000150  0 34                      
G07  22682924.83826 -11932636.90926      1785.74426        35.60026                                                                
G09  21166666.32225 -28011183.76425       247.57125        35.00025  21166636.04325 -22479420.25325       185.02225        30.20025
G16  23188610.25925 -28240529.61525       830.41525        34.50025                                                                
G06  22883321.10625   -221293.03125       694.80025        33.90025  22883280.03525   1917497.06025       538.15425        30.90025
G04  20973951.03625    618166.91625     -1703.63325        34.40025  20973964.82624 -14849062.69224     -1259.50524        29.10024
G31  24526801.94824 -26715728.19924     -4555.21724        28.20024                                                                
G03  20565316.52825    644864.09225     -2031.95225        35.30025  20565294.04323 -22432233.82823     -1521.72823        23.30023
G26  23835696.69125 -22897511.37525     -1791.61025        29.80025                                                                
G01  22972158.90525  -5477036.09125     -4352.94825        35.10025  22972040.18823 -19907460.40323     -3240.45023        23.00023
C21  22562184.32527     49880.92027      -217.76427        45.80027  22562186.42325     29864.14725      -166.16125        33.50025
R19  21510600.82107 115437445.35307     -4102.91207        44.30007
E29  23764239.65907 -30590734.94907     -1084.03207        42.10007  23764247.15406  -5334133.36406      -809.38806        35.80006
C34  24615599.27506 -30453856.90606     -2649.97506        38.90006  24615618.16224 -16958187.61624     -1998.44524        26.30024
C06  38223127.67906    506903.93706     -1585.21406        37.60006                                                                
C36  24478083.57526  -2151611.57226     -2710.92626        37.30026  24478094.66815 -16214406.00215     -2043.99015        34.40015
R15  21691525.27026 116282781.49526      2911.28126        37.60026
E07  25806858.78325 -29735638.21425     -2623.68125        34.50025  25806859.08324 -17919753.57524     -1951.02624        27.30024
C26  24526297.99705 -30173394.46105      2277.08405        34.20005  24526123.21823 -21960880.82623      1717.22323        19.40023
C16  39602413.12026 -29260888.02726     -1691.48126        36.80026                                                                
C22  23380843.47925  -4394638.16025     -2188.53825        34.90025  23380725.36125 -18976252.33125     -1657.81225        30.80025
R03  22686715.11425 121814258.82425     -2798.87725        33.60025
E27  27057232.56825 -32428194.20325      1274.54225        34.50025  27056927.97924 -19015226.69524       953.59024        28.00024
C09  37839122.62125 -27952276.62325     -1249.44625        34.80025                                                                
C13  40042074.04925 -31058444.81925     -1486.96725        32.70025                                                                
E33  24000373.28726 -31339967.28226     -1083.69126        38.40026  24000383.78025 -15348528.01225      -814.23825        29.80025
R04  20485578.02925 110069966.19925     -1204.83625        33.10025
R14  20487028.42526 109576328.09526      -268.93426        38.60026
R05  21533387.44625 115478272.58725       710.96025        32.50025
C05  37232680.55225 -30806573.13425      -921.91525        33.50025                                                                
E26  24947585.24625 -32511491.40525     -3478.93325        30.40025                                                                
R20  21517145.89024 115431955.09924      -558.96124        26.20024
E19  24970158.71924 -32348522.82824       410.03924        28.70024                                                                
R13  23335482.78124 124979762.37124     -3989.22524        23.60024
E12  27089200.33722 -30286026.47722      1409.83722        16.70022                                                                
> 2025 10 05 08 32 39.0000156  0 34                      
G07  22682569.28426 -11934416.31026      1777.05426        35.60026                                                                
G01  22972973.74125  -5472680.33225     -4357.25425        35.20025  22972865.81613 -19904210.10913     -3252.60913        22.50013
G09  21166597.37015 -28011431.01415       247.76415        34.90015  21166589.27525 -22479603.08225       182.15525        29.80025
G16  23188457.06525 -28241361.87725       833.11625        34.30025                                                                
G06  22883206.58625   -221991.28825       699.54325        33.70025  22883174.80825   1916977.53425       513.94125        31.60025
G04  20974268.21625    619871.04325     -1704.89825        34.10025  20974282.90624 -14847803.05824     -1255.50124        28.50024
G31  24527664.75124 -26711169.73624     -4559.98224        28.30024                                                                
G03  20565719.74825    646892.11125     -2026.26325        34.00025  20565675.97924 -22430711.38524     -1523.36224        23.80024
G26  23836039.65324 -22895719.10324     -1792.73224        29.00024  23836160.76924 -24331471.51324     -1343.52424        24.50024
R19  21511367.99007 115441567.01807     -4107.73007        44.40007
C21  22562219.70017     50100.64817      -220.64317        45.60017  22562224.19725     30031.67925      -168.49825        32.60025
E29  23764443.51807 -30589648.93107     -1086.96707        42.70007  23764450.41306  -5333322.37506      -811.72906        35.90006
C36  24478599.81816  -2148897.15616     -2716.09716        38.20016  24478611.21006 -16212360.26006     -2046.61906        36.30006
C34  24616089.73626 -30451211.81026     -2642.78526        38.80026  24615973.11624 -16956192.17624     -1994.03224        25.40024
C06  38223434.66706    508491.10906     -1588.07806        37.80006                                                                
R15  21690985.94326 116279916.56026      2910.98526        37.60026
E07  25807374.12715 -29733012.71815     -2625.78715        35.00015  25807352.54225 -17917795.89625     -1959.21325        31.50025
C22  23381255.39425  -4392447.26425     -2192.13825        34.70025  23381137.87525 -18974595.80325     -1656.88525        30.10025
C16  39602767.47526 -29259198.33326     -1689.24926        36.40026                                                                
C26  24525835.41725 -30175672.69325      2278.86325        34.20025  24525776.05923 -21962596.20123      1714.60423        19.90023
R03  22687210.37125 121816926.57725     -2806.23125        33.60025
C09  37839354.36025 -27951022.80325     -1255.71925        34.60025                                                                
E27  27056956.45925 -32429466.98025      1271.94725        34.40025  27056689.94324 -19016177.40224       949.96124        27.30024
C13  40042348.95925 -31056949.77325     -1497.42825        32.60025                                                                
R14  20487024.52826 109576323.52826      -270.90426        37.50026
R04  20485791.18225 110071125.46525     -1204.49325        32.90025
R05  21533208.77025 115477336.39725       713.51125        32.40025
E33  24000572.05026 -31338881.50626     -1086.18326        37.40026  24000592.73524 -15347717.22624      -809.60324        29.40024
C05  37232854.73125 -30805666.14725      -897.25925        33.10025                                                                
E26  24948256.48125 -32508012.81325     -3478.91625        30.30025                                                                
E30  27438110.49124 -32760038.93124      -327.83024        27.30024                                                                
R20  21517225.63524 115432399.64224      -559.80224        26.10024
R13  23336257.44524 124983916.53724     -3984.19024        24.00024
E19  24970071.77924 -32348933.76524       411.65024        28.00024                                                                
> 2025 10 05 08 32 40.0000161  0 34                      
G01  22973832.04716  -5468325.25116     -4354.74016        35.70016  22973680.65223 -19900957.05123     -3254.43823        22.10023
G09  21166542.20825 -28011677.71425       246.42425        34.80025  21166547.60425 -22479783.08425       178.58925        29.50025
G16  23188284.98425 -28242191.93025       828.94825        34.20025                                                                
G06  22883011.12125   -222688.41625       696.56325        33.60025  22883029.10925   1916461.60925       514.12525        31.60025
G04  20974550.92125    621573.60025     -1701.77225        33.80025  20974588.39524 -14846533.35424     -1274.73824        28.00024
G31  24528540.74524 -26706605.74624     -4566.75224        28.40024                                                                
G03  20566078.90025    648927.66225     -2039.31525        33.10025  20566046.22224 -22429189.06424     -1522.25924        27.30024
G26  23836393.40824 -22893923.99524     -1796.52624        28.30024  23836486.94324 -24330127.55124     -1344.18024        24.50024
G07  22682213.13126 -11936196.47226      1780.54226        35.60026                                                                
R19  21512119.86907 115445670.30907     -4106.33707        44.50007
E29  23764634.18607 -30588562.83707     -1086.13307        43.40007  23764642.28006  -5332511.37906      -810.99906        35.90006
C21  22562247.28107     50320.38207      -219.73607        45.30007  22562255.07625     30198.97925      -167.18325        32.60025
R05  21533055.27625 115476596.00825       712.63025        32.90025
E07  25807833.40916 -29730388.60116     -2624.42516        36.30016  25807837.00625 -17915835.55025     -1961.67925        31.00025
C36  24479103.76906  -2146182.18906     -2715.24206        39.10006  24479117.26006 -16210314.23806     -2046.16106        37.10006
C06  38223718.57016    510078.37716     -1587.31416        37.90016                                                                
R15  21690453.51126 116277151.01326      2912.92326        37.50026
C22  23381661.31325  -4390255.55525     -2192.11425        34.70025                                                                
C09  37839582.20215 -27949768.10615     -1255.13415        34.50015                                                                
C16  39603054.37626 -29257509.15826     -1688.91626        36.00026                                                                
C26  24525384.23025 -30177948.01325      2273.86325        34.10025  24525319.77423 -21964309.81823      1712.73623        19.80023
R03  22687779.97725 121820056.94825     -2802.20125        33.60025
E27  27056681.84925 -32430741.84325      1275.90525        34.20025  27056434.52024 -19017130.79924       954.74124        26.60024
C13  40042602.58325 -31055451.66725     -1499.63625        32.70025                                                                
R14  20487088.98326 109576747.59326      -277.40126        36.60026
E26  24948879.15025 -32504533.05725     -3480.33625        31.30025                                                                
R04  20485993.54225 110072289.32725     -1204.87425        32.70025
C05  37233013.92125 -30804758.87825      -907.40925        32.80025                                                                
C34  24616563.10826 -30448567.28426     -2644.24026        38.30026  24616465.07624 -16954199.11424     -1991.87224        24.60024
E33  24000814.58226 -31337791.97926     -1091.40226        36.20026  24000793.29724 -15346904.80024      -813.24624        29.00024
E30  27438164.15424 -32759711.36624      -327.56424        28.80024                                                                
R20  21517354.54524 115433168.59624      -565.51324        26.00024
R13  23337004.52824 124987987.41824     -3987.17824        24.80024
E19  24969961.45524 -32349344.92024       411.26424        27.40024                                                                
> 2025 10 05 08 32 41.0000167  0 34                      
G01  22974674.46426  -5463967.27726     -4359.41726        36.10026  22974525.16713 -19897705.16513     -3251.29713        21.70013
G07  22681872.26726 -11937972.51326      1773.97926        35.60026                                                                
G09  21166514.32725 -28011923.50925       245.34425        34.80025  21166502.03624 -22479967.47824       186.58924        28.80024
G06  22882912.78925   -223384.02725       694.85325        33.50025  22882914.28825   1915945.56725       516.10025        31.50025
G16  23188138.98525 -28243020.08025       827.19725        34.00025                                                                
G04  20974895.08225    623275.69525     -1701.86325        33.50025  20974934.05524 -14845245.22824     -1297.33624        27.50024
G31  24529402.34824 -26702044.15924     -4560.38224        28.60024                                                                
G03  20566471.62825    650964.51925     -2037.50925        32.30025  20566450.94224 -22427666.96724     -1521.98424        29.30024
G26  23836773.24524 -22892125.99024     -1799.45224        27.80024  23836838.60024 -24328790.14224     -1334.13124        24.50024
R14  20487104.27316 109576747.59116      -273.50316        37.10016
E29  23764854.53407 -30587477.10907     -1085.54407        44.20007  23764863.82706  -5331700.57906      -810.70206        36.70006
R19  21512899.92907 115449759.82307     -4106.34707        44.50007
C21  22562303.04317     50539.95317      -219.49017        45.00017  22562311.43725     30364.90025      -165.23225        31.70025
C36  24479637.40006  -2143467.23506     -2714.94506        40.20006  24479654.18806 -16208268.29006     -2045.90906        36.50006
E07  25808338.25906 -29727764.09506     -2624.44906        39.60006  25808351.75015 -17913875.62915     -1959.70715        30.80015
R05  21532934.16016 115475866.32716       713.26216        39.00016
C06  38224040.24806    511665.19506     -1586.59306        37.90006                                                                
R15  21689906.39026 116274146.15526      2914.30526        37.40026
C09  37839834.32815 -27948515.24715     -1251.94015        34.60015                                                                
C22  23382104.10625  -4388067.85225     -2185.69925        34.60025                                                                
C16  39603378.15226 -29255817.58026     -1692.77726        35.70026                                                                
C13  40042900.27715 -31053957.84815     -1491.67515        33.10015                                                                
C26  24524969.01725 -30180225.42325      2278.45425        34.00025  24524850.59923 -21966022.22623      1711.80323        19.70023
R03  22688336.99125 121822956.77325     -2804.51725        33.60025
E27  27056477.69025 -32432015.17425      1272.56525        34.00025  27056207.27724 -19018081.41224       949.22024        25.90024
R04  20486244.76825 110073552.79125     -1198.61225        32.60025
C34  24617047.87226 -30445918.37126     -2651.10526        37.20026  24616988.21424 -16952206.43924     -1992.48124        24.00024
C05  37233205.78825 -30803840.94425      -923.26625        32.50025                                                                
E33  24001023.83725 -31336705.03625     -1085.65025        34.90025  24001019.34024 -15346082.94524      -826.56824        28.60024
E30  27438247.19724 -32759386.77324      -323.10824        28.60024                                                                
R20  21517508.63924 115433911.53624      -565.85824        25.90024
R13  23337735.72224 124991809.21724     -3979.83724        24.80024
E19  24969939.87024 -32349759.32924       416.03524        26.90024                                                                
E26  24949532.99825 -32501055.25125     -3476.82925        31.80025                                                                
> 2025 10 05 08 32 42.0000173  0 33                      
G01  22975489.30026  -5459614.72526     -4349.84026        36.10026  22975352.89423 -19894454.89623     -3249.45923        21.30023
G07  22681567.97726 -11939755.92926      1787.10326        35.50026                                                                
G09  21166449.27225 -28012170.89225       248.17625        34.60025  21166463.36224 -22480160.80724       197.79624        28.10024
G06  22882761.39425   -224084.79425       703.34425        33.40025  22882779.68125   1915428.35425       517.79925        31.40025
G31  24530260.35424 -26697486.81924     -4555.21424        28.60024                                                                
G03  20566851.76525    652996.00525     -2028.80025        31.70025  20566832.27825 -22426147.52525     -1518.11425        30.70025
G26  23837092.82424 -22890328.38724     -1797.40124        27.40024  23837177.36524 -24327451.41024     -1339.39324        24.40024
G04  20975224.85425    624972.59425     -1694.29825        33.20025  20975256.03224 -14843966.46924     -1274.07624        27.00024
R14  20487153.73907 109577028.26707      -269.50607        47.10007
E29  23765057.49307 -30586395.57707     -1079.43307        45.10007  23765066.48706  -5330892.96006      -806.02806        36.60006
R19  21513667.99807 115453886.84307     -4100.16907        44.50007
C21  22562337.81907     50755.15407      -213.01607        44.80007  22562349.81025     30526.22125      -159.02025        30.70025
C36  24480159.63806  -2140756.29306     -2708.93406        40.80006  24480171.33006 -16206225.25606     -2041.57706        36.10006
E07  25808835.01516 -29725144.03916     -2617.08016        39.50016  25808847.90605 -17911919.32105     -1954.50005        31.20005
C06  38224336.14326    513247.94326     -1580.71226        37.90026                                                                
R05  21532810.64526 115475223.07726       719.48526        38.80026
R15  21689341.28126 116271143.59026      2915.94426        37.30026
C09  37840075.66125 -27947266.56825     -1246.58925        34.70025                                                                
C13  40043186.87925 -31052465.84325     -1491.09725        34.10025                                                                
C22  23382495.33515  -4385883.06815     -2183.32315        34.60015  23382535.20824 -24627112.10224     -1647.06424        27.50024
C26  24524548.10925 -30182505.61325      2281.57825        33.90025  24524410.20423 -21967729.26823      1704.35823        19.60023
C16  39603724.71225 -29254131.26625     -1683.68225        35.30025                                                                
R03  22688843.34115 121825685.03315     -2797.46115        33.50015
C34  24617518.24726 -30443275.99226     -2639.11126        36.40026  24617492.76424 -16950231.00724     -1966.80824        27.40024
R04  20486483.10325 110074846.14125     -1195.32525        32.40025
C05  37233395.55725 -30802921.24825      -920.57625        32.20025                                                                
E30  27438281.37324 -32759064.47624      -321.14824        28.50024                                                                
E27  27056201.58125 -32433286.90025      1270.92225        33.80025  27055958.45024 -19019035.73624       956.17924        25.30024
R20  21517609.66924 115434469.31524      -564.29924        25.80024
R13  23338509.78624 124995961.09124     -3977.01724        24.80024
E19  24969836.44224 -32350178.01024       420.81724        26.40024                                                                
E26  24950136.48025 -32497583.56925     -3468.61825        31.90025                                                                
E33                                                                  24001221.70024 -15345261.88424      -820.66424        28.10024
> 2025 10 05 08 32 43.0000179  0 34                      
G03  20567238.79725    655016.42325     -2014.88325        31.40025  20567233.70016 -22424635.36816     -1508.51316        35.50016
G01  22976297.24026  -5455274.29926     -4334.35926        36.00026  22976197.41023 -19891213.59423     -3236.81823        20.90023
G07  22681222.91626 -11941544.21426      1790.71826        35.50026                                                                
G09  21166398.00825 -28012430.59825       265.86825        34.50025  21166419.59324 -22480366.41524       211.74824        27.60024
G06  22882632.78325   -224796.47925       717.14425        33.30025  22882656.46725   1914907.33625       522.92025        31.30025
G04  20975539.93625    626660.27125     -1683.06525        33.00025                                                                
G31  24531095.57624 -26692942.83824     -4537.29924        28.60024                                                                
G16  23187851.18525 -28244695.97825       852.02125        30.10025                                                                
G26  23837445.98024 -22888547.22824     -1772.93724        27.10024  23837528.72224 -24326124.29224     -1321.31124        24.20024
R14  20487222.69107 109577316.56107      -257.70007        47.10007
E29  23765276.34207 -30585323.36207     -1067.55507        46.00007  23765284.73606  -5330092.31706      -797.15506        36.10006
R19  21514443.26107 115457954.15707     -4088.61407        44.40007
C21  22562395.37907     50961.27907      -201.58807        44.60007  22562404.07325     30679.26525      -148.90625        30.90025
C36  24480693.56906  -2138053.92506     -2698.08006        40.90006  24480704.96106 -16204188.86906     -2033.06206        35.80006
E07  25809353.65606 -29722533.28606     -2606.34906        39.40006  25809358.45306 -17909969.58606     -1946.44706        35.60006
C06  38224674.30926    514822.36326     -1570.25526        37.80026                                                                
R15  21688830.13526 116268332.15826      2927.76626        37.20026
R05  21532716.51126 115474639.48226       732.82826        38.40026
C09  37840328.68615 -27946026.52215     -1235.72815        35.10015                                                                
C13  40043466.88525 -31050984.33825     -1476.25425        34.80025                                                                
C22  23382913.84625  -4383703.94625     -2176.29025        34.50025  23382894.95924 -24625470.13824     -1641.96324        27.00024
C26  24524121.50425 -30184795.29025      2294.41925        33.90025  24523985.09823 -21969443.58623      1717.95523        19.50023
C16  39604069.17325 -29252456.21525     -1669.41925        35.00025                                                                
R03  22689398.85625 121828577.19325     -2788.49725        33.50025
C34  24618022.19826 -30440639.79426     -2633.10626        35.80026  24618014.40314 -16948247.56714     -1987.44414        26.70014
E26  24950855.38225 -32494122.38825     -3455.93025        31.90025                                                                
R04  20486686.36225 110075853.68625     -1180.95725        32.30025
C05  37233580.82825 -30802011.33625      -905.01925        32.00025                                                                
E30  27438359.31924 -32758752.60124      -306.66424        28.50024                                                                
R20  21517718.79324 115434972.76424      -545.65824        25.70024
R13  23339271.25924 124999947.16124     -3971.54524        24.70024
E19  24969756.69724 -32350604.66324       430.63924        26.00024                                                                
E27  27056001.62025 -32434574.68025      1295.80725        32.80025  27055727.61024 -19019996.02424       963.27024        24.60024
E33                                                                  24001438.75024 -15344458.93824      -793.88824        27.60024
> 2025 10 05 08 32 44.0000184  0 32                      
G03  20567589.25426    657021.81826     -1997.88226        37.30026  20567598.84806 -22423137.41006     -1490.85806        38.00006
G01  22977146.85216  -5450951.54716     -4313.91516        36.00016  22977027.83523 -19887986.84023     -3219.47823        20.50023
G07  22680861.36626 -11943352.41426      1818.15826        35.50026                                                                
G09  21166350.94025 -28012709.42025       288.38025        34.40025  21166355.43724 -22480587.37124       228.62924        27.40024
G06  22882467.89725   -225525.71825       738.01625        33.30025  22882503.87225   1914373.70425       539.93825        31.00025
G04  20975853.81925    628328.88725     -1659.08525        32.90025                                                                
G31  24531905.91524 -26688415.20524     -4519.45724        28.50024                                                                
G26  23837779.94824 -22886785.40724     -1752.15124        26.80024  23837854.59724 -24324809.64524     -1308.41024        24.30024
E29  23765463.41207 -30584270.37607     -1043.37207        46.70007  23765470.60706  -5329305.93206      -779.25506        35.90006
R14  20487264.06207 109577617.05707      -233.04407        46.90007
R19  21515193.34207 115462046.72807     -4063.79407        44.40007
C21  22562416.96407     51148.32507      -177.50507        44.50007  22562421.16125     30820.21325      -134.90025        30.30025
C36  24481201.71726  -2135370.50026     -2673.95226        40.90026  24481205.91406 -16202166.62306     -2015.17406        35.60006
E07  25809830.92626 -29719944.01026     -2578.53726        39.40026  25809836.92205 -17908034.54205     -1927.69705        35.10005
R15  21688347.46926 116265833.44426      2966.29926        37.20026
R05  21532560.91826 115473889.14726       751.82726        38.00026
C09  37840549.03305 -27944806.14705     -1210.53805        35.40005                                                                
C13  40043780.16825 -31049520.18025     -1455.48425        35.00025                                                                
C26  24523648.73115 -30187102.94315      2316.64015        34.20015  24523509.02823 -21971187.08523      1758.08923        19.40023
C22  23383330.55725  -4381545.96625     -2147.40825        34.70025  23383297.28024 -24623841.88324     -1621.40024        26.80024
C16  39604369.56525 -29250799.37925     -1647.72725        34.70025                                                                
C34  24618520.45325 -30438026.03825     -2602.53525        35.40025  24618507.86224 -16946274.38524     -1968.05224        26.40024
R03  22689872.22825 121831191.32125     -2759.02825        33.40025
E26  24951543.70625 -32490676.32225     -3438.50625        31.90025  24951441.77623 -24396766.12523     -2566.77723        18.50023
R04  20486860.84125 110076868.89025     -1162.34125        32.10025
C06  38224983.39526    516373.70326     -1539.79826        36.70026                                                                
E30  27438408.18524 -32758459.17824      -284.19724        28.80024  27438437.86523 -24470484.50123      -234.81023        18.30023
E27  27055738.70225 -32435883.58525      1319.46625        32.10025  27055471.88724 -19020964.96724       973.27024        23.90024
R20  21517831.81524 115435656.01924      -520.98724        25.50024
R13  23339966.47724 125003739.92424     -3956.11724        24.70024
E19  24969665.86024 -32351047.27424       450.59024        25.70024                                                                
E33                                                                  24001626.12024 -15343671.51524      -779.66124        27.00024
> 2025 10 05 08 32 45.0000189  0 32                      
G06  22882314.10416   -226271.45816       753.99116        36.30016  22882315.60325   1913816.09925       569.59125        29.80025
G03  20567971.49016    659011.69516     -1982.11616        38.90016  20567981.08306 -22421651.01306     -1480.61506        40.90006
G07  22680507.61125 -11945175.31125      1830.24325        35.40025                                                                
G09  21166287.08425 -28013004.26025       302.84925        34.30025  21166270.59624 -22480822.37224       242.02424        27.00024
G04  20976160.20615    629982.26215     -1645.75415        32.80015  20976177.29524 -24843453.29624     -1236.83324        24.80024
G16  23187572.37824 -28246441.79124       889.53024        28.70024                                                                
G31  24532777.71124 -26683901.49624     -4506.74424        28.50024                                                                
G26  23838125.30924 -22885039.25224     -1738.32024        26.70024  23838193.36224 -24323504.05724     -1301.05824        25.20024
G01  22977984.17326  -5446644.48326     -4299.21726        35.90026  22977865.75523 -19884773.98423     -3205.90623        20.20023
E29  23765660.97507 -30583233.35207     -1029.04207        47.20007  23765672.06806  -5328531.46706      -768.50506        35.80006
R14  20487317.72507 109577885.52307      -219.94707        46.60007
C21  22562454.73807     51319.38607      -163.06907        44.40007  22562459.53425     30948.20225      -121.50925        30.30025
R19  21515957.51307 115466117.10607     -4047.87107        44.30007
C36  24481725.45416  -2132703.62416     -2658.59916        40.80016  24481722.15615 -16200156.03615     -2004.75615        35.40015
E07  25810321.98626 -29717369.19526     -2567.58226        39.40026  25810331.27905 -17906111.37905     -1917.22205        34.80005
R15  21687828.82926 116263044.96126      2971.00226        37.10026
C22  23383770.65225  -4379404.76725     -2132.80725        35.20025  23383712.19324 -24622225.61324     -1610.27724        26.70024
R05  21532394.23426 115472979.72426       770.51226        37.60026
C09  37840779.87315 -27943601.69015     -1196.49815        35.40015                                                                
C13  40044045.48425 -31048072.41825     -1439.56425        35.00025                                                                
C26  24523206.23825 -30189426.52625      2331.54825        34.70025  24523070.43223 -21972943.34623      1762.64023        19.20023
C34  24619026.50325 -30435424.46325     -2595.48325        35.10025  24619016.90924 -16944311.13524     -1958.28324        26.20024
C16  39604701.13625 -29249158.01425     -1633.62825        34.50025                                                                
R03  22690363.28825 121833803.91725     -2746.26925        33.20025
E26  24952214.34125 -32487247.07625     -3420.83425        31.80025  24952098.62223 -24394205.08423     -2561.04023        18.50023
R04  20487108.77025 110078179.09225     -1138.28125        32.00025
E30  27438458.55024 -32758180.94224      -270.64324        29.10024  27438497.82323 -24470264.89423      -212.00523        18.00023
C06  38225282.28826    517910.33326     -1529.27526        35.50026                                                                
E27  27055485.97725 -32437212.40225      1338.77225        31.40025  27055221.26023 -19021950.78023       994.24723        23.30023
R20  21517916.95624 115436095.20224      -506.51024        25.40024
R13  23340747.43724 125007891.79524     -3933.58924        24.60024
E19  24969594.50924 -32351509.02624       471.32124        25.50024                                                                
> 2025 10 05 08 32 46.0000194  0 31                      
G06  22882148.91807   -227029.22807       763.78407        41.60007  22882160.61025   1913245.45125       577.17025        29.60025
G03  20568328.84206    660988.66606     -1970.51706        39.60006  20568342.63306 -22420174.27906     -1471.90206        39.90006
G01  22978767.83016  -5442351.70116     -4285.63916        35.90016  22978668.89923 -19881559.68323     -3215.02123        20.00023
G07  22680134.66925 -11947014.68925      1847.61825        35.40025                                                                
G09  21166207.04025 -28013311.20425       312.99525        34.30025  21166204.04224 -22481067.42124       250.07424        26.80024
G04  20976470.79125    631623.01325     -1634.43825        32.80025  20976466.59424 -24842224.02424     -1229.27224        24.70024
G16  23187333.44325 -28247333.42325       891.63125        29.90025                                                                
G31  24533599.14324 -26679402.67524     -4491.37524        28.50024                                                                
G26  23838446.68724 -22883306.06424     -1726.70324        26.50024  23838511.14224 -24322204.69824     -1296.24324        26.30024
E29  23765844.14808 -30582209.41408     -1017.39508        47.50008  23765851.04406  -5327766.90206      -759.61406        35.60006
R14  20487338.71107 109578076.95407      -209.52207        46.20007
C21  22562470.62717     51477.52317      -151.67417        44.30017  22562473.62525     31066.58625      -113.58225        29.60025
R19  21516687.80717 115470103.28917     -4037.82117        44.20017
E07  25810782.16726 -29714805.96226     -2557.44126        39.40026  25810802.55315 -17904198.13915     -1908.27715        34.20015
C22  23384108.51916  -4377273.71016     -2125.98416        36.10016  23384105.22114 -24620619.05314     -1601.70414        29.10014
R05  21532276.71526 115472432.07926       778.20026        37.20026
C09  37840998.42225 -27942408.63925     -1187.34825        35.30025                                                                
C26  24522727.16925 -30191765.44825      2346.59025        34.70025  24522607.85223 -21974709.46123      1771.04323        19.10023
C13  40044327.28925 -31046639.03525     -1426.19125        34.90025                                                                
C34  24619540.94625 -30432840.50125     -2575.15425        34.90025  24619502.27324 -16942366.37224     -1935.51824        25.90024
C16  39604976.04625 -29247530.72925     -1620.24525        34.20025                                                                
R03  22690860.34425 121836543.66025     -2731.68225        33.10025
E26  24952831.01525 -32483829.79825     -3411.29225        31.80025  24952732.98223 -24391652.94923     -2547.68123        18.40023
R04  20487291.04425 110079234.90725     -1130.20925        31.90025
E30  27438515.81124 -32757916.15824      -258.05824        29.20024  27438566.17623 -24470013.37423      -267.47623        17.80023
C36  24482225.50826  -2130048.22226     -2649.66526        40.10026  24482217.41415 -16198154.77215     -1996.60315        35.10015
E27  27055207.17025 -32438549.09125      1340.62425        30.90025  27054952.34623 -19022948.56923      1003.77723        22.70023
C06  38225552.70125    519433.35325     -1516.21425        34.30025                                                                
R20  21517952.93124 115436367.58424      -494.21524        25.30024
R13  23341427.06624 125011601.27724     -3914.73124        24.60024
E19  24969485.98524 -32351987.01424       486.10724        25.20024                                                                
> 2025 10 05 08 32 47.0000200  0 31                      
G09  21166153.67716 -28013632.29816       328.16916        41.30016  21166155.47524 -22481312.89324       245.68324        26.70024
G06  22882018.80807   -227800.36907       777.82607        42.00007  22882029.60125   1912668.46525       580.15525        31.20025
G03  20568720.07126    662951.59126     -1955.90126        39.80026  20568732.06306 -22418707.77306     -1461.39106        39.30006
G01  22979606.05016  -5438072.25016     -4272.78316        35.90016  22979504.12023 -19878362.78523     -3188.19423        19.90023
G07  22679811.19315 -11948866.08515      1857.40515        35.40015                                                                
G16  23187167.95825 -28248237.66625       910.54825        30.10025                                                                
G31  24534467.94124 -26674920.78424     -4473.42424        28.40024                                                                
G26  23838844.21224 -22881581.25724     -1720.61624        26.50024  23838852.90624 -24320913.29324     -1287.42824        27.10024
G04  20976780.47725    633249.76725     -1619.75425        32.80025  20976793.66824 -24841003.96124     -1215.45624        24.50024
E29  23766051.00508 -30581199.39908     -1003.05308        47.50008  23766057.90005  -5327012.68205      -749.04805        35.40005
R14  20487396.57007 109578304.23207      -195.47607        46.00007
C21  22562510.49907     51622.00907      -137.66207        44.20007  22562517.39425     31173.91525      -101.80125        29.50025
R19  21517467.26707 115474191.27007     -4021.74207        44.10007
C22  23384528.52816  -4375156.17216     -2110.77816        36.80016  23384527.02905 -24619023.02705     -1590.75705        29.50005
R15  21686705.50616 116257039.80716      3002.78516        37.00016
R05  21532167.59126 115471767.40826       799.19626        36.80026
C26  24522314.35525 -30194117.88325      2359.18925        34.70025  24522201.03323 -21976480.65923      1773.73823        19.50023
C36  24482794.51426  -2127406.44026     -2634.97026        38.70026  24482740.25225 -16196165.26325     -1983.63025        34.80025
C34  24620042.49925 -30430267.57725     -2567.40425        34.60025  24620006.82424 -16940432.11724     -1929.00024        25.50024
C16  39605313.91225 -29245916.94025     -1607.03925        34.00025                                                                
R03  22691397.87225 121839340.08225     -2719.72725        33.00025
E26  24953465.67525 -32480424.46925     -3399.35425        31.80025  24953393.42523 -24389115.54223     -2530.04223        18.40023
R04  20487523.08325 110080396.46225     -1119.44625        31.80025
E07  25811284.91926 -29712260.82226     -2536.84326        39.20026  25811303.20725 -17902295.03125     -1898.04125        33.10025
C09  37841240.65425 -27941228.99125     -1172.94525        35.10025                                                                
E30  27438594.95624 -32757663.63324      -246.39424        29.20024  27438657.91223 -24469721.12923      -312.60923        17.50023
E27  27054958.04225 -32439896.34025      1352.52825        30.40025  27054701.72023 -19023962.68623      1022.28023        22.10023
C06  38225877.07625    520947.65325     -1509.93925        33.20025                                                                
R20  21518036.87324 115436733.31224      -486.59724        25.20024
R13  23342152.26424 125015391.74924     -3905.50924        24.50024
E19  24969415.53324 -32352476.76024       495.62424        25.00024                                                                
> 2025 10 05 08 32 48.0000205  0 32                      
G09  21166088.02207 -28013966.18607       340.28507        43.50007  21166100.61324 -22481564.56724       254.77424        26.90024
G04  20977090.16316    634862.76716     -1606.12216        35.80016  20977100.65524 -24839789.99324     -1210.92124        24.50024
G06  22881875.50707   -228583.23907       788.73407        42.00007  22881884.80125   1912086.38425       584.62725        31.00025
G03  20569097.81026    664904.07826     -1947.26726        40.00026  20569106.80406 -22417250.62006     -1452.47606        38.80006
G01  22980385.81006  -5433806.17306     -4259.38806        36.40006  22980317.45723 -19875178.55723     -3177.89223        23.00023
G07  22679458.93725 -11950732.87125      1874.48025        35.30025                                                                
G16  23186988.68225 -28249151.70425       918.93725        30.30025                                                                
G31  24535366.41924 -26670449.87624     -4465.41424        28.30024                                                                
G26  23839161.39224 -22879869.24424     -1705.61524        26.40024  23839185.07624 -24319632.01324     -1276.21624        26.90024
E29  23766242.57307 -30580202.10707      -990.92907        47.40007  23766251.26705  -5326267.90905      -740.04805        35.30005
C21  22562541.97707     51753.91207      -125.61107        44.00007  22562546.77424     31276.67424      -100.47524        29.40024
R19  21518248.22707 115478351.20007     -4011.56007        44.00007
R15  21686207.55126 116254361.42426      3006.83226        37.00026
C22  23384942.54126  -4373050.74026     -2099.37926        36.80026  23384935.04625 -24617436.30825     -1582.06525        29.90025
R14  20487449.63417 109578568.88617      -182.29117        45.50017
C36  24483294.56826  -2124777.67426     -2622.25626        38.00026  24483247.80025 -16194175.41925     -1990.01025        34.40025
C26  24521826.29325 -30196480.03925      2367.01625        34.60025  24521745.04923 -21978260.45023      1784.08623        19.60023
C16  39605632.29125 -29244314.95725     -1596.07925        33.90025                                                                
C34  24620571.93325 -30427706.50925     -2555.13825        34.40025  24620502.98024 -16938500.24024     -1930.68724        25.10024
R03  22691852.35825 121841754.30425     -2707.26825        32.90025
E26  24954161.49325 -32477032.37225     -3385.47925        31.80025  24954040.97723 -24386584.84023     -2527.34723        18.40023
R04  20487714.35025 110081403.24425     -1101.86225        31.70025
E07  25811824.54626 -29709725.58326     -2530.03726        37.60026  25811789.77025 -17900403.79925     -1885.29325        32.90025
R05  21532080.05126 115471281.72026       810.19626        35.50026
C09  37841500.87425 -27940063.02825     -1159.12025        34.20025                                                                
E30  27438656.11424 -32757424.08424      -233.06224        29.10024  27438730.76222 -24469393.76722      -344.91922        17.20022
E27  27054673.23925 -32441260.84025      1373.12625        30.00025  27054589.29824 -19024970.33924      1004.41924        24.00024
C06  38226175.36925    522447.01825     -1491.89725        32.30025                                                                
C13  40044900.19225 -31043813.77925     -1395.63325        30.90025                                                                
R20  21518102.22824 115437065.37724      -475.45524        25.20024
R13  23342925.42924 125019502.36324     -3897.29224        24.50024
E19  24969357.67324 -32352974.31124       501.45424        24.70024                                                                
> 2025 10 05 08 32 49.0000210  0 31                      
G09  21166009.77607 -28014312.83007       353.02207        45.10007  21166020.26924 -22481823.45424       262.49424        28.20024
G06  22881711.82117   -229378.55717       801.54317        42.00017  22881719.61525   1911492.82925       599.29225        30.30025
G04  20977380.96126    636464.53726     -1596.15426        41.20026  20977388.15624 -24838591.00824     -1191.49224        25.20024
G03  20569453.06426    666843.76326     -1933.28426        40.00026  20569460.55906 -22415802.72206     -1443.26906        38.70006
G01  22981169.76726  -5429553.68626     -4245.68926        36.60026  22981113.10623 -19872004.07423     -3169.60823        22.50023
G07  22679111.17825 -11952612.62825      1886.24325        35.40025                                                                
G16  23186798.31425 -28250077.13825       931.13125        30.30025                                                                
G26  23839471.67724 -22878171.33824     -1690.85124        26.40024  23839496.56024 -24318357.44724     -1271.21024        26.70024
E29  23766417.65107 -30579217.73407      -977.91407        47.30007  23766423.94705  -5325532.90605      -730.11905        35.20005
R19  21518966.82917 115482275.38717     -3998.07217        43.90017
C21  22562545.87527     51872.55627      -112.01327        43.90027  22562555.46824     31368.27924       -86.02724        29.30024
E26  24954738.59425 -32473654.33925     -3370.99925        34.40025  24954731.69924 -24384065.54324     -2513.59324        25.70024
R15  21685599.57226 116251192.93126      3023.60126        37.00026
C22  23385361.95126  -4370960.03426     -2083.34126        36.80026  23385321.17925 -24615863.40725     -1565.99225        29.90025
R14  20487466.72227 109578739.72427      -170.46027        44.00027
R20  21518207.75524 115437709.61224      -461.23224        27.70024
C36  24483793.72226  -2122163.63726     -2606.67226        37.50026  24483727.16825 -16192212.53125     -1949.41025        33.90025
E07  25812309.61026 -29707204.86426     -2513.45826        37.00026  25812254.44825 -17898520.25925     -1879.69525        32.60025
C26  24521369.70925 -30198854.57325      2380.72125        34.60025  24521277.37323 -21980051.28823      1796.36023        19.60023
C34  24621054.29925 -30425157.95425     -2542.29725        34.30025  24620976.05324 -16936577.74424     -1917.80524        24.70024
C16  39605900.00625 -29242722.92825     -1587.05225        33.80025                                                                
R03  22692335.62325 121844422.81425     -2693.37825        32.80025
R04  20487909.21625 110082526.49025     -1088.74225        32.00025
R05  21531957.73625 115470707.30525       817.94925        34.60025
E27  27054387.53725 -32442637.80525      1383.19525        29.70025  27054313.48924 -19025991.13124      1027.36224        23.50024
C09  37841703.53425 -27938912.73925     -1142.45225        33.30025                                                                
C13  40045152.61825 -31042418.76425     -1395.01425        30.40025                                                                
C06  38226455.37625    523932.60725     -1478.70025        31.60025                                                                
R13  23343604.75924 125023210.31724     -3883.69124        24.50024
E19  24969277.92924 -32353478.45924       507.44624        24.50024                                                                
E30  27438713.07424 -32757200.87224      -215.04324        29.00024  27438821.89922 -24469000.51022      -426.20522        17.00022
> 2025 10 05 08 32 50.0000215  0 32                      
G09  21165950.41707 -28014669.64807       361.90507        45.30007  21165953.41525 -22482091.17625       272.14025        33.40025
G06  22881567.02107   -230184.51407       811.27507        42.30007  22881566.72125   1910893.89725       601.62125        30.00025
G04  20977684.05226    638054.73826     -1584.41626        41.20026  20977692.44624 -24837404.45824     -1180.33124        26.10024
G03  20569821.50916    668772.30916     -1922.97616        40.20016  20569831.40206 -22414362.55606     -1436.30006        38.60006
G07  22678740.33525 -11954501.02325      1892.71325        35.40025                                                                
G16  23186631.32925 -28251013.60325       941.97925        30.20025                                                                
G31  24537065.34324 -26661538.52424     -4444.22024        27.50024                                                                
G26  23839799.35024 -22876486.96124     -1677.61224        26.30024  23839823.93324 -24317075.86924     -1285.08224        26.40024
G01  22981983.70416  -5425311.31116     -4237.31816        39.00016  22981924.34523 -19868835.42023     -3165.73823        21.90023
E29  23766607.72007 -30578243.79807      -968.71707        47.20007  23766611.01805  -5324805.62705      -723.41605        34.90005
R19  21519722.60607 115486301.37507     -3989.42507        43.80007
C21  22562574.95427     51979.88327      -101.67027        43.80027  22562579.15124     31451.50024       -79.02924        28.80024
E26  24955361.26317 -32470286.58917     -3362.60717        42.70017  24955377.15224 -24381562.18824     -2495.38324        24.80024
R14  20487485.60917 109578822.85717      -161.63117        43.00017
C22  23385780.16116  -4368881.22416     -2072.86116        37.30016  23385724.99925 -24614293.33525     -1568.65625        29.70025
R15  21685040.15926 116248185.77826      3037.00326        37.00026
C36  24484288.68026  -2119558.85226     -2600.15726        37.10026  24484237.11525 -16190252.13125     -1959.15425        33.40025
C26  24520866.95725 -30201241.04725      2392.44325        34.60025  24520825.28623 -21981847.23023      1798.49323        19.60023
C34  24621580.43515 -30422616.40215     -2538.05115        34.30015  24621467.41324 -16934661.45524     -1913.18524        24.30024
E07  25812794.37426 -29704696.40126     -2502.33426        36.60026  25812734.11625 -17896649.27425     -1864.70525        32.30025
R20  21518274.30925 115438048.56325      -450.33425        33.80025
C16  39606204.89525 -29241141.53125     -1576.08025        33.70025                                                                
R04  20488116.67215 110083619.85815     -1080.50815        32.50015
R03  22692838.07525 121847093.62625     -2681.40325        32.80025
R05  21531818.33225 115469943.97125       822.75325        33.90025
E27  27054141.70725 -32444027.75925      1396.44925        29.60025  27054046.37323 -19027021.22823      1034.74923        23.00023
C13  40045419.73325 -31041034.55825     -1378.80025        30.10025                                                                
C06  38226738.08025    525404.36225     -1464.83725        31.00025                                                                
C09  37841907.39325 -27937772.05425     -1135.88225        32.40025                                                                
E30  27438680.09724 -32756985.88724      -210.87124        28.00024                                                                
R13  23344344.94624 125027145.96324     -3875.65224        24.40024
E19  24969171.50224 -32353990.72924       516.33024        24.30024                                                                
> 2025 10 05 08 32 51.0000220  0 33                      
G09  21165880.86607 -28015034.46107       368.80907        45.70007  21165888.96015 -22482364.41515       275.99715        32.80015
G06  22881409.33007   -230998.16507       817.49707        42.40007  22881413.52725   1910288.94925       607.95625        30.60025
G04  20977991.63917    639636.82617     -1578.03117        41.50017  20977997.93424 -24836223.26724     -1178.51224        27.10024
G03  20570193.85116    670692.52616     -1916.05016        40.20016  20570200.44706 -22412928.53406     -1430.94906        38.60006
G07  22678372.78925 -11956392.58025      1893.13725        35.40025                                                                
G16  23186478.73525 -28251959.55925       950.70325        30.10025                                                                
G31  24537908.36024 -26657099.06324     -4439.45924        27.50024                                                                
G26  23840096.44524 -22874810.86224     -1671.95924        26.20024  23840154.90424 -24315785.23824     -1295.15924        26.00024
G01  22982820.12516  -5421076.70416     -4230.72116        40.60016  22982739.18123 -19865672.29823     -3160.35423        21.50023
E29  23766789.69407 -30577278.52707      -960.93907        47.10007  23766799.88705  -5324084.76205      -717.65805        34.80005
R19  21520458.89607 115490220.20707     -3982.89707        43.70007
C21  22562596.24017     52080.04217       -96.57517        43.70017  22562604.03424     31527.77424       -72.80024        28.70024
E26  24956033.99707 -32466927.10607     -3355.34807        42.70007  24956020.20724 -24379053.92824     -2510.71124        24.60024
R04  20488319.33206 110084684.87606     -1072.57106        40.70006
R14  20487513.78907 109578954.03907      -155.73107        42.50007
C22  23386145.30826  -4366806.02026     -2073.39926        37.30026  23386097.04224 -24612719.05324     -1576.38724        28.00024
R15  21684526.61526 116245422.52426      3044.61126        37.00026
C26  24520467.33425 -30203632.91925      2394.57025        34.60025  24520372.89923 -21983651.01323      1807.70323        19.50023
C36  24484793.53026  -2116961.31426     -2593.91226        36.70026  24484729.97425 -16188297.97725     -1951.03125        32.80025
C34  24622012.13625 -30420084.26925     -2527.42125        34.30025  24621957.87324 -16932750.81624     -1907.81324        23.80024
E07  25813263.84926 -29702193.95226     -2499.44026        36.20026  25813221.27925 -17894776.03825     -1874.36125        31.80025
C16  39606516.07915 -29239572.99015     -1562.11215        33.50015                                                                
R03  22693354.01825 121849837.20425     -2678.11225        32.80025
R20  21518346.85825 115438418.12125      -440.29525        33.60025
R05  21531676.83025 115469169.16425       841.52925        33.30025
C13  40045674.85625 -31039659.36225     -1370.69225        30.00025                                                                
E27  27053870.69525 -32445425.99225      1402.37025        29.50025  27053787.65313 -19028069.03813      1056.66613        22.50013
C06  38227012.09025    526872.98125     -1467.05025        30.50025                                                                
C09  37842144.52825 -27936637.32525     -1131.75125        31.60025                                                                
E19  24969072.57124 -32354519.11424       536.44324        24.30024                                                                
R13  23345127.40524 125031304.71224     -3861.16624        24.30024
E12  27085797.39322 -33566901.06122      1447.66822        17.00022                                                                
E30  27438730.76224 -32756776.40824      -206.72724        27.80024                                                                
> 2025 10 05 08 32 52.0000225  0 33                      
G09  21165812.21307 -28015402.25307       369.28207        45.70007  21165820.90715 -22482640.05115       276.83415        35.10015
G06  22881246.24307   -231815.10807       818.58907        42.50007  22881260.93325   1909678.14025       613.73925        31.10025
G04  20978296.52807    641215.71307     -1577.28607        42.10007  20978303.12324 -24835046.52924     -1174.51024        28.40024
G01  22983642.45506  -5416845.34406     -4229.73306        40.40006  22983549.22023 -19862511.65723     -3159.39923        21.10023
G07  22678014.23725 -11958293.10425      1905.00625        35.40025                                                                
G16  23186288.36725 -28252911.85425       955.46325        30.00025                                                                
G31  24538742.38224 -26652663.41324     -4433.74224        27.50024                                                                
G26  23840464.29024 -22873138.44624     -1670.57424        26.20024                                                                
G03  20570569.79106    672609.70206     -1915.65606        40.20006  20570568.89106 -22411496.82906     -1430.54606        38.60006
E29  23766983.66007 -30576316.67407      -960.14307        46.90007  23766986.95705  -5323366.62905      -716.76705        34.70005
R19  21521205.08007 115494194.15107     -3981.80707        43.80007
E26  24956652.46907 -32463571.04907     -3354.34207        43.20007  24956661.76314 -24376548.31214     -2504.29214        25.40014
C21  22562616.62607     52176.31807       -94.33407        43.60007  22562623.82124     31601.91624       -73.07624        28.50024
R04  20488528.58706 110085788.21406     -1072.00606        40.70006
R14  20487553.96227 109579150.82527      -154.27627        42.10027
R15  21683926.43026 116242197.46626      3045.93626        37.00026
C22  23386583.00526  -4364736.82226     -2066.19526        37.20026  23386491.26924 -24611151.31024     -1564.47224        26.50024
C26  24519979.57115 -30206032.31215      2403.15115        34.90015  24519917.21523 -21985459.70023      1811.13723        19.50023
C34  24622564.05415 -30417555.39115     -2527.25015        34.80015  24622447.73423 -16930844.26323     -1904.50923        23.30023
C36  24485308.57426  -2114369.95026     -2588.27626        36.30026  24485232.12725 -16186352.92125     -1940.50525        32.20025
E07  25813734.52326 -29699698.94026     -2491.29326        35.80026  25813701.84625 -17892900.31125     -1876.97225        31.40025
C16  39606838.65605 -29238007.71705     -1563.63905        33.40005                                                                
R03  22693902.63825 121852756.18025     -2670.80025        32.70025
R20  21518435.89725 115438876.43625      -440.55825        33.20025
R05  21531450.78725 115467942.32725       840.58525        32.80025
C13  40045914.09125 -31038286.65925     -1371.45525        30.00025                                                                
E27  27053643.45224 -32446831.63524      1409.34824        29.40024  27053525.63423 -19029116.28723      1046.96923        22.10023
E30  27438782.02624 -32756570.89324      -203.53324        27.80024                                                                
C06  38227303.18925    528336.18625     -1460.49825        30.00025                                                                
C09  37842376.26825 -27935508.22525     -1126.28625        30.90025                                                                
E19  24968945.15924 -32355055.03424       539.68824        24.20024                                                                
R13  23345877.18624 125035290.78824     -3856.27524        24.30024
E12  27085519.18522 -33568351.39522      1450.33322        17.20022                                                                
> 2025 10 05 08 32 53.0000230  0 34                      
G09  21165745.65917 -28015772.57417       371.58517        45.60017  21165751.95525 -22482918.04125       279.16725        35.10025
G04  20978597.21907    642792.08207     -1575.10907        42.80007  20978607.71225 -24833869.14125     -1177.71225        30.20025
G06  22881112.23617   -232632.94517       818.28317        42.50017  22881109.53715   1909071.87715       603.99015        30.90015
G03  20570940.03506    674525.14506     -1914.57406        40.20006  20570937.33606 -22410066.30506     -1429.93206        38.50006
G07  22677676.67125 -11960193.13725      1899.78725        35.40025                                                                
G16  23186109.09125 -28253863.10725       950.73225        30.00025                                                                
G31  24539597.09024 -26648225.62324     -4438.85724        27.60024                                                                
G26  23840733.50424 -22871463.38624     -1676.38024        26.10024                                                                
G01  22984443.20126  -5412616.99326     -4226.84626        40.20026  22984355.96123 -19859350.68323     -3161.13923        20.90023
E29  23767169.23107 -30575357.05807      -959.24807        46.70007  23767172.82915  -5322650.12115      -715.69515        34.40015
E26  24957297.32307 -32460217.34807     -3352.52107        44.20007  24957300.92025 -24374043.61725     -2504.23425        29.80025
R19  21521937.47327 115498094.61327     -3979.07427        43.80027
C21  22562640.00907     52270.72807       -93.47707        43.50007  22562645.70525     31672.69025       -69.08925        31.30025
R14  20487580.34327 109579274.38027      -154.96727        41.80027
R04  20488728.84806 110086843.27306     -1070.05606        40.60006
R15  21683398.19626 116239356.99426      3047.59026        37.00026
C22  23386974.23526  -4362671.03826     -2064.07626        37.10026  23386889.99324 -24609592.29724     -1554.64724        25.30024
C34  24623091.68815 -30415027.33915     -2527.63815        35.40015  24622937.89523 -16928936.80623     -1907.90823        22.90023
C26  24519492.70825 -30208432.40325      2400.43925        35.20025  24519459.73123 -21987267.73523      1807.70923        19.60023
C36  24485795.13726  -2111778.59526     -2591.35026        36.00026  24485731.28125 -16184400.26625     -1956.45425        31.50025
E07  25814221.38626 -29697203.41526     -2495.77926        35.50026  25814181.81425 -17891029.79125     -1867.91525        30.80025
C16  39607141.74605 -29236445.03005     -1561.39205        33.40005                                                                
R03  22694367.61625 121855227.85325     -2675.11425        32.60025
R20  21518507.54725 115439240.64025      -445.65125        32.80025
R05  21531302.09025 115467130.04525       839.74325        32.30025
C13  40046171.61225 -31036912.28925     -1375.20225        30.00025                                                                
E33  24003351.12624 -34194635.06524      -986.74324        27.00024                                                                
E27  27053340.96224 -32448235.51924      1403.00524        29.30024  27053263.31623 -19030162.34023      1045.45423        21.70023
C06  38227584.69425    529797.02225     -1459.65125        29.60025                                                                
E30  27438803.91124 -32756362.90424      -209.22624        28.10024                                                                
C09  37842585.52325 -27934380.91625     -1126.41225        30.30025                                                                
E19  24968862.11624 -32355591.61324       536.90724        24.50024                                                                
R13  23346595.78824 125039110.29924     -3862.12124        24.20024
E12  27085218.19422 -33569803.68322      1453.26422        17.10022                                                                
> 2025 10 05 08 32 54.0000235  0 32                      
G09  21165685.70127 -28016145.43627       374.13327        45.60027  21165686.30025 -22483200.29325       284.38325        34.60025
G04  20978900.60907    644366.22607     -1573.03107        43.10007  20978911.10225 -24832694.68425     -1172.99125        31.20025
G06  22880955.74407   -233453.85207       822.44107        42.70007  22880959.34105   1908464.60805       607.77105        30.50005
G03  20571305.78116    676437.94216     -1911.47316        40.10016  20571303.68306 -22408637.61306     -1427.77606        37.90006
G07  22677317.82015 -11962099.53815      1909.58315        35.40015                                                                
G16  23185935.21125 -28254816.94925       955.13625        30.40025                                                                
G31  24540443.40524 -26643794.56124     -4427.69724        27.70024                                                                
G26  23841050.68424 -22869785.34424     -1679.53224        26.00024                                                                
G01  22985240.34926  -5408392.43626     -4222.65726        39.90026  22985161.80423 -19856195.84223     -3151.77223        20.60023
E29  23767350.90507 -30574400.00107      -955.52707        46.50007  23767357.80105  -5321935.27605      -714.01405        34.40005
E26  24957943.67507 -32456865.13407     -3351.46907        44.20007  24957941.87625 -24371541.77825     -2500.41025        29.60025
R19  21522735.82017 115502347.92517     -3973.49817        43.70017
C21  22562658.29707     52362.91507       -91.07607        43.40007  22562666.69125     31740.25125       -65.95525        30.80025
R04  20488930.90806 110087906.76506     -1067.74806        40.60006
R14  20487632.50717 109579534.46617      -148.11117        41.50017
C22  23387388.84826  -4360608.08926     -2061.52926        37.00026  23387287.81824 -24608041.00624     -1547.42924        24.20024
R15  21682827.69126 116236290.20526      3047.35626        37.00026
C26  24519043.61925 -30210838.17225      2408.60625        35.30025  24518994.45323 -21989079.47123      1813.58523        19.70023
C34  24623599.23725 -30412503.58725     -2521.60025        35.40025  24623427.75613 -16927033.30913     -1901.51613        22.50013
C36  24486296.09026  -2109187.17526     -2591.45026        35.70026                                                                
E07  25814695.65825 -29694709.55025     -2493.03425        35.10025  25814659.38325 -17889165.07025     -1861.82125        30.30025
C16  39607434.64425 -29234884.44125     -1559.54025        33.30025                                                                
R03  22694892.25325 121858018.91925     -2668.20525        32.50025
R20  21518610.97625 115439776.23225      -445.35525        32.40025
R05  21531158.78925 115466347.59225       839.65925        31.90025
E27  27053083.74024 -32449640.92524      1406.16624        29.10024  27052996.50023 -19031222.87223      1067.77123        21.30023
C06  38227867.69824    531254.37724     -1455.61224        29.40024                                                                
E30  27438846.78224 -32756157.04224      -204.79924        28.00024                                                                
C09  37842807.07025 -27933257.14525     -1122.00125        29.90025                                                                
E19  24968740.70124 -32356130.13924       539.50024        25.30024                                                                
R13  23347274.51824 125042716.64024     -3866.11324        24.20024
E12  27084948.08122 -33571256.41922      1452.95922        17.00022                                                                
> 2025 10 05 08 32 55.0000240  0 33                      
G09  21165611.95217 -28016523.87217       381.22217        45.50017  21165623.64425 -22483480.76425       279.58125        34.20025
G04  20979203.69907    645936.72007     -1567.91707        43.10007  20979213.89225 -24831522.27025     -1171.39125        31.40025
G06  22880797.75317   -234278.52117       826.54917        42.80017  22880807.94605   1907853.88205       612.45405        30.30005
G03  20571663.43426    678346.36526     -1906.23526        40.10026  20571671.22806 -22407212.15506     -1423.84106        38.20006
G01  22986045.59216  -5404170.75516     -4220.24216        39.70016  22985967.64623 -19853044.30423     -3149.88523        20.40023
G07  22676958.66825 -11964008.96625      1910.94125        35.30025                                                                
G16  23185734.65025 -28255776.66625       962.65325        30.60025                                                                
G31  24541281.32424 -26639368.89424     -4422.96624        27.90024                                                                
G26  23841342.08224 -22868114.29624     -1667.55124        25.90024                                                                
R04  20489132.06907 110088965.65707     -1062.64607        43.90007
E29  23767535.27807 -30573447.21107      -950.65507        46.30007  23767543.37215  -5321223.71015      -709.92515        34.40015
E26  24958574.13927 -32453518.16827     -3343.59227        44.00027  24958581.93314 -24369041.99214     -2498.75814        29.40014
C21  22562680.78107     52450.64607       -85.50207        43.30007  22562684.37925     31806.44925       -65.51625        30.00025
R14  20487686.77026 109579804.46726      -145.29926        41.20026
R19  21523502.98927 115506432.08427     -3970.36827        42.60027
C22  23387771.38326  -4358548.33926     -2058.15126        37.00026  23387722.81624 -24606490.36324     -1550.31824        25.40024
R15  21682260.78316 116233242.52616      3054.45816        36.90016
C26  24518646.39416 -30213245.24916      2407.73016        35.60016  24518538.76923 -21990894.81523      1817.14723        19.70023
C34  24624093.89525 -30409983.12125     -2518.82225        35.40025  24623916.41723 -16925133.52223     -1897.93223        22.00023
E07  25815184.32025 -29692222.43425     -2483.74025        34.80025  25815137.25225 -17887322.89325     -1830.90525        29.70025
C16  39607745.82825 -29233328.99825     -1552.87025        33.30025                                                                
R03  22695361.42825 121860510.50325     -2665.69925        32.40025
C36  24486800.34125  -2106594.16325     -2593.80725        35.00025                                                                
R20  21518712.00625 115440297.28525      -439.49425        32.10025
R05  21531011.59125 115465540.66125       848.18025        31.60025
C13  40046742.71725 -31034178.76025     -1360.17425        29.60025                                                                
E27  27052793.54124 -32451051.72224      1413.49124        29.10024  27052858.59623 -19032369.18423      1189.20223        22.30023
C06  38228141.70824    532708.10724     -1451.91924        29.30024                                                                
E30  27438903.44224 -32755957.08624      -197.00324        27.90024                                                                
C09  37843014.52625 -27932132.11125     -1125.66525        29.50025                                                                
E19  24968629.47724 -32356672.06624       543.62724        25.60024                                                                
R13  23348023.70024 125046698.12924     -3861.20924        24.10024
E12  27084633.59822 -33572711.98222      1456.97522        16.90022                                                                
> 2025 10 05 08 32 56.0000244  0 33                      
G09  21165529.20907 -28016910.47307       390.68507        45.70007  21165537.00425 -22483768.91325       291.98725        34.00025
G06  22880631.66807   -235111.56107       837.22607        43.20007  22880641.26215   1907238.20415       618.15515        31.50015
G04  20979491.50007    647497.73907     -1556.53207        43.10007  20979501.69325 -24830355.78225     -1163.52425        31.30025
G03  20572022.58516    680246.88316     -1896.56516        40.00016  20572024.68406 -22405792.67906     -1416.48406        38.40006
G01  22986859.22826  -5399958.90526     -4206.93326        39.60026  22986763.89423 -19849896.38623     -3146.10723        20.30023
G07  22676574.93415 -11965925.76715      1920.48615        35.30015                                                                
G16  23185537.08725 -28256744.79225       972.33125        31.20025                                                                
G31  24542118.64525 -26634952.60825     -4411.59425        30.30025                                                                
G26  23841609.19724 -22866450.79924     -1659.72224        25.90024                                                                
R04  20489320.03908 110090016.87908     -1050.84108        48.10008
E29  23767706.15907 -30572503.38307      -939.34707        46.00007  23767714.85305  -5320518.67505      -701.77005        34.50005
E26  24959198.60617 -32450179.37117     -3334.96017        43.90017  24959208.50024 -24366549.85724     -2488.30924        29.30024
C21  22562686.77707     52529.45207       -74.34407        43.30007  22562692.17325     31864.67825       -54.24525        29.70025
R14  20487670.28116 109579761.74716      -137.52716        40.90016
R15  21681669.89206 116230129.85206      3064.48606        36.90006
C22  23388167.70826  -4356496.74626     -2047.51326        36.90026  23388108.94924 -24604944.36524     -1543.67624        25.30024
C26  24518173.92126 -30215659.02626      2417.12626        35.80026  24518065.69623 -21992718.69423      1828.14523        19.70023
R19  21524239.87927 115510419.03327     -3959.89727        41.60027
C34  24624555.27515 -30407470.18515     -2509.17015        35.20015  24624390.68923 -16923241.13923     -1888.68023        21.60023
E33  24003880.25925 -34473472.04225      -952.09125        31.50025                                                                
E19  24968515.55625 -32357224.69725       557.98325        29.80025                                                                
E07  25815643.90225 -29689741.07025     -2477.73825        34.60025  25815598.03324 -17885489.77724     -1828.58424        29.10024
C16  39608042.62325 -29231782.03325     -1542.72525        33.30025                                                                
R03  22695894.75925 121863409.56025     -2649.45125        32.30025
R20  21518752.47825 115440559.72025      -420.03125        31.70025
R05  21530877.88325 115464870.63925       860.36425        31.30025
C36  24487269.51625  -2104015.10625     -2572.07825        34.10025                                                                
C06  38228421.11524    534150.91324     -1437.34224        29.10024                                                                
E30  27438947.81224 -32755767.04224      -185.08724        27.80024                                                                
C09  37843218.08524 -27931018.75224     -1107.52224        29.10024                                                                
R13  23348749.79724 125050621.54724     -3843.27924        24.10024
E12  27084329.30922 -33574175.63022      1467.69122        16.70022                                                                
E27  27052527.62524 -32452468.47224      1419.72724        29.10024                                                                
> 2025 10 05 08 32 57.0000249  0 32                      
G09  21165455.16007 -28017308.26307       403.38307        46.10007  21165465.95325 -22484065.28225       300.48025        35.00025
G04  20979790.99307    649047.79607     -1544.57507        43.10007  20979795.49025 -24829198.35425     -1152.89825        30.20025
G03  20572385.33406    682136.75906     -1884.55406        40.20006  20572387.43306 -22404381.58906     -1406.89606        38.20006
G01  22987650.68116  -5395756.04516     -4198.36316        39.50016  22987567.93813 -19846758.75213     -3132.49113        20.10013
G07  22676218.48125 -11967855.44425      1936.11425        35.30025                                                                
G16  23185421.36725 -28257722.04525       981.81625        31.30025                                                                
G31  24542940.97625 -26630548.43125     -4398.12025        30.20025                                                                
G26  23841900.89524 -22864799.03124     -1645.90224        25.90024                                                                
G06  22880473.67807   -235955.37607       849.20307        43.40007  22880482.07225   1906614.34425       627.95025        31.50025
R04  20489520.90008 110091074.23608     -1038.33308        48.00008
E29  23767886.33507 -30571570.57607      -927.29707        45.90007  23767895.62806  -5319822.22806      -692.15206        36.30006
E26  24959861.44707 -32446851.54607     -3322.33707        43.70007  24959845.55824 -24364065.86024     -2479.92724        29.20024
C21  22562705.06407     52597.54107       -62.73007        43.20007  22562709.26125     31916.99925       -49.36625        29.60025
R14  20487699.66106 109579901.31906      -124.08606        40.70006
R15  21681097.28906 116227052.35206      3077.56106        36.90006
C22  23388552.04226  -4354457.28226     -2033.39826        36.80026  23388502.57724 -24603406.25124     -1534.17124        25.10024
C26  24517654.98126 -30218085.42126      2432.70126        35.80026  24517603.11723 -21994556.49023      1844.75523        20.60023
R19  21525001.65126 115514476.40226     -3943.34526        40.50026
C34  24624968.08925 -30404969.66025     -2494.31825        35.10025  24624874.55423 -16921354.96123     -1883.07323        21.20023
C16  39608314.83425 -29230246.71525     -1529.49525        33.20025                                                                
R03  22696369.63025 121865934.84725     -2647.81825        32.30025
E19  24968407.03125 -32357788.85925       569.92825        31.70025                                                                
E33  24004045.44525 -34472528.35425      -943.68725        31.30025                                                                
R20  21518864.90025 115441141.98425      -411.65925        31.50025
C13  40047348.59725 -31031476.47725     -1342.59225        29.60025                                                                
R05  21530742.07725 115464127.95825       868.47125        31.00025
E27  27052281.79524 -32453901.07624      1440.53124        29.00024                                                                
C36  24487779.76325  -2101447.35325     -2562.10025        33.30025                                                                
C06  38228705.61824    535583.63224     -1427.67524        29.00024                                                                
C09  37843429.43924 -27929917.49024     -1095.21324        28.80024                                                                
E30  27438983.18724 -32755587.17124      -174.78624        27.70024  27438977.19123 -25348026.41123      -138.04623        18.80023
R13  23349490.88424 125054561.01324     -3829.41424        24.10024
> 2025 10 05 08 32 58.0000254  0 33                      
G09  21165383.81007 -28017712.53007       407.50607        46.60007  21165392.80325 -22484365.58225       302.26625        34.80025
G06  22880324.98107   -236805.12107       852.70907        43.50007  22880322.58225   1905973.32425       649.60025        33.00025
G04  20980089.58607    650591.54707     -1540.59707        43.10007  20980094.68325 -24828046.44325     -1149.15125        30.40025
G03  20572743.88606    684020.38206     -1880.49606        40.50006  20572748.68207 -22402974.94007     -1404.42707        43.50007
G07  22675836.54526 -11969787.66126      1933.48626        35.60026                                                                
G31  24543801.38025 -26626148.20525     -4398.24925        31.50025                                                                
G16  23185216.90825 -28258705.56525       986.65325        31.30025                                                                
G26  23842222.57324 -22863159.56124     -1633.31924        25.80024                                                                
G01  22988468.51416  -5391560.09816     -4192.48916        39.40016  22988370.18203 -19843625.44403     -3131.14303        19.90003
R04  20489721.16108 110092127.76508     -1034.37708        47.70008
E29  23768065.91007 -30570644.25807      -923.07207        45.70007  23768074.90406  -5319130.52806      -689.32706        36.70006
C21  22562724.55107     52659.35007       -58.66907        43.10007  22562724.55125     31964.28225       -44.76525        31.70025
R14  20487716.44906 109579970.72506      -122.48306        40.70006
E26  24960482.31827 -32443527.48427     -3322.17927        42.50027  24960386.68414 -24361585.48614     -2478.56014        27.60014
R15  21680534.57806 116224025.31806      3081.03806        36.80006
C22  23388948.66826  -4352424.66826     -2029.18826        36.80026  23388895.60524 -24601874.07124     -1529.21224        24.90024
C26  24517226.57726 -30220518.78926      2436.85426        35.70026  24517141.13623 -21996390.88123      1832.68723        21.00023
C34  24625418.67725 -30402477.93625     -2487.32225        34.90025  24625356.62023 -16919477.19723     -1873.55723        20.80023
R19  21525743.93826 115518427.38226     -3939.24126        39.50026
E33  24004226.52025 -34471591.75525      -933.05625        31.70025                                                                
C16  39608629.91625 -29228717.57025     -1526.05625        33.10025                                                                
R03  22696869.08425 121868588.81125     -2636.44925        32.20025
C36  24488273.22125  -2098886.52625     -2557.36325        32.70025                                                                
R20  21518928.75625 115441464.10525      -409.71225        31.30025
E19  24968284.71625 -32358357.93625       571.53525        31.50025                                                                
R05  21530593.38025 115463313.38025       878.73725        30.80025
C13  40047609.71725 -31030138.80425     -1337.67225        29.60025                                                                
C06  38228983.82524    537009.91824     -1423.07024        28.90024                                                                
E27  27052053.95324 -32455342.75524      1446.21524        28.90024                                                                
E07  25816575.65725 -29684789.32625     -2462.71125        30.90025                                                                
C09  37843640.49324 -27928825.84424     -1086.83724        28.60024                                                                
E30  27439036.55024 -32755415.19324      -168.03024        27.50024  27439014.06623 -25347900.12423      -120.40923        19.00023
R13  23350238.26624 125058532.57124     -3823.65624        24.10024
> 2025 10 05 08 32 59.0000258  0 32                      
G09  21165299.86807 -28018124.22307       415.40507        46.70007  21165304.96425 -22484675.15725       314.21125        34.60025
G06  22880150.80107   -237661.66607       859.94507        43.50007  22880147.80325   1905329.12325       645.79025        33.00025
G04  20980371.69107    652128.15907     -1533.04107        43.00007  20980381.58425 -24826898.41825     -1146.08325        30.40025
G03  20573091.64506    685896.39306     -1872.20306        40.80006  20573096.74107 -22401574.03507     -1398.03307        43.30007
G01  22989252.77126  -5387370.71226     -4186.10426        39.40026  22989162.83413 -19840497.34213     -3125.49813        19.90013
G07  22675456.10826 -11971727.02026      1942.92926        35.60026                                                                
G31  24544634.80325 -26621753.36125     -4392.15125        31.90025                                                                
G26  23842498.68224 -22861520.42624     -1638.96824        26.30024                                                                
G16  23185008.55325 -28259694.41225       991.51125        31.30025                                                                
E29  23768233.49407 -30569725.28307      -915.30407        45.60007  23768240.98906  -5318444.32206      -683.45806        36.50006
E33  24004393.50416 -34470661.56016      -926.24116        36.50016  24004409.99324 -25749266.36624      -701.44324        26.80024
C21  22562723.35207     52713.50807       -50.33307        43.00007  22562721.85325     32005.09325       -37.57425        30.80025
R14  20487733.83706 109580108.00706      -114.97806        40.60006
E26  24961093.59427 -32440212.22827     -3311.60127        41.80027  24961005.15604 -24359110.13104     -2472.84504        26.90004
R04  20489904.93407 110093156.77007     -1027.83307        47.10007
R15  21679876.23406 116220553.28806      3088.00406        36.80006
C22  23389315.61426  -4350399.60026     -2021.29326        36.70026  23389232.87124 -24600345.64524     -1526.54824        24.70024
C26  24516761.29926 -30222956.52626      2439.92026        35.60026  24516665.36623 -21998228.96223      1839.92423        21.20023
C34  24625886.95325 -30399990.47625     -2485.32725        34.80025  24625869.86524 -16917601.17124     -1875.15524        27.90024
R19  21526457.74326 115522291.10226     -3932.77526        38.60026
C16  39608920.11525 -29227194.39225     -1520.19525        33.00025                                                                
C36  24488776.27325  -2096330.17025     -2554.12025        32.50025                                                                
R03  22697333.16325 121871118.68825     -2633.93225        32.10025
E19  24968142.91425 -32358932.82525       577.79425        31.20025                                                                
R20  21518978.52125 115441776.27625      -404.80625        31.20025
R05  21530415.90325 115462409.31025       880.35525        30.60025
C06  38229245.54425    538431.29725     -1418.92425        29.60025                                                                
E27  27051793.73324 -32456787.76624      1446.67624        28.80024                                                                
E07  25817026.24525 -29682331.65225     -2457.67325        30.40025  25817058.92224 -25848563.76824     -1818.47224        26.70024
C09  37843842.85324 -27927740.32924     -1082.45024        28.40024                                                                
E30  27439034.15224 -32755251.42124      -159.67024        27.40024  27439039.24823 -25347770.24523      -131.67523        19.10023
R13  23350904.10524 125062132.03124     -3824.17024        24.10024
> 2025 10 05 08 33 00.0000263  0 31                      
G09  21165216.52507 -28018543.76807       423.47107        46.70007  21165226.41925 -22484988.75125       315.60425        34.40025
G06  22879979.62007   -238526.59807       869.12407        43.60007  22879987.11525   1904684.91325       644.21525        32.70025
G03  20573451.39606    687762.41306     -1861.02406        41.00006  20573454.99307 -22400180.63607     -1389.64507        43.30007
G01  22990044.52326  -5383186.51726     -4181.59726        39.30026  22989967.17723 -19837373.80323     -3121.25623        20.20023
G07  22675112.24616 -11973676.84016      1955.05016        35.50016                                                                
G31  24545485.31425 -26617363.76925     -4386.96425        32.10025                                                                
G26  23842822.75724 -22859884.44424     -1634.40424        26.70024                                                                
G04  20980664.28807    653659.10607     -1528.11407        42.90007  20980677.17925 -24825757.30425     -1137.65825        30.70025
E29  23768407.37407 -30568813.65007      -907.96007        45.50007  23768418.16706  -5317763.65806      -677.89306        36.40006
E19  24968031.39226 -32359521.29726       595.26326        36.50026  24968039.18624 -25967396.25524       421.43324        23.90024
E33  24004574.87907 -34469741.90607      -914.63407        42.50007  24004588.36925 -25748577.08625      -683.19825        30.20025
C21  22562732.34507     52761.85907       -45.44707        42.90007  22562738.34125     32040.13225       -32.15325        30.60025
R14  20487758.72006 109580223.93606      -107.50906        40.60006
E26  24961736.05026 -32436903.94526     -3304.54626        41.40026  24961641.01615 -24356638.91415     -2469.14715        32.40015
R04  20490107.29407 110094222.55707     -1023.22007        45.50007
R15  21679303.63026 116217475.78826      3095.18226        36.40026
C22  23389734.12426  -4348381.40826     -2014.75326        36.60026  23389626.79824 -24598819.95124     -1524.32724        23.70024
C26  24516300.81816 -30225403.56416      2451.68816        35.50016  24516212.67923 -22000071.43423      1844.66723        21.50023
C34  24626350.43225 -30397511.63125     -2474.53625        34.70025  24626353.13024 -16915722.68824     -1879.71124        27.80024
R19  21527196.73226 115526226.77526     -3921.28326        37.70026
C16  39609215.41125 -29225676.27225     -1515.58925        32.90025                                                                
C36  24489237.95325  -2093782.21525     -2543.75425        32.40025                                                                
R03  22697846.70825 121873849.24425     -2620.74125        32.00025
R20  21519064.26225 115442216.99025      -394.27825        31.10025
R05  21530251.31725 115461511.36025       890.52125        30.50025
C06  38229525.85025    539845.20825     -1410.17725        29.60025                                                                
E07  25817515.20625 -29679883.75025     -2443.01425        30.10025  25817530.79524 -25846746.41724     -1817.34924        26.20024
E27  27051563.49224 -32458240.77124      1457.00224        28.60024                                                                
C09  37844063.20024 -27926660.49924     -1076.98624        28.20024                                                                
E30  27439054.23824 -32755094.14624      -154.02524        27.30024  27439079.12123 -25347635.94523      -136.51023        19.10023
R13  23351579.23824 125065720.03324     -3820.66324        24.40024
> 2025 10 05 08 33 01.0000267  0 33                      
G09  21165127.18707 -28018974.69607       436.61907        46.90007  21165134.98225 -22485309.30125       324.02825        34.10025
G06  22879808.73807   -239402.17107       880.89407        44.10007  22879812.33625   1904031.78025       657.59325        32.50025
G04  20980952.08907    655180.23007     -1516.21207        42.90007  20980959.58425 -24824621.53325     -1133.09925        30.90025
G03  20573788.96206    689617.21606     -1849.19406        41.00006  20573799.45507 -22398795.34407     -1381.23807        43.10007
G01  22990832.07816  -5379013.46316     -4167.48216        39.10016  22990757.73023 -19834256.06123     -3114.84223        20.60023
G07  22674727.01306 -11975638.52406      1967.61406        35.90006                                                                
G31  24546348.41725 -26612984.88925     -4373.52325        32.10025                                                                
G26  23843144.43524 -22858261.12624     -1616.98524        26.70024                                                                
G16  23184620.62125 -28261698.17825      1014.91625        31.40025                                                                
G30  25415776.82423 -34788059.03223      2729.36523        23.30023                                                                
E29  23768568.36307 -30567912.24107      -896.29807        45.50007  23768581.85316  -5317090.57416      -669.29416        36.30016
C21  22562730.24707     52799.91907       -32.91507        42.90007  22562737.74225     32068.68025       -25.30325        30.50025
E33  24004736.16717 -34468832.92117      -903.65017        43.00017  24004752.65625 -25747902.66225      -666.99625        30.20025
E19  24967901.58117 -32360121.85017       606.59417        41.90017  24967913.27324 -25967842.20924       445.95324        24.40024
R14  20487765.61516 109580303.25116       -98.29716        40.60016
E26  24962398.59116 -32433604.57616     -3294.15916        41.10016  24962260.98625 -24354174.56525     -2460.91425        31.20025
R04  20490270.08107 110095138.16107     -1010.22507        44.20007
R15  21678594.92126 116213731.55826      3104.16526        36.40026
C22  23390083.08226  -4346372.77126     -2003.85926        36.50026  23390045.60824 -24597306.39624     -1507.48624        23.50024
C26  24515784.87516 -30227860.47816      2461.85016        35.50016  24515732.41223 -22001915.16223      1844.35623        21.50023
C34  24626823.20525 -30395045.98325     -2459.04925        34.60025  24626816.31024 -16913871.10124     -1838.13924        27.60024
R19  21527921.93026 115530147.89926     -3915.67726        36.90026
C36  24489692.43915  -2091244.93615     -2531.93915        32.30015                                                                
C16  39609508.60825 -29224166.62525     -1505.41025        32.70025                                                                
R03  22698317.08225 121876410.52425     -2611.90425        32.00025
R20  21519120.62325 115442562.05925      -381.11225        31.00025
R05  21530078.03725 115460629.47125       909.14625        30.50025
C06  38229805.55625    541252.66825     -1404.23325        29.50025                                                                
E07  25817978.38525 -29677446.73425     -2431.57225        29.90025  25817981.68324 -25844943.51124     -1795.68424        25.70024
C09  37844240.97724 -27925589.95224     -1065.90524        28.20024                                                                
E27  27051303.87224 -32459701.30424      1464.29624        28.40024  27051112.60424 -25997573.15024      1090.78024        24.50024
E30  27439072.22624 -32754940.62124      -151.65024        27.10024  27439109.10023 -25347516.35623      -112.23423        19.00023
R13  23352238.48224 125069283.58324     -3812.03824        24.40024
> 2025 10 05 08 33 02.0000272  0 32                      
G09  21165049.24107 -28019416.50607       447.25107        47.20007  21165052.83925 -22485638.68725       333.80425        34.00025
G04  20981242.58807    656691.28307     -1506.01707        42.90007  20981251.58225 -24823491.20025     -1127.61325        31.10025
G03  20574149.31326    691462.16526     -1840.02126        41.00026  20574153.81007 -22397418.00307     -1373.36507        42.70007
G01  22991582.45906  -5374849.65706     -4159.18006        39.00006  22991556.37723 -19831147.25223     -3104.34223        21.00023
G07  22674353.17216 -11977608.35316      1973.90116        36.20016                                                                
G31  24547163.85225 -26608617.55625     -4361.55725        32.00025                                                                
G16  23184470.72525 -28262715.66025      1017.48225        31.50025                                                                
G26  23843443.62724 -22856653.83124     -1599.28324        26.70024                                                                
G06  22879656.14407   -240287.45407       890.13707        44.10007  22879647.45025   1903371.39125       664.01725        32.50025
E29  23768750.93607 -30567021.28207      -885.73307        45.50007  23768754.83306  -5316425.17306      -661.55906        36.10006
C21  22562738.04127     52828.31827       -23.56927        43.10027  22562747.33515     32089.99015       -17.69015        31.40015
E33  24004925.93627 -34467931.81627      -897.16527        43.20027  24004927.13525 -25747231.85425      -668.99925        33.00025
E19  24967804.44907 -32360733.38907       617.03107        41.90007  24967800.85124 -25968293.93624       454.61424        24.40024
R14  20487808.18626 109580512.98726       -82.05426        40.50026
E26  24962869.56526 -35010361.47026     -3282.57626        40.50026  24962888.45225 -24351717.40125     -2453.57025        31.00025
R15  21678009.72616 116210586.00916      3113.97016        36.40016
R04  20490483.23427 110096261.41227      -998.77527        42.90027
C22  23390454.52516  -4344376.01316     -1990.81716        36.40016  23390433.24023 -24595797.99723     -1505.82023        23.20023
C26  24515330.69026 -30230329.72026      2475.40626        35.50026  24515258.14023 -22003768.93323      1858.79123        21.40023
C34  24627304.97225 -30392589.85525     -2451.36625        34.40025                                                                
R19  21528672.91026 115534147.86526     -3901.26026        36.30026
C36  24490204.18425  -2088717.42925     -2522.62025        32.30025                                                                
C16  39609794.01025 -29222667.11625     -1494.44025        32.60025                                                                
R20  21519192.57325 115442928.55725      -370.97825        31.10025
R03  22698797.05025 121878961.85025     -2597.65725        31.90025
R05  21529913.45125 115459732.28725       916.33725        30.50025
C06  38230063.07824    542647.67324     -1388.77724        29.40024                                                                
C09  37844463.12324 -27924533.08424     -1050.02924        28.40024                                                                
E07  25818446.66125 -29675018.39125     -2424.00525        29.60025  25818446.66124 -25843134.39824     -1812.21424        25.70024
E30  27439059.33424 -32754796.72624      -139.08024        27.00024  27439122.29123 -25347406.35923      -105.20023        18.90023
R13  23352985.56524 125073255.90424     -3802.37224        24.40024
E27                                                                  27050837.69524 -25998673.88124      1100.73024        24.40024
> 2025 10 05 08 33 03.0000276  0 32                      
G09  21164951.50907 -28019861.80907       447.05007        47.30007  21164961.40225 -22485969.82125       332.00725        33.90025
G06  22879469.67307   -241176.45007       890.85307        44.00007  22879470.27215   1902707.67315       665.38315        33.10015
G04  20981515.09907    658198.28107     -1505.72007        42.90007  20981528.89025 -24822363.73425     -1126.03225        33.90025
G03  20574491.97616    693303.06116     -1838.86816        41.00016  20574495.87307 -22396043.14507     -1373.61707        42.40007
G01  22992361.61916  -5370689.40716     -4158.47116        38.90016  22992341.53323 -19828038.31723     -3108.99623        21.30023
G07  22673942.15626 -11979584.55526      1979.38726        36.20026                                                                
G31  24547963.09925 -26604250.84825     -4366.39425        32.00025                                                                
G16  23184304.34025 -28263736.20925      1022.08125        31.50025                                                                
G26  23843726.63224 -22855047.92424     -1605.21224        26.70024                                                                
E29  23768906.82817 -30566134.01317      -885.42417        45.70017  23768916.42225  -5315756.55625      -670.22425        35.30025
C21  22562734.74417     52852.49417       -22.06517        43.60017  22562743.73806     32108.10906       -16.52406        36.80006
E33  24005085.72527 -34467033.98127      -896.19927        43.20027  24005089.32225 -25746564.93825      -664.97025        33.00025
E19  24967672.54007 -32361348.68807       617.18007        41.80007  24967675.23824 -25968747.21124       454.04924        25.10024
E26  24963498.53026 -35007076.09526     -3285.37326        40.30026  24963505.12525 -24349266.34125     -2448.00825        30.30025
R14  20487798.89226 109580508.41226       -81.08426        40.40026
R15  21677416.43706 116207461.87506      3113.83306        38.10006
R04  20490659.51217 110097250.58017      -999.31917        41.90017
C22  23390846.35426  -4342380.60026     -1994.74026        36.20026  23390808.58023 -24594289.25123     -1508.91823        22.90023
C26  24514867.51015 -30232802.47215      2474.50515        35.40015  24514770.67723 -22005639.33223      1878.71223        21.40023
R20  21519265.72215 115443364.67915      -371.32415        35.00015
C34  24627808.62325 -30390137.55725     -2450.38225        34.30025                                                                
R19  21529382.81826 115537990.15626     -3906.18026        35.70026
C36  24490697.64325  -2086191.92125     -2524.50725        32.30025                                                                
C16  39610078.21325 -29221172.03325     -1492.86925        32.50025                                                                
R03  22699270.12225 121881539.98525     -2595.74225        31.80025
R05  21529749.76425 115458901.64525       918.42425        30.70025
C06  38230307.70924    544036.49324     -1385.72624        29.40024                                                                
C09  37844629.50824 -27923479.42924     -1052.04724        28.90024                                                                
E07  25818899.64824 -29672598.43224     -2415.76724        29.40024  25818897.84924 -25841325.33224     -1809.04324        25.80024
E27  27050565.78324 -35119431.85524      1476.01524        25.40024  27050549.29424 -25999771.71224      1096.38224        24.40024
E30  27439117.79424 -32754657.20424      -137.33524        26.80024  27439132.48423 -25347308.06123       -92.44823        18.70023
R13  23353696.07324 125077094.51324     -3793.60124        24.30024
> 2025 10 05 08 33 04.0000281  0 33                      
G09  21164883.75607 -28020308.23507       446.98807        47.30007  21164895.14825 -22486302.52025       333.48125        34.40025
G06  22879328.77007   -242065.94307       889.74107        44.00007  22879323.37415   1902043.44815       664.47915        33.10015
G04  20981824.18507    659704.93707     -1506.23407        43.00007  20981838.87525 -24821236.00425     -1127.86225        33.50025
G03  20574862.51906    695144.06606     -1841.05906        41.30006  20574867.61607 -22394668.71007     -1374.22207        42.40007
G01  22993167.46126  -5366531.60726     -4156.57226        38.70026  22993154.87023 -19824926.24823     -3113.63623        21.30023
G07  22673586.30326 -11981559.54226      1974.37926        36.10026                                                                
G31  24548823.80325 -26599886.00325     -4363.91225        31.90025                                                                
G16  23184105.57825 -28264756.93125      1020.80825        31.40025                                                                
G26  23844043.81224 -22853438.33524     -1611.43024        26.60024                                                                
R15  21676851.92807 116204327.03707      3112.29007        46.10007
E29  23769095.69707 -30565247.67407      -885.87307        45.90007  23769103.19225  -5315091.93125      -662.63025        34.70025
C21  22562768.32117     52876.05017       -23.24517        44.10017  22562770.11906     32125.68006       -17.29806        36.10006
E33  24005270.69717 -34466137.81217      -896.08717        43.10017  24005282.68925 -25745897.31925      -667.97125        32.50025
E19  24967573.90807 -32361965.10907       616.98107        41.70007  24967575.70724 -25969200.61124       453.46224        28.20024
E26  24964148.18016 -35003791.53316     -3284.15416        40.70016  24964151.17825 -24346814.15925     -2452.74025        29.90025
R14  20487848.35816 109580655.61516       -84.13716        40.30016
R04  20490870.56506 110098264.26606     -1000.37206        41.10006
C22  23391257.36916  -4340387.07616     -1992.58016        36.00016  23391212.40123 -24592777.34923     -1513.47923        22.50023
C26  24514365.35815 -30235273.94815      2470.83615        35.40015  24514315.29323 -22007502.51023      1859.56623        21.30023
C34  24628308.07725 -30387688.51125     -2447.41825        34.20025  24628330.26223 -26208145.89823     -1817.66323        22.90023
R20  21519365.25325 115443780.14625      -373.00725        34.70025
R19  21530134.39825 115541894.44625     -3899.86425        35.20025
C36  24491217.18325  -2083666.72425     -2525.04025        32.30025                                                                
R05  21529596.27125 115457963.15925       917.97025        31.20025
C16  39610360.91825 -29219678.12025     -1493.32725        32.30025                                                                
R03  22699780.06925 121884151.82125     -2598.97125        31.70025
C09  37844846.55824 -27922427.11124     -1051.65024        29.40024                                                                
C06  38230601.20624    545424.26224     -1387.24324        29.40024                                                                
E07  25819373.62024 -29670179.75624     -2418.03324        29.30024  25819386.51124 -25839516.45324     -1808.78424        25.60024
E30  27439174.15524 -32754517.19524      -140.25324        26.60024  27439181.65023 -25347224.20823       -76.63023        18.50023
C13  40048838.86624 -34701135.88424     -1293.09424        24.60024                                                                
R13  23354401.18424 125080743.63824     -3798.30324        24.40024
E27  27050311.25924 -35120904.88424      1473.02924        25.10024  27050292.37224 -26000866.08524      1092.64324        24.30024
> 2025 10 05 08 33 05.0000285  0 33                      
G09  21164797.71527 -28020752.93727       443.83927        47.20027  21164804.31125 -22486633.89625       330.71625        34.30025
G04  20982101.19407    661213.95807     -1510.20407        43.10007  20982115.88325 -24820104.84025     -1132.88025        33.80025
G03  20575200.98506    696986.98706     -1843.87906        41.30006  20575209.97907 -22393292.47307     -1377.13907        42.10007
G07  22673194.47426 -11983530.06626      1968.29326        36.00026                                                                
G01  22993960.41216  -5362370.15716     -4163.27316        38.00016  22993937.62823 -19821812.86423     -3114.03923        21.20023
G31  24549657.82625 -26595521.39325     -4364.49025        31.80025                                                                
G26  23844343.30524 -22851829.17124     -1608.95124        26.60024                                                                
G16  23183879.53425 -28265775.62825      1017.68525        30.90025                                                                
G06  22879137.80217   -242952.77017       885.49417        43.10017  22879146.79625   1901384.22225       656.72625        32.90025
R15  21676258.63807 116201202.90407      3109.48807        46.70007
E29  23769254.88707 -30564359.21607      -889.51807        46.10007  23769266.87925  -5314429.45525      -661.40125        34.60025
C21  22562766.82207     52901.55107       -26.47407        44.80007  22562766.22206     32144.76306       -19.83906        36.90006
E33  24005433.48427 -34465239.33627      -899.37827        42.90027  24005442.17825 -25745226.68625      -672.13925        32.30025
E26  24964767.85106 -35000504.86906     -3287.71406        41.30006  24964769.05025 -24344360.85025     -2453.87325        29.60025
E19  24967453.39207 -32362579.38907       613.20907        41.60007  24967452.19324 -25969654.03524       453.43624        27.90024
R14  20487846.25926 109580688.41526       -88.66026        40.20026
R04  20491042.64626 110099229.68726     -1004.18826        40.40026
C22  23391637.80626  -4338392.61826     -1994.92226        36.00026  23391587.74123 -24591267.94323     -1508.15823        22.10023
C26  24513866.50326 -30237742.23026      2466.68526        35.60026  24513834.42623 -22009362.07723      1857.76223        21.80023
C34  24628755.96725 -30385238.75525     -2450.11025        34.10025                                                                
R19  21530891.07425 115545986.25925     -3906.46625        34.70025
C36  24491686.95825  -2081139.77325     -2527.82725        32.20025                                                                
R05  21529409.50025 115457010.14025       914.49825        31.30025
C16  39610664.90725 -29218186.47125     -1490.51725        32.10025                                                                
R03  22700285.22025 121886902.29225     -2601.13625        31.60025
R20  21519413.82025 115444084.66925      -378.66025        34.30025
C09  37845037.82525 -27921370.74625     -1058.38825        29.80025                                                                
C06  38230864.12424    546819.61424     -1399.14324        29.30024                                                                
E07  25819828.70524 -29667755.03324     -2427.74624        29.20024  25819837.09924 -25837706.46324     -1810.54524        25.50024
E30  27439204.73424 -32754374.53224      -143.98924        26.40024  27439216.12623 -25347136.06523       -90.28823        18.20023
C13  40049148.55124 -34699840.14924     -1295.73424        24.90024                                                                
R13  23355100.00124 125084519.59524     -3789.80024        24.50024
E27  27050013.56524 -35122376.10124      1470.31024        24.80024  27050004.87124 -26001952.67724      1082.70224        24.10024
> 2025 10 05 08 33 06.0000290  0 33                      
G09  21164716.17217 -28021194.74817       440.36617        47.10017  21164722.46825 -22486964.05225       329.54525        34.00025
G04  20982394.09107    662724.87507     -1511.86407        43.20007  20982403.38425 -24818976.08025     -1127.55825        33.60025
G03  20575553.54106    698832.38806     -1846.63906        41.40006  20575564.93307 -22391914.23707     -1379.23507        42.00007
G07  22672826.62926 -11985498.39426      1967.22826        35.90026                                                                
G01  22994772.85026  -5358209.59526     -4160.11626        37.40026  22994774.04924 -19818698.46924     -3114.90024        26.70024
G31  24550480.75625 -26591155.75225     -4366.15325        31.70025                                                                
G16  23183672.97725 -28266793.47225      1017.41625        30.10025                                                                
G26  23844655.68824 -22850212.80924     -1619.96024        26.50024                                                                
G06  22878997.20027   -243833.58127       877.80227        41.90027  22878981.61125   1900724.07925       660.60125        32.80025
R15  21675679.14007 116198087.94607      3106.63807        46.60007
E29  23769427.86707 -30563468.46707      -891.89407        46.10007  23769437.76125  -5313765.01025      -665.43025        34.10025
C21  22562774.31607     52929.27507       -28.83407        45.10007  22562774.31606     32165.70606       -21.87306        36.70006
E33  24005616.05817 -34464335.66317      -905.52217        42.80017  24005618.15625 -25744554.46825      -673.01125        32.00025
E26  24965389.02106 -34997215.87706     -3290.15406        41.40006  24965399.21424 -24341905.89924     -2455.77024        29.40024
E19  24967325.08127 -32363190.24327       609.89227        41.50027  24967338.57124 -25970110.82724       458.47524        27.60024
R14  20487861.54926 109580751.72426       -92.83026        40.20026
R04  20491225.22026 110100189.74026     -1009.15726        39.80026
C22  23392013.74626  -4336393.98526     -2000.72126        35.90026  23391977.47123 -24589758.60423     -1509.30423        21.80023
C26  24513368.84826 -30240211.03326      2469.06226        35.60026  24513364.95123 -22011222.02523      1860.13723        22.10023
C34  24629220.04625 -30382782.92025     -2458.87325        34.00025                                                                
R19  21531574.30115 115549623.42615     -3909.76415        34.40015
C36  24492163.92825  -2078610.35325     -2530.65325        32.20025  24492183.41423 -26373669.42423     -1909.20623        22.80023
R05  21529229.32525 115456028.82325       912.45925        31.30025
C16  39610957.50525 -29216688.63325     -1500.93225        32.00025                                                                
R03  22700739.70525 121889316.52125     -2603.70025        31.50025
R20  21519468.68225 115444360.88225      -387.05925        33.70025
C09  37845252.47725 -27920308.35525     -1065.40325        29.90025                                                                
C06  38231138.73324    548212.65724     -1391.88824        29.30024                                                                
E07  25820293.08324 -29665319.45124     -2441.01024        29.20024  25820307.77324 -25835895.79924     -1811.00024        25.30024
E30  27439211.62924 -32754232.31824      -141.99024        26.20024  27439233.81423 -25347052.50523       -81.26923        18.00023
C13  40049408.77124 -34698539.45624     -1303.17224        24.90024                                                                
R13  23355835.99124 125088432.32224     -3800.78224        24.50024
E27  27049726.66424 -35123844.59724      1467.13424        24.60024  27049724.86524 -26003040.51924      1088.46724        23.90024
> 2025 10 05 08 33 07.0000294  0 33                      
G09  21164618.44027 -28021636.01027       440.98627        46.90027  21164631.33125 -22487293.41025       328.96025        33.90025
G04  20982674.09727    664235.74127     -1510.83927        43.20027  20982686.38825 -24817849.66425     -1125.24325        33.20025
G03  20575908.49506    700679.31306     -1846.93606        41.40006  20575906.99607 -22390536.11907     -1378.05807        41.80007
G07  22672429.70416 -11987467.15616      1968.97816        35.80016                                                                
G01  22995559.50526  -5354049.00426     -4160.60526        36.80026  22995508.54124 -19815578.63724     -3078.66724        28.70024
G16  23183493.70125 -28267812.95025      1020.29525        29.60025                                                                
G26  23844978.86524 -22848595.80424     -1617.32624        26.50024                                                                
G31  24551315.97825 -26586789.93225     -4365.90925        30.80025                                                                
G06  22878803.23426   -244716.28826       883.65526        40.60026  22878803.83425   1900061.51225       663.77925        32.50025
R15  21675088.54817 116194975.27617      3108.07317        46.60017
E29  23769594.25207 -30562578.38907      -889.74207        46.00007  23769599.64925  -5313099.91625      -665.41725        34.00025
C21  22562768.32127     52956.28827       -26.65827        45.10027  22562769.22025     32187.65625       -22.45325        35.30025
E33  24005777.64607 -34463433.55107      -901.58107        42.70007  24005777.64625 -25743883.67925      -670.07525        32.20025
E26  24966008.99207 -34993927.12107     -3288.63507        41.50007  24966017.98525 -24339449.27025     -2457.46625        30.90025
R14  20487872.34116 109580852.39916       -90.99116        40.20016
E19  24967197.66926 -32363802.40626       612.56626        40.60026  24967214.45724 -25970569.41624       459.48824        27.40024
R04  20491426.38126 110101311.45726     -1000.58026        39.20026
C26  24512869.69326 -30242675.95126      2462.97626        35.50026  24512886.18223 -22013082.11923      1860.16723        22.60023
C22  23392392.98326  -4334397.91226     -1994.79226        35.80026  23392352.51123 -24588246.08823     -1514.10523        21.50023
C34  24629684.12425 -30380329.33025     -2452.46825        34.00025  24629662.83923 -26423546.35023     -1838.16023        22.60023
R19  21532305.49525 115553578.23225     -3905.30725        34.00025
C36  24492630.70525  -2076078.42325     -2533.18525        32.10025                                                                
R05  21529084.22525 115455296.84925       914.61525        31.40025
C09  37845440.74725 -27919248.53825     -1058.53125        30.40025                                                                
R03  22701237.36025 121892024.86425     -2604.53325        31.40025
C16  39611233.91325 -29215191.92425     -1496.14425        31.80025                                                                
R20  21519549.32625 115444835.26325      -385.89725        33.20025
E07  25820713.09224 -29662890.44124     -2425.72324        29.10024  25820763.45724 -25834077.84824     -1821.59324        25.10024
C06  38231374.67024    549607.11824     -1395.16924        29.30024                                                                
E30  27439256.59824 -32754089.88324      -142.54624        26.00024                                                                
C13  40049643.50924 -34697236.22824     -1304.49524        24.90024                                                                
R13  23356521.61724 125092135.69524     -3808.60624        24.40024
E27  27049472.14024 -35125312.58724      1467.73724        24.40024                                                                
> 2025 10 05 08 33 08.0000298  0 33                      
G09  21164531.80017 -28022084.42317       451.98917        46.80017  21164538.09525 -22487627.47525       336.41725        33.80025
G04  20982955.30227    665738.29127     -1498.39227        43.20027  20982964.59625 -24816726.17625     -1122.02325        32.90025
G03  20576238.86616    702518.23916     -1835.92616        41.40016  20576249.65907 -22389163.00307     -1370.61507        41.80007
G07  22672041.77206 -11989441.33306      1976.88506        35.80006                                                                
G01  22996332.67026  -5349894.04126     -4152.14626        36.30026  22996301.19224 -19812480.14424     -3087.82224        27.70024
G16  23183291.94124 -28268835.11124      1023.50224        29.40024                                                                
G26  23845267.86524 -22846987.33524     -1604.20124        26.40024                                                                
G31  24552150.60025 -26582429.68725     -4357.45525        29.60025                                                                
G06  22878625.15726   -245606.64126       894.17526        40.00026  22878625.15725   1899384.10325       684.82925        31.70025
R15  21674504.25307 116191897.77607      3117.31207        46.50007
E29  23769746.54707 -30561695.24307      -879.68007        45.90007  23769759.43825  -5312439.84625      -657.55825        33.90025
C21  22562761.12627     52975.47227       -15.27027        44.90027  22562767.42125     32204.37425       -14.10325        34.80025
E26  24966624.16627 -34990643.98627     -3280.32527        42.30027  24966634.65825 -24336998.12725     -2448.40025        32.70025
E33  24005942.53227 -34462539.38627      -890.94127        42.60027  24005941.63215 -25743216.39715      -665.52815        32.20015
R14  20487886.43126 109580973.66526       -83.31226        40.20026
E19  24967076.85216 -32364423.00016       624.06016        39.90016  24967087.34524 -25971040.02424       476.61824        27.10024
R04  20491612.85226 110102355.02226      -984.89226        38.70026
C26  24512392.42425 -30245149.66325      2478.10725        35.40025  24512403.51623 -22014946.58823      1866.65623        22.60023
C34  24630164.99225 -30377885.25225     -2439.32025        34.00025  24630121.82123 -26421710.88323     -1835.46623        22.90023
R19  21533015.40425 115557421.28825     -3900.64025        33.80025
R05  21528890.55925 115454307.11425       921.71325        31.50025
C36  24493099.58025  -2073554.44325     -2520.00325        32.10025                                                                
R03  22701758.10025 121894857.28525     -2590.24525        31.30025
C09  37845637.71025 -27918195.28825     -1049.96625        30.70025                                                                
C16  39611514.21925 -29213704.51825     -1482.75525        31.60025                                                                
R20  21519602.08925 115445161.96925      -373.48425        32.60025
E07  25821156.48524 -29660475.60924     -2407.74224        29.10024  25821150.19024 -25832268.18324     -1805.52224        24.80024
C06  38231612.70524    550989.63324     -1376.54224        29.20024                                                                
C22  23392751.83525  -4332404.74525     -1991.71425        34.50025  23392720.95623 -24586743.76023     -1497.23323        21.30023
C13  40049873.45024 -34695937.45724     -1296.54224        24.80024                                                                
E30  27439319.85424 -32753953.83624      -132.85324        25.80024                                                                
R13  23357271.09824 125096182.89124     -3807.28724        24.30024
E27  27049187.63724 -35126790.13724      1482.32924        24.20024                                                                
> 2025 10 05 08 33 09.0000303  0 33                      
G09  21164449.65607 -28022539.78407       458.83407        46.70007  21164454.15315 -22487967.69215       343.29415        33.90015
G04  20983244.90217    667235.36717     -1494.33817        43.10017  20983253.59625 -24815606.80125     -1117.31925        32.50025
G03  20576591.42206    704350.81206     -1829.14506        41.40006  20576601.31507 -22387794.63407     -1365.99407        41.70007
G07  22671687.71726 -11991424.36326      1987.45526        35.70026                                                                
G01  22997165.19426  -5345745.67626     -4145.06426        35.90026  22997128.31924 -19809383.14324     -3096.25224        27.20024
G16  23183065.59824 -28269865.30424      1034.20824        29.20024                                                                
G26  23845555.06624 -22845391.91324     -1588.89724        26.30024                                                                
G31  24552974.72924 -26578079.04824     -4345.83424        28.60024                                                                
G06  22878448.58017   -246503.49917       900.11117        43.20017  22878458.47315   1898712.60715       668.53915        31.70015
R15  21673921.75607 116188767.52107      3125.57607        46.40007
E29  23769922.22507 -30560818.54607      -873.47207        45.70007  23769929.12025  -5311786.24825      -650.36225        33.80025
C21  22562771.31817     52988.79617       -10.39317        44.80017  22562773.71725     32214.62825        -7.02225        34.70025
E26  24967263.92317 -34987366.61817     -3273.73217        42.70017  24967260.02625 -24334552.46025     -2442.92825        33.20025
E33  24006124.50627 -34461650.12727      -886.55627        42.60027  24006116.11225 -25742554.07825      -659.83725        32.00025
R14  20487906.81726 109581064.42726       -78.93626        40.10026
E19  24966966.52926 -32365048.83726       628.70826        39.30026  24966969.82624 -25971520.00124       484.66124        26.90024
R04  20491799.02326 110103333.46126      -987.51026        38.20026
C26  24511981.40815 -30247630.77615      2484.81415        35.30015  24511931.64323 -22016816.78023      1873.05223        22.80023
C34  24630605.08725 -30375446.11725     -2436.66325        33.90025                                                                
R19  21533744.79915 115561304.91315     -3892.10415        33.60015
R05  21528719.97725 115453377.80725       931.09825        31.70025
C36  24493593.33825  -2071034.72425     -2517.58825        32.00025  24493619.12024 -26567241.94324     -1890.97624        26.30024
C09  37845852.06225 -27917152.00125     -1038.30525        30.70025                                                                
R03  22702241.36525 121897426.23125     -2584.65325        31.20025
C16  39611792.12725 -29212227.02125     -1472.54025        31.40025                                                                
R20  21519669.24325 115445502.45125      -358.05425        32.20025
E07  25821632.55624 -29658066.01124     -2406.97924        29.30024  25821674.82624 -25830457.04824     -1811.86924        24.60024
C06  38231894.21024    552363.41624     -1369.41624        29.10024                                                                
C13  40050139.66524 -34694647.40124     -1285.69924        24.80024                                                                
E30  27439358.22824 -32753826.05924      -123.64124        25.60024                                                                
R13  23357940.83424 125099741.85824     -3788.87224        24.20024
E27  27048916.32524 -35128278.23224      1493.36724        24.10024                                                                
C22  23393152.95725  -4330421.15825     -1978.79625        33.60025  23393106.48923 -24585249.29623     -1490.53123        21.00023
> 2025 10 05 08 33 10.0000307  0 33                      
G09  21164351.62407 -28022999.01307       461.16307        46.80007  21164358.51905 -22488310.46105       344.04505        34.00005
G04  20983522.80907    668727.90607     -1490.27007        43.00007  20983527.60625 -24814490.85525     -1114.23125        32.10025
G03  20576934.08507    706179.44507     -1826.66407        41.70007  20576940.68016 -22386429.00816     -1364.25416        41.10016
G07  22671313.57626 -11993413.44226      1992.10326        35.70026                                                                
G01  22997931.16416  -5341601.54816     -4142.00916        35.60016  22997875.40224 -19806301.44724     -3074.04324        26.80024
G16  23182888.42024 -28270902.01324      1039.96724        29.00024                                                                
G26  23845858.15624 -22843802.19824     -1586.86024        26.20024                                                                
G31  24553810.55124 -26573732.82724     -4344.01124        27.90024                                                                
G06  22878272.00207   -247403.20807       901.13407        43.10007  22878279.49705   1898040.84105       671.90005        32.50005
R15  21673324.57007 116185618.91307      3130.58407        46.40007
E29  23770081.41507 -30559946.13207      -870.27207        45.60007  23770087.71125  -5311135.81725      -648.84925        33.70025
C21  22562762.32507     52998.08707        -7.27607        44.80007  22562766.52215     32221.85415        -5.71315        34.90015
E26  24967876.39907 -34984096.45107     -3266.81507        42.70007  24967874.30025 -24332113.08425     -2436.22925        33.20025
E33  24006276.80017 -34460763.80017      -884.11017        42.40017  24006276.80025 -25741894.42925      -658.31525        31.80025
R14  20487909.81516 109581123.15216       -74.63816        40.10016
R04  20491966.90716 110104276.65616      -980.73316        37.80016
E19  24966817.53226 -32365677.54826       630.14826        38.80026  24966838.81724 -25972006.10024       489.16024        26.60024
C26  24511493.04615 -30250114.05115      2484.35415        35.20015  24511440.58324 -22018691.69424      1877.27624        26.00024
C34  24631056.27525 -30373003.39325     -2444.51725        33.80025                                                                
R19  21534441.81625 115565076.78725     -3888.99825        33.40025
R05  21528462.15625 115452043.12125       932.32725        31.70025
C36  24494068.50925  -2068522.57225     -2508.36725        31.90025  24494093.09224 -26565350.39524     -1891.54724        26.20024
C09  37846043.03025 -27916111.89725     -1038.51125        30.80025                                                                
R03  22702709.04225 121899972.19525     -2583.56925        31.10025
R20  21519745.69025 115445954.64325      -365.00825        32.00025
C22  23393524.70025  -4328441.52125     -1977.66225        33.10025  23393477.63223 -24583760.18023     -1486.44023        20.80023
C16  39612068.23625 -29210747.97325     -1479.82425        31.20025                                                                
E07  25822087.04124 -29655663.24124     -2399.35724        29.40024  25822122.71624 -25828635.69024     -1826.46824        24.30024
C06  38232137.04224    553733.90824     -1368.84624        29.10024                                                                
C13  40050398.08624 -34693365.26724     -1278.17324        24.70024                                                                
R13  23358658.23724 125103615.61324     -3774.99824        24.20024
E27  27048633.62124 -35129775.31424      1501.57424        24.00024                                                                
E30  27439362.72424 -32753704.21724      -118.87424        25.40024                                                                
> 2025 10 05 08 33 11.0000312  0 33                      
G09  21164285.67017 -28023460.61617       462.79117        46.80017  21164292.86525 -22488655.48625       346.15325        33.90025
G04  20983823.20117    670215.07417     -1484.48217        42.90017  20983831.29625 -24813378.83425     -1110.05825        31.00025
G03  20577309.42517    708004.52317     -1823.29917        42.10017  20577310.92406 -22385065.55306     -1362.36806        41.10006
G07  22670949.32816 -11995405.43216      1993.44416        35.60016                                                                
G01  22998765.18625  -5337458.02525     -4143.21725        35.40025  22998679.74524 -19803219.41524     -3082.19924        26.00024
G16  23182716.04024 -28271939.32924      1037.61924        28.80024                                                                
G26  23846172.03924 -22842212.55724     -1589.60424        26.20024                                                                
G31  24554621.78924 -26569387.77924     -4344.45924        27.30024                                                                
G06  22878140.99307   -248304.77907       902.50107        42.90007  22878129.90025   1897367.22625       674.53925        32.60025
R15  21672759.16107 116182483.30107      3139.36507        46.30007
E29  23770263.38907 -30559077.86707      -866.19007        45.50007  23770275.38115  -5310487.73315      -646.91015        33.60015
C21  22562795.00207     53003.40707        -3.33307        44.80007  22562790.20525     32223.90225         0.54325        34.50025
E26  24968500.86707 -34980832.24207     -3261.22807        42.70007  24968517.65525 -24329675.64525     -2436.47025        33.10025
R14  20487963.77806 109581296.28706       -72.13106        40.20006
E33  24006487.25526 -34459884.39026      -876.95126        41.10026  24006459.07425 -25741236.91825      -656.44125        31.10025
R04  20492177.06126 110105285.73926      -976.11126        37.50026
E19  24966786.95316 -32366308.17416       631.58316        38.20016  24966741.98424 -25972477.34924       463.82324        26.30024
C26  24511060.14625 -30252602.63025      2491.22925        35.10025  24510979.50224 -22020571.49924      1882.24824        25.90024
C34  24631537.14225 -30370568.17625     -2431.46225        33.70025  24631587.50723 -26711064.10723     -1826.73723        23.40023
R19  21535244.06115 115569253.55815     -3886.78315        33.30015
C36  24494583.55325  -2066014.27025     -2506.37625        31.90025  24494601.84024 -26563463.05224     -1885.23924        25.90024
C09  37846261.27925 -27915076.89325     -1032.45425        31.30025                                                                
R05  21528317.35625 115451152.81925       935.57825        31.60025
R20  21519832.63025 115446305.07025      -361.60125        31.80025
R03  22703202.20025 121902496.71425     -2579.15125        31.00025
C16  39612380.02025 -29209276.15425     -1468.20325        31.10025                                                                
C22  23393923.12425  -4326464.46425     -1975.76625        32.70025  23393876.65623 -24582276.83423     -1480.46123        20.50023
E07  25822528.93525 -29653262.77525     -2399.31325        29.70025  25822596.98824 -25826842.91424     -1778.48524        24.30024
C06  38232427.84124    555105.12024     -1371.57224        29.00024                                                                
C13  40050647.21424 -34692088.49524     -1274.08924        24.60024                                                                
E30  27439428.37924 -32753585.90824      -116.54224        25.20024                                                                
R13  23359408.31824 125107506.17924     -3767.53124        24.10024
E27  27048350.31724 -35131276.75424      1503.61824        23.90024                                                                
> 2025 10 05 08 33 12.0000316  0 33                      
G09  21164187.93807 -28023928.97807       471.74007        46.70007  21164196.03225 -22489004.35125       350.78525        33.80025
G04  20984096.61217    671695.81917     -1477.53217        42.80017  20984104.70716 -24812273.93816     -1101.33316        37.00016
G03  20577649.69027    709822.30027     -1814.12627        42.10027  20577648.49006 -22383708.16506     -1354.35506        41.00006
G06  22877970.11127   -249212.16427       910.29327        42.20027  22877949.42525   1896689.24825       680.16025        32.60025
G07  22670574.88826 -11997401.82526      1998.59326        35.50026                                                                
G01  22999535.35325  -5333323.56125     -4129.93325        35.30025  22999437.02124 -19800146.96724     -3067.65424        25.50024
G26  23846488.32024 -22840630.04724     -1578.94424        26.10024                                                                
G31  24555470.20224 -26565046.56324     -4339.29724        26.70024                                                                
G16  23182500.78924 -28272980.09024      1042.48424        28.80024                                                                
R15  21672158.07707 116179315.57607      3151.08907        46.20007
E29  23770415.38407 -30558216.64007      -857.70907        45.40007  23770430.97325  -5309848.86625      -634.25825        33.50025
C21  22562777.61407     53001.70807         5.20807        44.70007  22562779.11325     32219.97125         6.92025        33.60025
E26  24969135.22707 -34977577.76507     -3249.61007        42.60007  24969129.53125 -24327245.20725     -2426.93625        33.00025
R14  20487966.77606 109581356.53206       -62.11106        40.20006
E33  24006654.23926 -34459009.37726      -872.56426        40.40026  24006615.56625 -25740585.60425      -648.21625        30.90025
R04  20492329.35626 110106146.94726      -966.78726        37.20026
C26  24510526.51625 -30255101.00225      2503.26825        35.00025  24510493.83824 -22022460.45724      1893.53524        25.50024
E19  24966666.13726 -32366945.32726       640.41726        37.60026  24966616.37124 -25972952.05124       476.42924        25.90024
C09  37846437.85615 -27914047.54815     -1026.51515        32.70015                                                                
R19  21535931.18515 115572973.38415     -3872.10915        33.20015
C34  24632003.91925 -30368144.23225     -2418.30725        33.60025  24631985.63124 -26709237.28624     -1826.82024        28.00024
C36  24495051.82825  -2063517.10825     -2491.59025        31.90025  24495070.41624 -26561587.29924     -1869.95724        25.60024
C16  39612641.13925 -29207815.62325     -1454.88625        31.10025                                                                
R05  21528037.35025 115449701.10625       948.66925        31.50025
R20  21519935.45925 115446898.80925      -350.92525        31.70025
R03  22703679.17025 121905095.52625     -2573.84125        31.00025
E07  25822954.34125 -29650869.91825     -2389.05125        29.80025  25822962.73524 -25825066.73624     -1767.87824        28.70024
C06  38232684.76324    556464.31924     -1353.19224        28.90024                                                                
E30  27439425.98124 -32753472.15524      -111.47624        25.00024                                                                
E27  27048103.58824 -35132785.70524      1512.70724        23.90024  27048367.70523 -26575917.87923      1117.75223        23.00023
R13  23360134.71524 125111430.36224     -3762.93324        24.00024
C13  40050890.64524 -34690821.43624     -1262.20324        24.40024                                                                
C22  23394289.17125  -4324496.64725     -1963.19625        32.40025  23394243.30223 -24580795.54123     -1480.26523        20.20023
> 2025 10 05 08 33 13.0000320  0 33                      
G09  21164108.49307 -28024409.84307       487.11707        46.60007  21164116.88725 -22489364.85425       366.32225        33.70025
G04  20984386.81107    673164.00407     -1461.90607        42.80007  20984394.30606 -24811177.37206     -1092.40106        36.20006
G03  20577997.44917    711626.46117     -1797.35217        42.10017  20578001.04606 -22382360.41806     -1342.92606        40.70006
G06  22877799.22926   -250131.15026       924.78526        41.30026  22877784.83925   1896003.07325       690.27225        32.50025
G07  22670179.16225 -11999415.18825      2021.84725        35.40025                                                                
G01  23000338.19725  -5329203.45825     -4112.92125        35.20025  23000243.16324 -19797079.68824     -3064.69424        25.00024
G26  23846822.28824 -22839053.78124     -1573.14324        26.00024                                                                
G31  24556335.70324 -26560720.54524     -4318.41824        26.20024                                                                
G16  23182325.71024 -28274033.79724      1060.17824        28.80024                                                                
R15  21671581.27607 116176179.19807      3165.98607        46.20007
E29  23770600.05607 -30557367.84607      -842.57607        45.20007  23770602.45425  -5309215.48625      -630.63625        33.40025
C21  22562785.10907     52987.34907        20.69007        44.60007  22562788.40725     32210.12825        12.79925        33.30025
E26  24969756.69707 -34974336.55307     -3234.57907        42.60007  24969753.69915 -24324824.92115     -2415.20915        32.70015
C09  37846649.51006 -27913029.85106     -1011.87306        41.10006                                                                
R14  20487987.76126 109581414.49026       -47.13026        40.10026
R04  20492531.11616 110107171.35316      -949.08116        37.00016
E33  24006820.02426 -34458147.28326      -855.63426        39.80026  24006789.74525 -25739942.86425      -638.45225        30.60025
C26  24510047.44725 -30257615.83825      2523.06725        34.90025  24510017.16824 -22024359.33024      1903.83024        25.10024
E19  24966546.22026 -32367598.41726       661.05726        37.10026  24966503.05024 -25973438.98424       493.04824        25.50024
R19  21536666.57625 115576853.18025     -3857.79825        33.50025
C34  24632448.51125 -30365727.76125     -2412.73325        33.50025  24632457.20524 -26707418.16024     -1815.27824        27.50024
C36  24495541.09025  -2061032.50225     -2478.32725        31.90025  24495558.47824 -26559718.08024     -1865.95324        25.30024
C16  39612925.94225 -29206367.15325     -1442.43925        31.40025                                                                
R05  21527886.55425 115448839.87025       967.04425        31.40025
R20  21519998.71525 115447183.43725      -340.31325        31.50025
C22  23394692.69125  -4322542.11225     -1947.89225        32.10025  23394627.93623 -24579321.27923     -1470.74723        20.00023
R03  22704161.23625 121907620.80925     -2553.56625        31.00025
E07  25823408.82625 -29648486.05425     -2379.36725        30.40025  25823426.51415 -25823289.08415     -1778.38715        30.60015
C06  38232955.77524    557810.58324     -1339.79624        28.80024                                                                
E27  27047776.21424 -35134302.61224      1520.88324        23.90024                                                                
C13  40051164.95524 -34689566.01324     -1249.60424        24.30024                                                                
R13  23360842.52524 125115155.13124     -3761.83324        24.00024
E30  27439487.73824 -32753369.84224       -96.59324        24.80024                                                                
> 2025 10 05 08 33 14.0000324  0 33                      
G09  21164006.56307 -28024901.27607       496.71707        46.50007  21164014.65825 -22489737.42025       378.59725        33.50025
G04  20984655.42507    674621.44407     -1452.06607        42.70007  20984663.52006 -24810089.06906     -1084.17006        35.50006
G03  20578325.72217    713420.69417     -1789.26817        42.00017  20578334.41606 -22381020.36406     -1336.20606        40.50006
G06  22877595.97026   -251060.71926       934.86026        40.40026  22877598.36825   1895304.02025       705.49325        32.30025
G07  22669780.73725 -12001444.92825      2037.92825        35.40025                                                                
G01  23001074.18825  -5325097.13225     -4099.43625        35.00025  23001015.42824 -19794017.66324     -3059.39724        24.50024
G16  23182110.75924 -28275101.31524      1074.42424        29.10024                                                                
G26  23847101.99524 -22837488.29724     -1560.09124        25.90024  23847063.02221 -26569998.28521     -1192.37221         5.01021
G31  24557130.75224 -26556411.92024     -4299.92724        25.80024                                                                
R15  21670975.09607 116172983.94807      3175.52707        46.20007
E29  23770744.55607 -30556529.77007      -832.71807        45.00007  23770753.55025  -5308592.57325      -617.68025        33.20025
C21  22562769.81907     52962.84407        29.57807        44.40007  22562774.01725     32188.31225        27.80325        32.30025
E26  24970361.37917 -34971106.09317     -3225.08317        42.60017  24970361.67825 -24322413.15125     -2407.51225        32.60025
R14  20487985.96216 109581449.56616       -35.82716        40.00016
C09  37846827.88626 -27912025.01226      -998.41026        40.90026                                                                
R04  20492690.60606 110108070.86806      -943.82506        36.90006
E33  24006981.31316 -34457299.80916      -839.41516        39.20016  24006945.63725 -25739308.93625      -629.52325        30.20025
C26  24509524.60925 -30260147.06725      2539.42525        34.80025  24509528.80624 -22026266.85724      1911.85224        24.80024
R19  21537340.50925 115580503.35625     -3841.38125        33.60025
C34  24632903.29615 -30363322.90815     -2399.04315        33.50015  24632914.98824 -26705607.59724     -1806.28024        26.90024
C36  24496019.25925  -2058553.72125     -2475.86825        31.80025  24496025.25524 -26557856.30924     -1858.04524        25.00024
C22  23395043.74825  -4320594.64425     -1943.93625        32.00025                                                                
C16  39613203.25025 -29204931.38025     -1429.42325        31.40025                                                                
R05  21527736.35825 115448082.65425       978.00925        31.40025
E07  25823897.48825 -29646112.10225     -2368.99425        30.90025  25823871.10625 -25821516.68825     -1769.76925        30.20025
R20  21520033.79125 115447416.03325      -328.00025        31.40025
R03  22704640.00525 121910228.81325     -2540.29825        30.90025
C06  38233183.91824    559144.29724     -1327.43924        28.80024                                                                
E27  27047539.37824 -35135830.64624      1533.59724        24.00024                                                                
C13  40051375.71024 -34688324.72124     -1234.22624        24.30024                                                                
R13  23361509.86324 125118763.76024     -3754.31624        23.90024
E30  27439486.83924 -32753281.09624       -81.96124        24.60024                                                                
E19                                                                  24966367.24424 -25973937.05324       503.63724        25.10024
> 2025 10 05 08 33 15.0000328  0 33                      
G09  21163919.92307 -28025405.67907       510.88707        46.40007  21163929.21725 -22490111.47825       374.80425        33.20025
G04  20984940.22807    676066.00707     -1438.12507        42.60007  20984949.22205 -24809010.29205     -1074.01505        35.00005
G03  20578686.07227    715203.21527     -1776.66427        41.90027  20578683.37406 -22379689.81606     -1325.79606        40.20006
G06  22877439.77826   -252004.11326       950.30626        39.70026  22877428.68625   1894598.89425       708.16225        32.10025
G07  22669414.69125 -12003483.51025      2043.00325        35.30025                                                                
G01  23001871.03625  -5320998.36825     -4094.98225        34.90025  23001801.78424 -19790982.89824     -3021.13524        24.00024
G16  23181906.90024 -28276180.44124      1084.92824        29.10024                                                                
G26  23847385.29924 -22835935.11224     -1547.03524        25.80024  23847351.72222 -26568844.53422     -1134.44022        14.70022
G31  24557966.57424 -26552119.92824     -4283.67324        25.40024                                                                
R15  21670393.49927 116169821.57627      3190.38127        46.10027
E29  23770913.03907 -30555704.70407      -818.56107        44.90007  23770921.13425  -5307976.49925      -612.65425        33.10025
C21  22562775.81507     52925.65307        43.53307        44.20007  22562777.61425     32159.21925        32.73125        32.00025
E26  24971017.02507 -34967888.44507     -3211.23907        42.60007  24970984.34725 -24320009.86125     -2399.04825        32.40025
R14  20487988.06106 109581406.08606       -24.74306        39.80006
C09  37847035.94226 -27911033.39926      -984.99926        40.40026                                                                
R04  20492878.87506 110109024.78806      -929.95206        36.80006
E33  24007151.29526 -34456461.42926      -834.08226        38.60026  24007116.51925 -25738682.72325      -622.35425        29.70025
R19  21538078.59825 115584396.93125     -3838.65725        33.80025
C26  24509071.62325 -30262687.39825      2544.88025        34.70025  24509050.33824 -22028184.42524      1922.58824        27.60024
C34  24633376.66825 -30360926.91825     -2391.55725        33.40025  24633376.96824 -26703807.89924     -1794.26624        26.60024
C22  23395414.89125  -4318661.42925     -1926.08625        31.90025                                                                
C36  24496489.93325  -2056087.52625     -2459.90025        31.80025  24496509.71924 -26556003.37124     -1848.52124        24.70024
R20  21520078.75925 115447601.95925      -315.09225        31.40025
C16  39613482.05725 -29203506.32525     -1419.69725        31.40025                                                                
E07  25824349.87525 -29643753.62125     -2350.74625        31.00025  25824334.28524 -25819755.48824     -1755.60024        29.10024
R05  21527587.36125 115447231.36025       991.58425        31.30025
R03  22705129.86625 121912796.22425     -2525.91525        30.90025
C06  38233449.83324    560468.92724     -1320.08824        28.70024                                                                
E19  24966288.99825 -32368934.36325       680.16225        32.90025  24966250.62424 -25974436.77924       500.55424        24.60024
E27  27047297.74524 -35137373.81624      1550.73824        24.40024  27047295.04724 -27003911.06224      1150.41724        28.20024
C13  40051611.94624 -34687093.20124     -1226.63424        24.30024                                                                
R13  23362221.27124 125122507.62924     -3737.18724        23.90024
E30  27439492.23524 -32753206.58324       -67.39724        24.50024                                                                
> 2025 10 05 08 33 16.0000332  0 34                      
G09  21163817.69407 -28025923.08707       523.91007        46.30007  21163827.88725 -22490494.52625       387.54325        32.90025
G04  20985204.64517    677497.63017     -1425.15217        42.50017  20985213.33925 -24807939.14825     -1067.32725        34.50025
G06  22877236.51926   -252958.07126       959.24126        39.30026  22877240.71625   1893887.77225       714.11825        31.90025
G07  22668999.17825 -12005534.28725      2056.87425        35.30025                                                                
G01  23002668.18425  -5316918.13525     -4070.96425        34.90025  23002558.16024 -19787951.06324     -3030.36824        23.60024
G16  23181689.55024 -28277273.14924      1099.49924        29.00024                                                                
G26  23847666.20424 -22834396.57824     -1531.20924        25.80024  23847624.83322 -26567704.12822     -1133.73422        14.50022
G31  24558779.61124 -26547837.25424     -4278.01424        25.20024                                                                
G03  20579008.94927    716972.90427     -1763.27327        41.80027  20579013.44526 -22378366.24126     -1320.08826        40.10026
R15  21669798.41117 116166687.49017      3202.88017        46.00017
E29  23771059.63807 -30554892.55107      -805.69507        44.70007  23771066.83325  -5307371.95325      -598.78125        32.90025
C21  22562761.72507     52874.99907        57.38607        44.10007  22562759.62725     32121.11525        42.61025        31.50025
C05  37238388.90017 -35952584.09017      -629.37617        42.10017                                                                
E07  25824772.88225 -29641407.40225     -2340.08625        32.50025  25824776.77924 -25818004.93824     -1745.22524        28.20024
R14  20487970.67306 109581358.02606       -10.47406        39.70006
R13  23362904.19824 125126200.30324     -3720.65524        25.70024
R04  20493039.56426 110109929.66226      -916.36726        36.90026
C09  37847214.91826 -27910055.22326      -971.45726        39.90026                                                                
E33  24007302.09116 -34455636.37816      -818.38616        38.00016  24007268.21424 -25738069.32524      -606.99024        29.20024
E26  24971643.59117 -34964684.63917     -3196.88417        41.80017  24971586.63025 -24317613.23725     -2393.29125        31.30025
R19  21538795.10215 115588274.42915     -3820.55815        34.30015
C26  24508623.73325 -30265231.75525      2546.37025        34.50025  24508552.08224 -22030111.68324      1932.10224        27.00024
C34  24633832.95225 -30358546.65925     -2372.39325        33.40025  24633830.85424 -26702022.05924     -1778.90924        26.40024
C22  23395757.25425  -4316739.16225     -1916.79325        31.90025  23395708.08823 -27071398.59923     -1451.76723        22.60023
C36  24496960.30725  -2053637.54625     -2441.87225        31.80025  24496972.89924 -26554162.73724     -1834.48124        24.40024
R20  21520159.70325 115448080.16125      -304.67025        31.40025
R05  21527385.00125 115446194.96825      1008.89025        31.30025
C16  39613755.16825 -29202092.33225     -1408.46225        31.30025                                                                
R03  22705537.58325 121915024.32325     -2514.13225        30.80025
C06  38233679.17524    561781.92924     -1307.18724        28.70024                                                                
E19  24966143.29925 -32369623.57025       689.20625        32.10025  24966115.71824 -25974938.02524       502.00624        24.10024
C13  40051842.78624 -34685873.78424     -1213.36424        24.70024                                                                
E27  27046945.48924 -35138929.86424      1562.48524        24.80024  27046989.25924 -27005071.05724      1159.99424        28.00024
E30  27439518.61724 -32753145.97224       -53.66024        24.40024                                                                
> 2025 10 05 08 33 17.0000336  0 34                      
G09  21163735.85107 -28026452.11807       534.84307        46.20007  21163731.95325 -22490889.54525       401.00425        31.90025
G04  20985485.25107    678917.37607     -1413.80707        42.40007  20985491.24725 -24806876.21525     -1058.82625        34.20025
G03  20579353.11017    718730.37817     -1751.36617        41.70017  20579357.30726 -22377053.18126     -1307.80126        40.00026
G06  22877082.42526   -253925.81326       974.63326        38.90026  22877062.33925   1893168.10525       723.94125        30.90025
G07  22668614.24525 -12007597.31725      2069.15525        35.30025                                                                
G01  23003435.65325  -5312844.81825     -4069.85925        34.80025                                                                
G16  23181482.39424 -28278382.90924      1118.28524        29.00024                                                                
G31  24559632.82024 -26543562.39724     -4270.94524        25.00024                                                                
G26  23847984.58424 -22832872.46424     -1516.90324        25.70024  23847908.73622 -26566605.17222     -1078.23022        15.00022
R15  21669197.32707 116163421.90007      3214.04307        45.90007
E29  23771220.92607 -30554092.48407      -794.02507        44.50007  23771230.52025  -5306774.72125      -593.57625        32.80025
C21  22562755.13027     52813.50527        66.91427        43.90027  22562756.62925     32074.45025        50.94525        30.30025
C05  37238522.00827 -35951955.56827      -628.52227        42.50027                                                                
R14  20487992.25806 109581419.80206        -0.57906        39.50006
R04  20493234.72926 110110921.89326      -905.10126        37.00026
E07  25825233.06326 -29639075.53726     -2324.68726        37.20026  25825233.66324 -25816260.22024     -1741.80024        27.30024
E26  24972226.08806 -34961491.96106     -3187.11306        41.00006  24972205.10225 -24315221.88025     -2388.72225        31.20025
C09  37847416.67926 -27909087.13326      -963.04726        39.30026                                                                
E33  24007465.17826 -34454824.82826      -804.79926        37.50026  24007432.80024 -25737461.77924      -604.62024        28.70024
R19  21539537.08925 115592190.20125     -3810.09125        34.40025
C26  24508076.31225 -30267792.13925      2568.39625        34.40025  24508069.11724 -22032047.31824      1939.82324        26.40024
R13  23363593.12115 125129825.74415     -3710.12515        35.10015
C34  24634288.63725 -30356177.59525     -2363.46525        33.30025  24634292.23424 -26700241.09724     -1778.52324        26.80024
C22  23396145.78525  -4314834.07925     -1896.49025        31.90025  23396138.59014 -27069960.62014     -1437.97814        26.10014
C36  24497427.38425  -2051200.16825     -2431.07625        31.80025  24497451.06824 -26552326.44224     -1834.12524        24.20024
C16  39614022.88325 -29200694.31825     -1390.02425        31.50025                                                                
R05  21527298.66125 115445680.98025      1019.70425        31.30025
R20  21520230.75425 115448406.87025      -285.07725        31.30025
R03  22706008.25825 121917490.63225     -2499.38425        30.80025
C06  38233933.99824    563082.97524     -1295.06824        28.70024                                                                
E19  24966025.78025 -32370327.69825       711.58925        31.40025                                                                
C13  40052067.33124 -34684670.39524     -1195.37424        25.00024                                                                
E27  27046683.77024 -35140497.17624      1572.94424        24.80024  27046696.66224 -27006242.25724      1176.80324        27.50024
E30  27439544.39924 -32753095.56324       -45.30824        24.30024                                                                
> 2025 10 05 08 33 18.0000340  0 34                      
G04  20985743.97207    680325.37707     -1402.12907        42.30007  20985753.56525 -24805824.33525     -1046.35425        34.00025
G03  20579668.19227    720475.66327     -1739.19027        41.60027  20579681.38316 -22375749.28016     -1299.32216        39.40016
G09  21163631.82327 -28026993.55327       547.63727        44.80027  21163630.32425 -22491295.09725       410.81925        31.60025
G06  22876914.24226   -254907.04826       987.98126        38.50026  22876870.47225   1892436.00625       738.31425        30.70025
G01  23004208.51815  -5308786.64815     -4050.59315        34.80015                                                                
G16  23181240.16124 -28279499.67924      1120.27624        28.90024                                                                
G26  23848267.58824 -22831363.62924     -1501.19524        25.60024  23848190.24122 -26565484.49522     -1131.53822        14.90022
G31  24560434.46524 -26539297.22824     -4260.32424        24.80024                                                                
G07  22668199.93225 -12009670.79025      2078.69325        35.20025                                                                
R15  21668586.65007 116160202.94607      3225.84907        45.80007
E29  23771360.03007 -30553304.15507      -782.45807        44.30007  23771371.42225  -5306185.14325      -585.75025        32.40025
C21  22562735.34317     52739.78117        79.83817        43.70017  22562732.94524     32022.78424        54.16624        29.30024
C05  37238623.33827 -35951340.09327      -608.95027        42.40027                                                                
R14  20487979.36706 109581394.62306        10.45406        39.50006
E07  25825664.16516 -29636752.27916     -2318.95416        38.60016  25825671.36014 -25814524.95914     -1730.53214        26.80014
R04  20493394.51826 110111821.40726      -890.13326        37.20026
C09  37847592.95716 -27908131.02616      -950.11516        38.90016                                                                
E26  24972847.85706 -34958310.60906     -3175.68806        40.30006  24972804.98725 -24312839.35725     -2378.10625        30.90025
R19  21540244.59925 115596018.71325     -3799.79225        34.40025
C26  24507563.36725 -30270366.39325      2581.18725        34.30025  24507569.96224 -22033990.35824      1946.74224        25.90024
C34  24634747.02025 -30353823.85025     -2346.08525        33.20025  24634738.02624 -26698466.07824     -1772.04724        26.40024
C22  23396493.84425  -4312943.18025     -1883.80625        32.50025  23396498.04124 -27068528.34724     -1429.42024        25.90024
R05  21527077.11525 115444539.80225      1031.15825        31.50025
C36  24497905.25325  -2048769.14625     -2427.84325        31.70025  24497911.24924 -26550497.95824     -1824.57824        23.90024
C16  39614282.50325 -29199306.97025     -1382.01425        31.50025                                                                
E33  24007594.38826 -34454021.82426      -798.73126        36.30026  24007577.90024 -25736862.90224      -594.54424        28.20024
R03  22706466.34025 121919986.80725     -2491.36325        30.80025
R20  21520317.69425 115448914.91325      -272.59925        31.20025
R13  23364314.12225 125133719.36625     -3703.61325        34.50025
C06  38234179.22924    564373.09124     -1284.64924        28.70024                                                                
E19  24965897.46925 -32371041.68925       718.92325        30.70025                                                                
C13  40052282.88224 -34683481.92724     -1181.00824        25.20024                                                                
E27  27046365.99024 -35142076.06724      1584.68024        24.80024                                                                
E30  27439530.00924 -32753053.02424       -38.60424        24.10024                                                                
> 2025 10 05 08 33 19.0000344  0 33                      
G04  20986019.78107    681720.68407     -1388.95907        42.20007  20986028.47525 -24804780.92025     -1039.18225        33.60025
G03  20580009.95616    722210.46816     -1729.56516        41.40016  20580021.04826 -22374456.72726     -1286.87926        39.20026
G06  22876748.45726   -255899.10426       997.46726        38.20026  22876690.29725   1891696.27825       743.54225        30.40025
G07  22667850.07425 -12011754.33425      2088.57825        35.20025                                                                
G01  23004963.99525  -5304740.82925     -4039.64325        34.80025  23004908.53323 -27283958.62623     -3030.73423        23.20023
G26  23848558.98624 -22829861.34524     -1499.00824        25.50024  23848459.45522 -26564394.10822     -1075.24022        15.00022
G31  24561240.00724 -26535043.76524     -4247.60824        24.70024                                                                
G09  21163539.48627 -28027544.86027       556.24327        43.50027  21163544.28325 -22491707.46125       415.76925        31.50025
E29  23771518.92007 -30552527.54307      -770.75407        44.10007  23771529.41325  -5305605.09525      -575.28325        32.10025
C21  22562723.35207     52654.43907        91.15107        43.60007  22562730.24724     31962.47624        64.63024        29.20024
R15  21668004.15327 116157036.75227      3227.57627        43.90027
C05  37238748.05127 -35950735.78127      -598.73227        42.20027                                                                
E07  25826115.65206 -29634440.73406     -2305.68706        39.90006  25826120.44915 -25812798.87315     -1721.49815        31.70015
R14  20487983.26406 109581362.58506        21.83806        39.50006
C09  37847785.72306 -27907185.46706      -940.28406        38.80006                                                                
R04  20493568.69826 110112700.23826      -878.31526        37.40026
E26  24973463.33116 -34955139.69116     -3165.70016        39.70016  24973415.96425 -24310470.83525     -2361.51925        30.60025
R19  21540987.78425 115599940.61025     -3789.84525        34.40025
C26  24507083.39925 -30272952.00025      2591.28325        34.20025  24507089.69524 -22035943.74524      1958.56024        25.30024
C22  23396885.97325  -4311058.67225     -1881.31225        33.00025  23396866.78624 -27067108.61324     -1413.46424        25.70024
C34  24635223.39025 -30351474.25725     -2347.51725        33.10025  24635200.90524 -26696699.27824     -1762.68924        26.00024
R05  21526898.43825 115443531.71425      1042.29625        32.00025
C36  24498378.92525  -2046347.34825     -2417.18525        31.70025                                                                
C16  39614569.70425 -29197932.15125     -1368.55525        31.50025                                                                
R03  22706953.20325 121922539.66725     -2474.35825        30.70025
R20  21520342.27725 115448992.95825      -268.29725        31.10025
E33  24007757.17625 -34453230.90325      -784.88025        35.40025  24007738.28924 -25736272.39024      -586.32824        27.60024
R13  23364995.55025 125137304.31125     -3684.62625        33.80025
C06  38234457.73624    565654.20424     -1276.61324        28.70024                                                                
E19  24965748.17225 -32371766.28225       729.89325        30.00025                                                                
C13  40052489.43924 -34682298.96524     -1180.20824        25.20024                                                                
E30  27439563.88524 -32753018.77424       -30.10624        24.00024                                                                
E27  27046069.19624 -35143663.69824      1592.00124        25.10024                                                                
> 2025 10 05 08 33 20.0000347  0 33                      
G04  20986265.91007    683110.06707     -1386.42107        42.20007  20986272.50625 -24803742.66925     -1035.66825        34.90025
G03  20580316.64306    723939.34706     -1725.91606        41.30006  20580329.53426 -22373166.61926     -1288.88426        38.50026
G06  22876568.28126   -256898.44526      1002.98226        37.90026  22876479.84325   1890953.05425       744.97125        30.00025
G07  22667424.66825 -12013843.37925      2091.79525        35.40025                                                                
G01  23005655.61625  -5300701.18825     -4036.55225        34.70025  23005638.82823 -27280939.07623     -3019.54923        23.20023
G16  23180837.84024 -28281752.05324      1130.33724        28.10024                                                                
G26  23848834.19624 -22828364.90624     -1493.51724        25.50024                                                                
G31  24561999.38224 -26530796.92924     -4243.52224        24.60024                                                                
G09  21163423.76727 -28028105.30427       565.01327        42.40027  21163418.37025 -22492125.17025       420.38225        33.60025
E29  23771646.63107 -30551757.95107      -766.08107        43.90007  23771654.42625  -5305030.45225      -571.94025        32.30025
C21  22562705.66417     52559.16417       100.24217        43.50017  22562692.47324     31895.68424        70.03424        28.70024
E07  25826526.36806 -29632136.51206     -2300.56006        40.00006  25826540.45825 -25811073.87325     -1724.45625        30.70025
R14  20487958.98106 109581338.17706        25.97106        39.70006
C09  37847945.81206 -27906246.83806      -935.16506        39.50006                                                                
R15  21667405.46717 116153943.96517      3244.28717        43.20017
R04  20493718.29426 110113608.18726      -872.89226        37.50026
E26  24974055.12106 -34951976.99006     -3158.59206        39.30006  24973997.26125 -24308104.67525     -2364.97925        30.20025
R05  21526682.58816 115442483.09016      1047.44116        36.60016
C05  37238846.68327 -35950139.70627      -591.95527        41.60027                                                                
R19  21541651.82525 115603599.20725     -3785.50325        34.30025
C26  24506562.36025 -30275544.18925      2595.47925        34.20025  24506554.86524 -22037898.75624      1955.82324        25.30024
C22  23397207.05125  -4309181.24025     -1873.89425        33.30025  23397206.45124 -27065695.68424     -1409.52724        25.60024
C34  24635648.19625 -30349136.02025     -2332.55725        33.10025  24635617.31714 -26694939.18914     -1756.73314        26.00014
C36  24498802.23225  -2043938.48825     -2402.39125        31.70025                                                                
C16  39614807.43925 -29196562.25925     -1367.42725        31.40025                                                                
R03  22707400.79425 121925041.21025     -2477.04025        30.70025
C06  38234669.98925    566925.75625     -1266.77025        29.70025                                                                
R20  21520379.45125 115449297.48025      -261.80225        30.90025
E33  24007905.57325 -34452446.33525      -781.39025        34.60025  24007866.60024 -25735683.79224      -587.64124        27.00024
R13  23365640.70425 125140855.64025     -3683.10025        33.20025
E19  24965599.17524 -32372493.02124       727.81324        29.40024                                                                
C13  40052713.38424 -34681122.18324     -1173.69224        25.20024                                                                
E30  27439558.18924 -32752991.61124       -23.62024        23.90024                                                                
> 2025 10 05 08 33 21.0000350  0 34                      
G04  20986527.62927    684490.84027     -1376.46727        42.10027  20986534.22525 -24802709.04725     -1031.30925        34.60025
G03  20580658.40726    725661.19626     -1718.33326        41.10026  20580655.70916 -22371881.07516     -1283.26316        38.40016
G06  22876387.80626   -257906.50826      1012.42526        37.60026  22876285.27725   1890203.69025       752.43425        29.60025
G09  21163304.14926 -28028673.65326       572.30026        41.40026  21163308.94626 -22492548.47426       426.10126        35.80026
G07  22667016.95126 -12015946.25626      2109.79326        35.50026                                                                
G01  23006429.38025  -5296671.10925     -4025.29625        34.60025                                                                
G16  23180650.47024 -28282889.39324      1137.34024        28.10024                                                                
G31  24562793.83224 -26526554.16924     -4240.72024        24.60024                                                                
G26  23849090.51824 -22826877.78424     -1482.46324        25.50024                                                                
E29  23771783.63707 -30550995.18607      -759.35207        43.70007  23771797.12725  -5304460.74025      -567.24725        31.80025
C21  22562675.08527     52457.01927       105.58027        43.30027  22562671.78724     31823.25924        75.24124        28.60024
E07  25826960.16806 -29629838.99006     -2294.17206        40.70006  25826978.75525 -25809348.28325     -1725.88625        29.80025
C09  37848121.79106 -27905315.04206      -928.37806        40.00006                                                                
R14  20487966.17616 109581386.22816        31.06216        40.10016
R04  20493866.69126 110114412.70126      -870.15526        37.70026
E26  24974637.91826 -34948821.61226     -3152.46426        38.90026  24974600.44425 -24305745.81625     -2355.20925        29.70025
C06  38234893.93425    568191.05025     -1262.16525        33.20025                                                                
R15  21666873.33627 116151108.84527      3245.71527        42.20027
R05  21526488.62226 115441455.11326      1049.03126        36.50026
R19  21542369.52825 115607447.62325     -3776.45325        34.50025
C26  24506068.90225 -30278144.98025      2605.09225        34.20025  24506062.00624 -22039859.13724      1963.06524        25.00024
C22  23397574.89625  -4307313.15025     -1863.41925        33.80025  23397565.60224 -27064286.69824     -1407.01324        25.60024
C05  37238959.40526 -35949545.33926      -593.51326        40.40026                                                                
C36  24499280.70125  -2041535.82325     -2399.56725        31.80025                                                                
C16  39615066.76025 -29195194.54225     -1366.62925        31.30025                                                                
R03  22707876.26425 121927595.60025     -2464.31525        30.60025
R20  21520431.61525 115449585.93425      -255.90525        30.80025
E33  24008037.18225 -34451667.75325      -775.58925        33.80025  24008015.29724 -25735105.43024      -573.24524        26.40024
R13  23366356.90825 125144690.43025     -3677.44625        32.60025
E19  24965466.36724 -32373225.55424       735.43024        28.90024                                                                
C13  40052934.03124 -34679953.43824     -1164.72624        25.10024                                                                
E30  27439580.07424 -32752968.48724       -21.10424        23.70024                                                                
E27  27045226.47923 -36795939.95323      1606.21023        22.00023                                                                
C34                                                                  24636047.21923 -26693184.66923     -1751.73423        22.60023
> 2025 10 05 08 33 22.0000354  0 34                      
G04  20986800.14117    685870.17617     -1378.61817        42.10017  20986806.13625 -24801678.06625     -1029.66025        34.20025
G06  22876220.22216   -258917.56216      1012.54916        37.40016  22876105.10224   1889454.92724       748.46224        29.10024
G09  21163214.21226 -28029241.07426       566.95826        40.60026  21163212.11325 -22492972.86925       424.94025        35.30025
G07  22666663.49526 -12018042.67526      2093.18926        35.50026                                                                
G01  23007236.42225  -5292642.20625     -4028.31325        34.50025                                                                
G16  23180466.39724 -28284037.50624      1153.49924        28.00024                                                                
G26  23849388.21224 -22825393.42324     -1482.97924        25.50024                                                                
G31  24563632.35124 -26522321.50524     -4227.61424        24.50024                                                                
G03  20580986.97916    727380.21416     -1717.60216        41.00016  20580993.57506 -22370597.17606     -1283.07606        38.30006
E29  23771940.72807 -30550234.92207      -759.01307        43.60007  23771953.01925  -5303893.23625      -566.39925        32.60025
C21  22562660.09527     52354.82527       102.21827        43.20027  22562662.79424     31744.85824        81.38924        28.50024
C09  37848310.36006 -27904385.74706      -928.04506        40.50006                                                                
E07  25827426.94406 -29627544.09206     -2293.58406        40.70006  25827422.74724 -25807628.86624     -1716.32824        28.80024
R14  20487960.78006 109581303.85606        30.20006        40.10006
R04  20494042.07016 110115296.13516      -869.08716        37.90016
R05  21526297.35416 115440379.71916      1056.80316        36.50016
E26  24975245.89726 -34945667.92626     -3152.58826        38.50026  24975207.52424 -24303400.50524     -2338.53524        29.20024
R15  21666204.79926 116147482.37226      3249.10226        41.20026
C06  38235154.15426    569453.54126     -1261.08826        35.90026                                                                
C22  23397938.24415  -4305445.90315     -1866.82415        34.30015  23397933.44824 -27062879.33524     -1406.55124        27.10024
C26  24505561.35315 -30280747.44415      2603.29815        34.50015  24505571.84624 -22041818.06024      1958.19324        26.10024
R19  21543073.74015 115611160.56715     -3778.85915        34.60015
C05  37239081.42026 -35948955.52726      -587.53526        39.30026                                                                
C34  24636636.01225 -30344480.21525     -2326.17325        33.10025  24636505.60213 -26691431.97813     -1751.77613        23.40013
C36  24499770.86225  -2039132.09725     -2404.25525        31.80025                                                                
C16  39615334.77425 -29193833.69525     -1357.41225        31.20025                                                                
R03  22708381.11525 121930244.20425     -2468.50425        30.60025
R20  21520505.36425 115449925.65425      -256.93025        30.60025
R13  23367063.51925 125148409.08725     -3675.22925        32.10025
E27  27045134.44324 -36948598.39124      1602.93924        25.30024                                                                
C13  40053227.22824 -34678791.30624     -1158.82524        25.40024                                                                
E19  24965318.57024 -32373964.81724       742.62724        28.40024                                                                
E30  27439590.26724 -32752949.03024       -17.62324        23.60024                                                                
E33  24008198.17025 -34450893.27925      -772.42025        33.20025  24008172.08824 -25734529.34624      -574.94424        25.80024
> 2025 10 05 08 33 23.0000358  0 34                      
G04  20987068.45507    687244.90107     -1372.41907        42.00007  20987079.24725 -24800649.91225     -1026.73925        34.10025
G03  20581317.05106    729094.73106     -1712.26606        40.90006  20581328.74306 -22369317.27106     -1277.90706        40.50006
G06  22876035.85026   -259931.37126      1015.18626        37.30026  22875923.12824   1888699.22424       759.17224        28.50024
G09  21163130.57026 -28029814.37126       576.23526        39.90026  21163109.58415 -22493401.69315       431.03915        34.90015
G07  22666235.99126 -12020147.25026      2108.65126        35.70026                                                                
G16  23180293.71724 -28285186.09324      1148.82424        28.00024                                                                
G31  24564446.88724 -26518094.32324     -4224.44024        24.50024                                                                
G26  23849711.08924 -22823904.60424     -1491.04724        25.60024                                                                
G01  23008038.06725  -5288613.49425     -4028.61625        34.50025                                                                
C21  22562649.60327     52247.75727       109.50627        43.10027  22562649.90224     31668.62324        75.15324        28.00024
E29  23772095.12107 -30549480.21707      -751.92507        43.40007  23772107.11325  -5303328.52025      -563.32125        32.50025
C09  37848497.43006 -27903462.15006      -920.74806        40.90006                                                                
E07  25827855.94716 -29625254.51616     -2287.66516        40.70016  25827871.23724 -25805912.90524     -1714.23224        28.10024
R14  20487955.68316 109581224.53016        34.87316        40.00016
R04  20494224.04416 110116218.63916      -857.36016        38.10016
R05  21526110.28426 115439326.50326      1062.96626        37.20026
E26  24975866.16826 -34942518.07326     -3147.93626        38.20026  24975814.30424 -24301051.91024     -2350.23624        28.70024
C06  38235405.97926    570710.98326     -1254.91726        35.90026                                                                
R15  21665581.53026 116144099.03726      3251.74026        40.40026
C22  23398302.79216  -4303583.80216     -1859.52716        35.50016  23398301.29324 -27061474.97624     -1402.85724        28.30024
R19  21543759.36605 115614774.77305     -3771.32005        34.70005
C26  24505083.48425 -30283349.48925      2601.83625        34.60025  24505082.88424 -22043782.70224      1967.50124        25.70024
C34  24637097.69225 -30342159.17925     -2321.03525        33.90025  24636957.98904 -26689683.55004     -1746.29604        28.90004
C05  37239199.83826 -35948372.74426      -579.26826        38.40026                                                                
C36  24500198.66525  -2036734.90125     -2393.93025        31.70025                                                                
C16  39615600.99025 -29192479.12425     -1351.43225        31.10025                                                                
R03  22708834.70125 121932619.36725     -2459.37225        30.50025
E33  24008348.06625 -34450122.62025      -768.75025        32.80025  24008329.47924 -25733954.08824      -574.84524        25.20024
R20  21520573.11725 115450236.29725      -249.26325        30.40025
R13  23367768.03125 125152117.81125     -3671.54025        31.60025
C13  40053500.63924 -34677626.62324     -1165.95824        25.90024                                                                
E27  27044813.66524 -36950199.30824      1600.91624        25.10024                                                                
E30  27439600.46023 -32752927.31023       -22.85223        23.40023                                                                
E19  24965195.65524 -32374710.12124       748.32424        27.90024                                                                
> 2025 10 05 08 33 24.0000361  0 34                      
G04  20987309.78807    688614.94107     -1367.69607        42.00007  20987319.38115 -24799626.02315     -1021.75715        34.50015
G03  20581630.03406    730805.68106     -1709.16506        40.80006  20581634.83106 -22368039.72706     -1276.36306        40.20006
G06  22875819.99926   -260948.70126      1019.08926        37.20026  22875709.07614   1887937.95514       764.05114        28.00014
G09  21163007.65526 -28030392.31126       580.26126        39.30026  21162980.97325 -22493834.89325       435.38725        33.70025
G01  23008767.76225  -5284593.14525     -4016.16625        34.50025                                                                
G16  23180051.78424 -28286339.47924      1155.78424        27.90024                                                                
G26  23849980.00224 -22822418.49724     -1484.75124        25.60024                                                                
G31  24565210.75824 -26513872.81024     -4218.67624        24.50024                                                                
G07  22665810.28626 -12022256.64726      2111.80826        35.70026                                                                
C21  22562609.13127     52134.22927       116.75727        43.00027  22562610.03024     31590.80324        78.61224        28.00024
E29  23772224.93107 -30548729.04307      -749.40807        43.30007  23772230.92725  -5302769.17125      -556.66625        32.40025
C09  37848656.32006 -27902541.92406      -918.54006        40.90006                                                                
E07  25828272.35906 -29622969.18306     -2282.96106        40.80006  25828286.74924 -25804197.38224     -1715.30424        27.40024
R14  20487937.69606 109581232.92306        40.63506        39.90006
R04  20494370.04306 110117105.91106      -857.91606        38.30006
C06  38235617.93326    571967.24426     -1255.67126        36.50026                                                                
R05  21525902.82826 115438323.00726      1065.36826        37.10026
C22  23398634.06326  -4301726.05326     -1855.57426        35.90026  23398638.26025 -27060074.04725     -1399.21325        30.00025
E26  24976460.35626 -34939376.40126     -3137.58126        37.90026  24976395.60124 -24298706.11324     -2344.39824        28.10024
R15  21664988.84026 116141036.83526      3256.90526        39.70026
R19  21544411.41415 115618368.31415     -3764.42315        35.00015
C34  24637529.99325 -30339844.22325     -2311.91525        34.20025  24637380.09725 -26687938.15825     -1743.87325        33.20025
C05  37239295.77216 -35947793.59916      -577.32616        37.70016                                                                
C36  24500654.05025  -2034344.80425     -2386.54725        32.00025                                                                
C13  40053774.04924 -34676466.75624     -1157.45924        29.10024                                                                
C16  39615859.71125 -29191124.47725     -1354.68325        31.00025                                                                
E33  24008488.07025 -34449358.96925      -760.14825        32.40025  24008452.09424 -25733382.23624      -570.14924        24.60024
R03  22709207.64325 121934721.85925     -2452.98025        30.50025
R20  21520639.37125 115450695.37825      -243.34125        30.20025
R13  23368459.65225 125155917.45725     -3667.14725        31.20025
E27  27044497.38424 -36951803.93424      1606.48124        25.00024                                                                
E30  27439583.97123 -32752909.44923       -15.93223        23.20023                                                                
E19  24965019.37724 -32375460.14224       752.37924        27.50024                                                                
C26                                                                  24504562.44424 -22045750.30024      1969.07524        25.40024
> 2025 10 05 08 33 25.0000365  0 33                      
G04  20987584.09817    689982.22217     -1365.90217        41.90017  20987589.49405 -24798604.15405     -1020.85905        34.80005
G03  20581961.90426    732514.70126     -1708.05526        40.70026  20581969.09906 -22366764.19806     -1274.52106        40.50006
G06  22875633.82826   -261969.27426      1022.19526        37.20026  22875524.40414   1887174.82814       764.05714        27.40014
G07  22665409.76326 -12024369.42626      2114.46926        35.70026                                                                
G09  21162891.93526 -28030974.63526       584.51626        38.70026  21162882.04225 -22494270.00525       436.06825        33.40025
G01  23009533.43125  -5280572.12525     -4021.35425        34.60025                                                                
G16  23179832.03624 -28287498.26224      1161.48224        27.80024                                                                
G26  23850256.41124 -22820940.38224     -1474.11724        25.60024                                                                
G31  24566035.48824 -26509657.25224     -4212.58024        24.60024                                                                
C21  22562596.53927     52023.05727       109.99427        43.00027  22562598.33824     31508.83924        84.03524        27.30024
E29  23772375.42707 -30547980.81207      -746.76007        43.20007  23772382.92225  -5302210.67625      -558.06825        32.90025
R19  21545116.22606 115622086.61506     -3764.39606        39.90006
E07  25828709.15706 -29620686.74806     -2280.98606        40.90006  25828730.14224 -25802488.84524     -1705.04424        26.80024
C09  37848840.09306 -27901624.61606      -915.84806        40.90006                                                                
R14  20487935.89706 109581171.14206        41.14106        39.80006
R04  20494522.93716 110117871.34516      -859.94716        38.50016
E26  24977050.94726 -34936237.92826     -3136.87126        37.00026  24977002.98124 -24296360.89424     -2344.92924        27.50024
C22  23399009.10316  -4299870.27616     -1854.79016        36.40016  23399005.80525 -27058675.07625     -1397.99225        32.00025
C06  38235878.45226    573220.92726     -1252.39326        36.70026                                                                
R05  21525702.26616 115437197.89616      1067.17116        37.00016
R15  21664376.66426 116137713.13726      3259.44326        39.00026
C05  37239412.09116 -35947220.00516      -570.81916        37.10016                                                                
C26  24504100.46425 -30288572.49125      2614.77825        34.30025  24504067.48724 -22047714.13124      1961.94724        25.10024
C34  24637959.89525 -30337529.19825     -2315.06025        34.20025  24637837.28015 -26686194.12415     -1743.35515        32.10015
C36  24501125.02425  -2031956.57025     -2387.30225        32.40025                                                                
C16  39616118.43225 -29189775.15525     -1346.66125        30.90025                                                                
C13  40054016.28225 -34675309.93325     -1155.30025        30.50025                                                                
R03  22709709.19525 121937352.84725     -2449.73225        30.40025
E33  24008729.40225 -34448596.12325      -762.44325        32.00025  24008610.38524 -25732812.28324      -569.00324        24.00024
R20  21520695.13325 115450940.98725      -247.35725        30.10025
R13  23369140.18125 125159498.58425     -3656.59025        30.80025
E27  27044170.61024 -36953417.70724      1618.34424        24.80024                                                                
E30  27439606.75623 -32752899.68923        -5.71023        23.00023                                                                
