     4.01           OBSERVATION DATA    M                   RINEX VERSION / TYPE
GnssLogger          samsung 15          20251005 084104 UTC PGM / RUN BY / DATE
Google GnssLogger                                           MARKER NAME
Unknown                                                     MARKER NUMBER
Unknown             Unknown                                 OBSERVER / AGENCY
Unknown             GnssLogger          v3.1.1.1            REC # / TYPE / VERS
Unknown             Unknown                                 ANT # / TYPE
        0.0000        0.0000        0.0000                  ANTENNA: DELTA H/E/N
G    8 C1C L1C D1C S1C C5Q L5Q D5Q S5Q                      SYS / # / OBS TYPES
R    4 C1C L1C D1C S1C                                      SYS / # / OBS TYPES
C    8 C2I L2I D2I S2I C5P L5P D5P S5P                      SYS / # / OBS TYPES
E    8 C1C L1C D1C S1C C5Q L5Q D5Q S5Q                      SYS / # / OBS TYPES
  2025    10    05    08    41   04.0000000     GPS         TIME OF FIRST OBS
 9 R03  5 R04  6 R05  1 R13 -2 R14 -7 R15  0 R19  3 R20  2  GLONASS SLOT / FRQ #
   R21  4                                                   GLONASS SLOT / FRQ #
samsung SM-S711B (Android 15) HW Year: 2021 HW Model:       COMMENT
S.LSI,K040,SPOTNAV_4.6.2_7_E23                              COMMENT
                                                            END OF HEADER
> 2025 10 05 08 41 04.0000000  0 35                      
G07  22428546.44006    -93964.41606      1889.85706        41.00006                                                                
G04  21051019.28316     -6012.36016     -1508.33316        41.10016  21051043.26606    -12299.11006     -1125.74106        38.80006
G06  22739350.87506    -46687.12906       680.02706        37.80006  22739328.99025    -42605.55325       509.74925        33.20025
G03  20681207.59825     -4668.33225     -1981.94025        31.70025                                                                
G01  23304363.72525     65549.34425     -4140.41125        35.20025  23304193.44304     40872.84604     -3097.32004        26.90004
G26  23931951.95425       977.05425     -1814.20325        34.50025  23931965.44524  -1575436.97024     -1357.57624        24.60024
G16  23029111.67824    -90506.57424       870.77624        25.60024                                                                
G30  25094886.17224  -1051219.05924      2765.39224        24.60024                                                                
G31  24877652.06024    -42015.50324     -4321.33024        24.40024                                                                
G09  21056656.88006    -50816.09406       428.43506        37.40006  21056683.26225    -45573.84525       320.64225        32.70025
R14  20442484.96207 108980175.31407      -428.59907        46.50007
C22  23506240.36807      5380.90407     -1988.10307        45.10007  23506237.67006   2086318.45906     -1498.04406        39.10006
E29  23780555.26407  -1858017.05307      -861.76407        42.40007  23780562.75926  -1395186.76826      -645.78826        35.60026
E33  24026126.05906   -866368.99006     -1056.09806        40.80006  24026064.00225   2047721.54525      -788.42225        33.30025
R03  22862839.88506 122396841.23006     -2567.43306        40.10006
C21  22495607.91527    -40471.69727        -8.86527        44.90027  22495597.42226   2052081.51126        -4.06926        38.10026
R04  20511218.67906 109846918.84206      -982.14706        40.00006
R19  21817877.59806 116721195.54406     -4026.38206        36.70006
R05  21376302.19425 114278842.31225       974.46325        33.30025
C36  24661394.67215     20618.55115     -2649.62715        33.50015                                                                
R15  21332719.56605 114005837.27805      3017.84705        33.40005
C26  24218044.79625    -97836.93025      2475.87025        33.60025  24217987.53614   -810910.00014      1859.50914        23.90014
E19  24842429.44425  -1358099.10325       636.29525        33.60025  24842442.93525   -672083.33725       476.49825        32.10025
C09  37872140.56325  -1840426.63225     -1018.99625        33.30025                                                                
E26  25197709.58925     26195.77925     -3325.11825        31.60025  25197716.78424   -778466.98224     -2471.62424        26.90024
E07  25968270.64025      3443.42425     -2335.70025        31.50025  25968299.12124   -794772.97524     -1738.75224        28.20024
R20  21500080.80424 114980853.06924      -713.56224        25.60024
C16  39676834.19925     -7401.47925     -1429.91825        29.50025                                                                
C06  38288107.69524    -77908.69024     -1344.99224        28.60024                                                                
C13  40099206.09724    -20612.89124     -1277.62124        27.50024                                                                
E27  26846688.32424  -2029626.23524      1477.84824        27.90024  26846791.75323   -935617.81923      1100.51423        23.20023
E21  28374292.18624  -1577194.59824      1879.74324        24.80024                                                                
R21  24062647.37623 128774352.34623      2041.09723        23.40023
E12  26871488.05622  -1707807.75022      1546.58822        16.70022                                                                
C34  24788256.34725   -837563.90325     -2501.34625        34.20025  24788401.14724  -1574585.35324     -1893.76824        24.50024
> 2025 10 05 08 41 05.0000004  0 34                      
G07  22428199.58106    -95851.19106      1885.01606        41.10006                                                                
G04  21051326.87006     -4502.08906     -1510.27106        40.90006  21051348.15506    -11171.36806     -1128.93906        38.50006
G09  21056605.31506    -51241.77706       424.08406        37.40006  21056612.21125    -45894.58025       321.41925        32.50025
G06  22739200.07906    -47363.80206       674.86306        37.70006  22739210.87215    -43110.89215       503.37115        32.60015
G01  23305101.51425     69698.91625     -4153.15225        34.70025  23305129.99405     43971.94205     -3100.25905        34.00005
G03  20681613.51725     -2682.09825     -1987.72425        31.60025                                                                
G26  23932310.20625      2797.35725     -1822.88525        33.30025  23932313.50424  -1574080.55324     -1356.41624        24.00024
G30  25094313.26824  -1053984.52024      2764.77324        24.60024                                                                
G31  24878465.69724    -37692.83824     -4322.01024        24.30024                                                                
G16  23028972.27424    -91373.50224       864.82324        26.20024                                                                
R14  20442573.70107 108980595.57607      -433.54607        46.40007
C22  23506630.39807      7371.61107     -1992.26607        45.50007  23506630.99806   2087818.60706     -1501.32906        38.70006
E29  23780731.24207  -1857152.67207      -865.97507        43.00007  23780746.23226  -1394541.01026      -646.36526        35.50026
C21  22495609.71317    -40464.70317        -6.99417        44.10017  22495600.72026   2052087.26526        -6.83726        37.50026
E33  24026390.77606   -865309.93506     -1060.75906        40.80006  24026278.95325   2048512.86525      -792.91025        33.10025
R19  21818635.47306 116725197.80906     -4032.02506        36.70006
C26  24217574.42225   -100303.22725      2463.46325        34.10025  24217519.86014   -812769.05814      1857.83714        23.80014
R15  21332169.74605 114002846.18905      3012.31705        33.60005
C36  24661925.90425     23271.36725     -2654.39625        33.80025                                                                
E19  24842341.60525  -1358726.32325       624.20025        33.50025  24842338.00725   -672557.24025       473.33325        31.50025
C09  37872356.71325  -1839403.55325     -1024.72325        33.20025                                                                
R05  21376141.50525 114277929.07025       969.80625        33.70025
C34  24788771.09125   -835057.36025     -2508.96825        33.80025  24788889.50924  -1572689.89524     -1895.45724        24.30024
E07  25968778.18925      5782.81625     -2341.27825        31.60025  25968753.30624   -793029.98124     -1744.32624        27.80024
E26  25198336.45525     29525.22225     -3332.09225        31.60025  25198362.53724   -775995.94124     -2469.77524        26.60024
R03  22863344.73626 122399491.36726     -2572.59826        39.40026
R04  20511355.38426 109847596.93826      -985.53626        39.30026
C16  39677114.80525     -5964.32825     -1439.73525        29.50025                                                                
R20  21500233.39825 114981615.90625      -718.18725        29.80025
C06  38288364.91724    -76563.38924     -1346.09124        28.50024                                                                
C13  40099463.01924    -19332.14324     -1281.59624        27.40024                                                                
E27  26846489.26224  -2031104.75324      1479.21224        27.40024  26846525.53723   -936716.28823      1097.30723        22.80023
R21  24062330.19523 128772602.80123      2034.69923        23.30023
E12  26871189.16322  -1709334.95322      1517.50922        16.80022                                                                
> 2025 10 05 08 41 06.0000008  0 34                      
G07  22427834.73306    -97734.31106      1881.29106        41.40006                                                                
G04  21051614.37106     -2988.31406     -1515.52606        41.30006  21051617.66806    -10041.39406     -1131.09006        40.60006
G09  21056521.67306    -51665.11006       422.15906        37.50006  21056522.57325    -46211.00725       314.27425        32.30025
G06  22739090.05606    -48036.74506       671.07706        37.60006  22739075.96525    -43612.03825       499.04925        32.10025
G03  20681978.96425      -686.41625     -2000.40525        31.50025  20682002.34824  -1513606.34224     -1488.44924        26.50024
G26  23932654.66825      4619.04325     -1822.37725        32.50025                                                                
G16  23028810.38624    -92233.63124       856.72924        26.60024                                                                
G30  25093789.23124  -1056747.06624      2761.08724        24.50024                                                                
G19  25288992.49524  -2379705.84224     -2569.42224        23.60024                                                                
G31  24879293.12424    -33366.89824     -4327.57524        24.20024                                                                
G01  23305883.67225     73852.73025     -4155.93425        34.30025  23305914.55105     47073.62305     -3102.97305        33.70005
R14  20442649.54827 108981044.81227      -435.66427        46.20027
C21  22495595.62307    -40453.80907       -12.84507        44.40007  22495597.42226   2052096.45826       -10.91226        37.10026
C22  23506997.34407      9364.58907     -1994.11407        45.50007  23507005.73916   2089320.47716     -1502.73116        38.30016
E29  23780892.23107  -1856284.91607      -869.44407        43.50007  23780897.02825  -1393893.14625      -648.91625        34.90025
E33  24026612.92206   -864246.60306     -1065.47006        40.80006  24026472.31915   2049306.84415      -795.30815        33.00015
R19  21819378.65806 116729218.43706     -4034.14706        36.70006
R04  20511540.35626 109848633.61126      -989.70826        38.50026
R03  22863814.21126 122402048.81926     -2572.95426        38.70026
R15  21331597.14305 113999831.39005      3010.10605        34.10005
C26  24217084.86115   -102768.65315      2464.99015        34.10015  24217039.89214   -814625.67214      1855.39014        23.60014
C36  24662411.26825     25926.93125     -2656.93725        33.80025                                                                
C09  37872555.47515  -1838376.95115     -1028.36415        33.20015                                                                
E19  24842226.18525  -1359348.31225       619.37325        33.40025  24842210.89525   -673026.05925       466.27625        31.00025
R05  21375922.05715 114276800.90015       966.27315        33.40015
E07  25969185.30725      8125.00825     -2343.59125        31.60025  25969192.20224   -791286.60024     -1743.57424        27.40024
E26  25198975.01325     32857.86325     -3334.23925        31.50025  25198983.70724   -773520.25624     -2478.00724        26.20024
C16  39677386.41724     -4521.09724     -1446.27124        29.40024                                                                
C06  38288641.02524    -75214.29224     -1350.99524        28.50024                                                                
R20  21500356.91325 114982322.12225      -727.73725        29.70025
E27  26846207.45724  -2032578.22424      1470.94724        27.20024  26846244.63223   -937812.58423      1095.20823        22.50023
C13  40099683.66724    -18046.15424     -1288.60924        27.40024                                                                
R21  24061976.14123 128770753.70823      2032.72723        23.30023
C34  24789266.34825   -832547.98125     -2510.79625        33.50025  24789371.87524  -1570786.60724     -1907.20324        23.80024
> 2025 10 05 08 41 07.0000012  0 33                      
G07  22427492.07016    -99620.56516      1887.82116        41.40016                                                                
G04  21051916.86106     -1479.42606     -1506.44406        41.20006  21051907.86716     -8913.44616     -1126.93416        40.10016
G09  21056448.22406    -52093.61806       431.84406        37.70006  21056451.82225    -46532.61525       324.19925        32.20025
G06  22738979.73226    -48711.64626       675.88126        37.60026  22738955.44925    -44116.03925       505.42925        31.70025
G03  20682358.20125      1300.29025     -1982.21725        31.40025  20682392.67724  -1512121.01024     -1483.77324        26.00024
G26  23932983.54025      6433.16425     -1810.33725        31.80025                                                                
G16  23028636.80624    -93094.08024       860.60924        26.60024                                                                
G30  25093242.71024  -1059509.53324      2762.42724        24.50024                                                                
G31  24880128.34624    -29042.30624     -4323.91724        24.10024                                                                
G01  23306673.92525     78001.96625     -4146.94625        34.00025  23306572.89525     50172.94725     -3098.14525        31.70025
C21  22495607.91507    -40447.22807        -4.42307        46.00007  22495608.51416   2052101.41116        -2.83216        37.00016
C22  23507393.67017     11350.33017     -1982.12017        45.30017  23507396.96826   2090815.55726     -1491.68426        37.80026
E29  23781053.51907  -1855421.44207      -861.33307        43.50007  23781062.51316  -1393248.67416      -642.77616        37.90016
E33  24026675.57926  -2486866.04326     -1059.98326        40.30026  24026684.87205   2050099.33905      -791.75205        32.90005
R04  20511744.81516 109849672.58516      -984.53516        38.20016
R14  20442728.99327 108981413.96527      -426.96827        45.60027
R19  21820163.81526 116733363.06226     -4022.26726        36.70026
R03  22864292.68026 122404556.48726     -2558.64726        38.20026
R15  21331044.92525 113996826.53525      3014.52025        34.10025
C09  37872758.43525  -1837357.18425     -1016.34925        33.60025                                                                
C36  24662936.20525     28575.85125     -2645.59725        33.70025                                                                
C26  24216622.58125   -105238.19525      2471.60025        34.00025  24216577.01303   -816485.76603      1861.83403        23.40003
E19  24842093.97625  -1359974.35325       628.06725        33.20025  24842102.67025   -673497.71525       473.07325        30.40025
C34  24789752.91125   -830042.05125     -2504.20625        33.30025                                                                
R05  21375778.45715 114275979.43415       975.53215        33.20015
E26  25199617.76825     36182.13925     -3320.09225        31.50025  25199630.05924   -771039.81724     -2482.81524        25.90024
C16  39677679.61424     -3084.70124     -1432.97924        29.40024                                                                
C06  38288888.65424    -73869.50624     -1342.63024        28.40024                                                                
R20  21500498.41524 114983024.51424      -721.41224        29.40024
E27  26845957.43024  -2034056.24524      1480.29524        27.20024  26845966.12423   -938911.13823      1099.68323        22.20023
C13  40099945.38524    -16761.01324     -1284.71724        27.20024                                                                
R21  24061637.67523 128768887.77323      2040.50523        23.20023
E07  25969642.19115     10461.50115     -2332.89315        31.90015  25969647.58724   -789547.84924     -1736.43524        27.00024
> 2025 10 05 08 41 08.0000016  0 33                      
G07  22427135.01816   -101510.73816      1892.13216        41.30016                                                                
G04  21052195.66826        25.06526     -1502.29126        41.10026  21052205.86106     -7788.90106     -1122.84306        39.80006
G09  21056375.97426    -52527.99126       436.30626        37.90026  21056380.17125    -46856.40225       324.87525        32.00025
G06  22738849.02226    -49391.32426       682.06526        37.50026  22738838.23015    -44622.91315       508.31115        31.20015
G01  23307466.87625     82145.44625     -4140.59925        33.80025  23307366.74625     53262.19025     -3084.20025        30.00025
G03  20682752.42825      3283.04825     -1980.78425        31.30025  20682774.01324  -1510642.54024     -1475.03724        25.50024
G26  23933355.58325      8243.60525     -1808.60025        31.40025                                                                
G30  25092689.89224  -1062277.30724      2770.42724        24.50024                                                                
G31  24880965.66624    -24730.20124     -4305.85924        24.00024                                                                
G16  23028480.91424    -93961.17624       870.41924        26.50024                                                                
C21  22495618.70707    -40445.35007         0.47307        47.00007  22495619.90606   2052102.78406         0.41706        37.00006
E29  23781242.08927  -1854562.67927      -856.40727        43.50027  23781238.49106  -1392607.42806      -639.63206        37.70006
C22  23507782.50127     13330.78627     -1977.81427        44.90027  23507784.59926   2092308.07726     -1491.23926        36.30026
E33  24026877.03916  -2485808.91816     -1057.12516        40.30016  24026895.62605   2050888.66505      -787.74105        32.80005
R04  20511929.78606 109850610.41806      -978.09206        39.10006
R14  20442832.12217 108981910.48917      -422.94217        44.50017
R19  21820993.64016 116737749.55416     -4017.91416        36.60016
R03  22864783.74026 122407131.55826     -2559.42026        37.90026
R15  21330471.42225 113993709.27425      3025.45725        34.10025
C36  24663460.24225     31221.41825     -2643.89025        33.70025                                                                
C09  37872963.49325  -1836342.12825     -1012.70025        33.60025                                                                
C26  24216114.43325   -107711.64225      2475.39825        33.80025  24216113.53303   -818349.36103      1865.34503        23.20003
E07  25970094.27805     12792.54405     -2328.56605        32.50005  25970102.07224   -787817.12124     -1726.71624        26.60024
E19  24841992.04725  -1360604.36725       632.00125        33.10025  24841993.24625   -673970.24825       472.97225        29.90025
C34  24790250.86625   -827546.37325     -2490.55025        33.10025                                                                
R05  21375596.18325 114274952.22425       983.54225        33.00025
E26  25200255.12625     39504.24625     -3321.02025        31.50025  25200272.81424   -768559.20524     -2480.69724        25.60024
C16  39677974.61025     -1656.69925     -1423.80425        29.50025                                                                
C06  38289141.37924    -72532.10724     -1333.70524        28.40024                                                                
R20  21500663.30124 114983852.38524      -711.85024        29.10024
E27  26845677.72424  -2035536.06224      1480.71524        27.20024  26845691.21524   -940016.99924      1109.51424        23.70024
C13  40100201.70824    -15483.27524     -1274.03624        27.10024                                                                
R21  24061253.64123 128766779.88323      2052.24923        23.20023
> 2025 10 05 08 41 09.0000020  0 34                      
G07  22426753.38226   -103409.51926      1903.08426        41.20026                                                                
G04  21052476.27416      1521.05716     -1491.74216        40.90016  21052485.86726     -6671.06826     -1114.47726        39.60026
G09  21056277.04326    -52966.33226       440.57526        37.90026  21056287.53525    -47185.83025       332.24925        32.10025
G06  22738706.32126    -50080.62426       694.11226        37.40026  22738700.02625    -45136.76925       517.34525        30.70025
G03  20683125.97025      5257.63625     -1970.50225        31.20025                                                                
G26  23933696.14725     10045.45625     -1797.55525        31.10025                                                                
G16  23028330.11924    -94841.81124       887.40524        26.40024                                                                
G30  25092167.05424  -1065055.18724      2782.93224        24.40024                                                                
G31  24881790.09524    -20424.17624     -4302.98324        23.90024                                                                
G01  23308266.12325     86280.89825     -4131.43725        33.50025  23308147.10624     56344.12724     -3078.28424        28.50024
C21  22495603.11808    -40452.18208        11.18708        47.50008  22495610.61306   2052097.62906         8.41906        37.60006
E29  23781389.28717  -1853710.78217      -847.71417        43.50017  23781394.38306  -1391972.78706      -631.33806        37.40006
C22  23508154.84317     15303.42317     -1968.72717        44.40017  23508158.14126   2093794.86726     -1483.92526        35.90026
E33  24027081.19806  -2484760.33506     -1044.31106        41.00006  24027087.79325   2051673.22725      -782.18125        32.70025
R04  20512118.95606 109851666.23806      -967.28206        39.70006
R14  20442908.26927 108982358.95627      -411.47327        43.50027
R03  22865238.82516 122409611.64616     -2544.22816        37.60016
R19  21821770.70226 116741950.04926     -4013.07026        36.60026
C36  24663963.59325     33857.70125     -2631.64025        34.70025                                                                
R15  21329929.09725 113990854.26925      3036.43625        34.20025
C09  37873152.96225  -1835332.24425     -1007.29825        33.70025                                                                
E27  26845536.52225  -2681179.54925      1493.73925        30.40025  26845397.41824   -941128.09224      1113.70824        26.90024
E07  25970535.87225     15115.69925     -2319.21125        32.70025  25970544.56624   -786084.70024     -1733.26824        26.20024
C26  24215641.36025   -110196.62925      2490.75725        33.70025  24215630.56823   -820219.02323      1872.69523        22.90023
C34  24790789.29425   -825052.09725     -2493.57525        33.00025                                                                
E19  24841892.51625  -1361243.23825       643.29825        32.90025  24841862.23724   -674442.00624       471.37024        29.00024
E26  25200879.89425     42819.17125     -3311.33325        31.50025  25200899.08124   -766084.40324     -2471.89724        25.20024
R05  21375399.81925 114273945.65925       985.83325        32.70025
C16  39678222.53825      -237.28025     -1415.12625        29.50025                                                                
C06  38289391.10624    -71201.85024     -1326.68424        28.50024                                                                
R20  21500781.71924 114984529.52324      -704.20024        28.90024
C13  40100465.52524    -14213.31524     -1266.06924        27.00024                                                                
R21  24060888.19423 128764867.23523      2061.92523        23.10023
E21  28372239.50723  -2539418.84923      1888.21923        20.60023                                                                
> 2025 10 05 08 41 10.0000023  0 34                      
G07  22426377.74226   -105314.94626      1908.75026        41.20026                                                                
G04  21052745.78706      3010.73406     -1486.51906        40.80006  21052748.48516     -5557.93016     -1110.79116        39.60016
G09  21056182.30816    -53411.04616       447.90016        37.90016  21056184.40725    -47517.23025       332.38625        32.00025
G06  22738559.42326    -50776.03026       698.45926        37.30026  22738547.73125    -45654.29225       519.35625        30.00025
G26  23934001.03625     11839.10425     -1789.54625        31.00025                                                                
G01  23309071.66525     90410.05025     -4126.00125        33.40025  23308909.77824     59418.93324     -3071.24024        27.10024
G03  20683479.42525      7226.09425     -1965.39225        31.20025                                                                
G16  23028139.75124    -95729.93424       891.86724        26.40024                                                                
G31  24882611.52624    -16119.74024     -4303.64024        23.80024                                                                
G30  25091643.61724  -1067840.58724      2789.15824        24.40024                                                                
C21  22495584.83108    -40464.72008        15.39108        47.50008  22495586.62906   2052088.06706        11.76506        38.00006
E29  23781536.18507  -1852866.94207      -840.06007        43.40007  23781532.58806  -1391342.53606      -628.05606        40.20006
C22  23508511.59607     17269.49207     -1962.78307        44.10007  23508516.09326   2095276.70726     -1479.36326        35.60026
E33  24027256.27706  -2483717.22506     -1040.37306        41.30006  24027266.17025   2052452.66625      -776.87625        32.60025
R04  20512291.03616 109852696.01516      -962.77516        39.70016
R03  22865694.20906 122412156.08006     -2540.70306        37.60006
R14  20442951.13917 108982695.31317      -408.53717        42.50017
R19  21822435.04326 116745610.18026     -4007.32126        36.50026
C36  24664442.06225     36489.44925     -2629.48025        34.70025                                                                
R15  21329346.30115 113987847.12015      3033.93915        34.20015
C09  37873333.13725  -1834332.80725      -994.21425        33.80025                                                                
E07  25970984.06225     17430.70025     -2310.92425        32.80025  25970965.17524   -784357.56324     -1724.49424        25.90024
C26  24215145.50425   -112683.86325      2488.35625        33.50025  24215135.01123   -822093.36723      1876.68323        22.70023
C34  24791270.76025   -822566.50325     -2481.25125        32.90025                                                                
E19  24841709.64225  -1361895.37425       658.76925        32.80025  24841722.23424   -674920.28824       481.54424        28.60024
E26  25201485.47525     46123.82625     -3299.51825        31.50025  25201510.35724   -763613.61424     -2468.78124        24.90024
R05  21375159.98525 114272770.82425      1000.78425        32.50025
E27  26845225.03725  -2682676.22225      1496.67225        30.30025  26845096.72625   -942241.96125      1115.25825        31.40025
C16  39678478.86125      1179.33925     -1415.21925        29.50025                                                                
C06  38289636.93624    -69879.42024     -1318.51824        28.80024                                                                
R20  21500878.55224 114985153.87024      -704.90324        28.60024
C13  40100697.86524    -12953.52824     -1254.70124        26.90024                                                                
R21  24060461.28923 128762689.66823      2075.49923        23.10023
E21  28371829.69123  -2541313.38923      1894.53923        21.10023                                                                
> 2025 10 05 08 41 11.0000027  0 35                      
G07  22426040.77526   -107228.36626      1917.41626        41.10026                                                                
G04  21053026.69306      4494.70206     -1481.11306        40.60006  21053041.98206     -4449.22406     -1106.48906        39.30006
G06  22738428.41426    -51473.88526       699.07926        37.20026  22738416.12224    -46175.96224       523.74424        29.20024
G26  23934336.80326     13628.21926     -1786.84826        35.80026                                                                
G01  23309862.21825     94531.96425     -4118.29525        33.50025  23309697.93224     62484.13624     -3060.39924        25.90024
G03  20683865.25825      9187.23025     -1957.47425        31.10025                                                                
G16  23028034.22424    -96617.94824       887.95924        26.50024                                                                
G30  25091126.77424  -1070638.94424      2804.83524        24.40024                                                                
G31  24883452.74424    -11818.90024     -4299.04024        23.70024                                                                
G09  21056095.36926    -53861.00126       452.57626        37.80026  21056109.15925    -47855.49125       341.69225        31.90025
C21  22495593.22507    -40483.49207        21.88807        47.40007  22495594.42406   2052074.00906        16.30506        37.90006
C22  23508897.72907     19229.40807     -1956.84007        44.00007  23508901.32626   2096752.90226     -1473.37426        35.70026
E29  23781695.37507  -1852029.76007      -834.60407        43.40007  23781700.17206  -1390716.88206      -623.35406        40.10006
E33  24027461.03506  -2482679.87406     -1034.47206        41.30006  24027474.52625   2053226.27925      -770.70025        32.50025
R03  22866180.47326 122414705.11026     -2536.05726        40.40026
R04  20512458.32106 109853537.30606      -955.48406        39.60006
R14  20443040.17807 108983114.80307      -402.28307        41.80007
R19  21823136.25726 116749307.81326     -4003.31426        36.40026
C09  37873532.19925  -1833338.40825      -991.88025        34.10025                                                                
C36  24664969.39725     39116.35725     -2624.48725        34.70025                                                                
R15  21328779.69325 113984764.26725      3044.66325        34.20025
E07  25971406.46925     19739.77625     -2306.11225        32.80025  25971408.56824   -782634.13724     -1721.57024        25.60024
C26  24214694.61625   -115173.59325      2490.97725        33.40025  24214667.33523   -823971.61723      1880.20223        22.40023
C34  24791737.23725   -820092.38025     -2468.38725        32.80025                                                                
E19  24841600.81825  -1362550.08125       655.99225        32.60025  24841607.11324   -675399.89624       480.27024        28.10024
E26  25202133.32625     49425.74525     -3300.55025        31.40025  25202148.91524   -761154.52024     -2453.24624        24.70024
R05  21374999.89525 114271860.63725      1003.64525        32.20025
E27  26844951.92625  -2684173.37825      1497.39825        30.50025  26844818.51925   -943360.44925      1120.79725        31.40025
C16  39678789.44625      2591.00025     -1409.18225        29.50025                                                                
C06  38289916.04324    -68561.12524     -1316.22624        28.80024                                                                
R20  21501024.55024 114985881.50824      -694.39624        28.40024
C13  40100956.58524    -11696.95924     -1254.95924        26.80024                                                                
R21  24060076.05623 128760574.12723      2082.35923        23.00023
E12  26869621.84823  -2788534.37923      1528.16123        19.80023                                                                
E21  28371470.24023  -2543220.40723      1913.25623        21.70023                                                                
> 2025 10 05 08 41 12.0000031  0 35                      
G07  22425656.14126   -109146.61026      1920.65526        41.00026                                                                
G04  21053300.40306      5973.50006     -1476.21306        40.50006  21053315.39316     -3343.85616     -1103.69816        39.20016
G06  22738278.81716    -52175.71316       703.81316        37.20016  22738281.21525    -46700.51125       525.98825        30.00025
G26  23934665.37616     15414.87816     -1785.43016        36.00016                                                                
G01  23310610.20015     98649.72815     -4115.68615        33.60015  23310470.49724     65547.43524     -3062.34624        24.80024
G03  20684207.02125     11144.28325     -1955.01125        30.90025                                                                
G16  23027896.61924    -97509.39124       893.15824        26.80024                                                                
G30  25090589.24724  -1073440.00324      2802.40924        24.30024                                                                
G31  24884250.49224     -7515.51724     -4304.65324        23.70024                                                                
G09  21056012.02616    -54315.88916       457.35416        37.70016  21056012.32625    -48196.04325       341.69725        31.40025
C21  22495578.83508    -40507.02908        25.92108        47.60008  22495582.73206   2052056.22806        19.64406        37.90006
C22  23509261.67707     21185.05907     -1953.51707        44.40007  23509267.97225   2098226.35625     -1472.08225        35.30025
E29  23781848.86927  -1851195.74227      -832.18527        43.50027  23781850.96706  -1390094.82806      -620.25506        39.80006
E33  24027663.39506  -2481647.17906     -1030.36606        41.40006  24027659.79725   2053994.67425      -765.78625        32.40025
R03  22866656.54326 122417298.56126     -2532.47626        40.30026
R14  20443106.13206 108983511.41106      -399.64606        41.30006
R04  20512619.00906 109854442.19106      -952.73906        39.50006
R19  21823873.14726 116753293.99926     -3991.07726        36.30026
R15  21328183.70615 113981624.06915      3049.25315        34.40015
C09  37873706.97825  -1832349.39125      -986.32625        34.20025                                                                
C36  24665511.72225     41739.91025     -2621.87425        34.60025                                                                
E07  25971828.87725     22047.10825     -2306.45825        32.80025  25971843.26724   -780911.98824     -1721.50924        25.30024
C26  24214214.64815   -117670.11115      2499.91215        33.20015  24214182.27023   -825853.86023      1884.23923        22.20023
C34  24792218.70425   -817617.44125     -2475.34625        32.70025                                                                
E26  25202741.90525     52724.34925     -3296.94525        31.40025  25202765.28924   -758707.22924     -2441.38824        24.40024
R05  21374817.02225 114270928.27125      1004.92725        32.00025
E27  26844620.65625  -2685675.58025      1504.72425        30.40025  26844519.92625   -944481.50925      1122.34525        30.80025
C16  39679027.78125      3998.86725     -1405.96925        29.50025                                                                
C06  38290148.08224    -67248.83024     -1309.29424        28.80024                                                                
R20  21501171.74924 114986712.43824      -687.30124        28.20024
C13  40101183.82824    -10440.28324     -1256.73024        26.80024                                                                
R21  24059644.95423 128758311.57723      2078.03823        23.00023
E21  28371028.64623  -2545137.99123      1922.86723        22.60023                                                                
E12  26869311.86223  -2790072.30423      1537.92523        21.20023                                                                
E19  24841472.80625  -1363206.26425       656.92025        32.40025  24841475.80424   -675885.22924       488.19724        27.80024
> 2025 10 05 08 41 13.0000034  0 35                      
G07  22425287.39716   -111063.68616      1916.49216        40.90016                                                                
G04  21053595.99926      7449.40726     -1474.46126        40.40026  21053594.50006     -2239.98406     -1103.12406        39.10006
G06  22738131.61906    -52878.91006       704.63306        37.30006  22738140.61325    -47227.67325       528.46925        31.10025
G09  21055922.08806    -54773.74006       459.33206        37.70006  21055921.18925    -48537.37625       341.72425        31.60025
G26  23935017.03306     17200.56306     -1784.44806        36.20006                                                                
G01  23311365.97725    102762.78025     -4110.69625        33.60025  23311250.85724     68611.44724     -3064.36724        24.00024
G03  20684581.46225     13097.81625     -1951.77225        30.80025                                                                
G30  25090026.53624  -1076243.56024      2804.80524        24.30024                                                                
G31  24885059.93124     -3213.04324     -4302.01924        23.70024                                                                
G16  23027708.64924    -98407.30924       901.15524        27.00024                                                                
C21  22495569.54108    -40532.32708        26.17808        48.10008  22495575.83706   2052037.25206        19.57306        38.00006
C22  23509633.12007     23139.14607     -1953.30507        44.60007  23509642.11325   2099698.39525     -1471.33225        35.10025
E29  23781997.86517  -1850366.06117      -827.51317        43.50017  23782005.96006  -1389474.11106      -620.04706        39.70006
E33  24027854.36306  -2480616.28406     -1029.99406        41.40006  24027855.86225   2054763.49425      -769.03225        32.30025
R03  22867132.31426 122419854.48626     -2530.38926        40.20026
R14  20443184.37806 108983937.77206      -399.94206        41.10006
R04  20512794.98806 109855394.58306      -951.77506        39.50006
R19  21824619.63026 116757297.02526     -3997.14726        36.20026
R15  21327632.38705 113978688.02905      3047.03805        34.90005
C09  37873899.74525  -1831361.61525      -987.15625        34.20025                                                                
C36  24665980.29715     44360.22415     -2618.69415        34.40015                                                                
C26  24213687.91325   -120174.47725      2508.28825        33.10025  24213701.40323   -827738.18423      1885.36523        21.90023
E07  25972284.56225     24347.55125     -2296.99925        32.70025  25972280.06524   -779193.04724     -1717.33624        25.10024
C34  24792704.36825   -815147.21125     -2467.87525        32.60025                                                                
E26  25203375.96625     56017.58025     -3290.54525        31.40025  25203383.76024   -756260.12124     -2447.01624        24.10024
R05  21374642.84325 114270007.37825      1003.39325        31.80025
E19  24841341.49725  -3094297.11325       655.04325        31.60025  24841348.09324   -676376.06024       493.57824        27.60024
E27  26844364.03325  -2687184.45825      1512.21625        30.30025  26844237.22125   -945604.38025      1123.77725        30.10025
C16  39679289.20025      5402.23025     -1401.10925        29.50025                                                                
C06  38290370.82824    -65941.75424     -1304.46724        28.90024                                                                
R20  21501296.76224 114987391.10924      -685.16124        28.00024
C13  40101424.86124     -9193.86124     -1241.29424        26.70024                                                                
R21  24059188.37023 128755878.28223      2080.74323        23.00023
E21  28370691.07923  -2547064.90423      1931.57723        22.60023                                                                
E12  26869022.26323  -2791622.89023      1556.91623        21.60023                                                                
> 2025 10 05 08 41 14.0000038  0 36                      
G07  22424951.02926   -112985.43226      1924.07926        40.80026                                                                
G06  22738009.30406    -53585.29706       707.73106        37.70006  22738017.09825    -47756.68625       529.93825        31.90025
G09  21055833.94906    -55233.87206       461.27206        37.60006  21055847.14025    -48882.05225       346.34725        31.50025
G26  23935381.28026     18982.79426     -1781.50226        36.50026                                                                
G01  23312187.10925    106875.36325     -4112.34725        33.70025  23312053.70123     71681.98323     -3073.79823        23.20023
G03  20684986.48225     15050.96525     -1952.95625        30.60025                                                                
G16  23027535.36924    -99306.91424       900.44924        27.30024                                                                
G30  25089506.39624  -1079044.44624      2799.55024        24.40024                                                                
G31  24885893.65424      1087.26724     -4299.22624        23.90024                                                                
G04  21053887.69726      8923.69126     -1473.47226        40.20026  21053882.30106     -1138.42806     -1100.39806        38.90006
C21  22495571.94008    -40560.80908        30.07508        48.10008  22495577.93506   2052015.81906        22.66206        38.00006
C22  23510018.05307     25090.29007     -1949.67107        44.60007  23510025.84825   2101169.51425     -1470.65725        34.60025
E29  23782173.24407  -1849538.12307      -827.06507        43.50007  23782172.94406  -1388856.03506      -616.75606        39.20006
E33  24028048.92806  -2479588.22006     -1026.64806        41.40006  24028062.41925   2055531.24425      -767.21425        32.30025
R14  20443265.62206 108984316.83906      -397.95006        40.90006
R03  22867626.07226 122422444.11326     -2536.27926        40.20026
R04  20513003.34316 109856455.77316      -946.09916        39.40016
R19  21825351.42416 116761156.92316     -3992.12416        36.10016
R15  21327028.30605 113975406.38505      3050.54505        35.10005
C09  37874102.10525  -1830372.02325      -990.49825        34.20025                                                                
C36  24666459.36625     46976.70725     -2614.56525        34.30025                                                                
C34  24793209.51825   -812678.86125     -2467.40825        32.70025  24793206.82024  -1910031.46624     -1868.00124        23.80024
C26  24213239.12315   -122679.68015      2505.62215        33.00015  24213234.92623   -829623.85223      1886.33923        21.60023
E07  25972762.13125     26649.20325     -2302.25625        32.70025  25972718.96124   -777473.55424     -1719.76824        24.90024
R05  21374462.96725 114268990.87425      1007.05025        31.70025
E26  25204027.41525     59312.38825     -3295.59425        31.40025  25204019.02124   -753808.59724     -2453.73024        23.70024
E27  26844103.81425  -2688693.74025      1509.48425        30.20025  26843959.61325   -946731.02825      1128.53625        34.50025
C16  39679564.70925      6803.34725     -1399.99525        29.60025                                                                
C06  38290654.73124    -64633.30824     -1309.12924        29.00024                                                                
E19  24841227.57625  -3094958.58025       661.46725        31.10025  24841233.57224   -676871.08324       497.12024        27.40024
R20  21501367.51324 114987715.52624      -688.33924        27.80024
C13  40101706.06724     -7948.49324     -1244.84024        26.60024                                                                
R21  24058876.88623 128754157.06323      2080.37323        23.00023
E21  28370347.21723  -2548995.24623      1932.05623        22.60023                                                                
E12  26868717.37423  -2793182.60823      1564.28323        21.90023                                                                
R13  23642884.27223 126261909.11823     -3927.00523        17.60023
> 2025 10 05 08 41 15.0000042  0 37                      
G07  22424595.77526   -114907.78526      1922.65626        40.70026                                                                
G04  21054172.79926     10398.68626     -1475.35026        40.10026  21054173.69906       -37.59706     -1100.46806        38.80006
G06  22737878.59416    -54292.28416       706.53616        38.00016  22737893.88425    -48284.83725       527.72125        31.80025
G09  21055764.99706    -55695.98306       463.10006        37.50006  21055770.09425    -49225.55425       342.91425        31.30025
G26  23935750.62526     20763.60426     -1779.85026        36.40026                                                                
G01  23313007.04125    110986.27525     -4110.07525        33.90025  23312845.45323     74752.37023     -3070.31023        22.60023
G16  23027399.86324   -100207.57024       901.18024        27.60024                                                                
G30  25088991.05324  -1081844.11324      2799.05724        24.70024                                                                
G31  24886716.88424      5383.82724     -4294.68324        23.90024                                                                
G03  20685362.72125     17005.24925     -1954.85025        30.50025                                                                
C21  22495577.33608    -40590.29408        29.98608        48.00008  22495583.93106   2051993.36506        22.96506        38.10006
C22  23510406.88407     27040.10307     -1949.14807        44.80007  23510411.08125   2102635.55125     -1463.49625        34.50025
C05  37232745.60717  -3208071.32217      -609.75317        42.80017                                                                
E29  23782339.32907  -1848711.37607      -825.40307        43.70007  23782341.12806  -1388238.81006      -616.79906        38.90006
E33  24028254.88506  -2478560.61906     -1027.36906        41.40006  24028268.37625   2056298.39025      -766.84425        32.10025
R14  20443350.46306 108984717.26706      -396.91006        40.80006
R03  22868106.04026 122424959.43926     -2529.77326        40.10026
R04  20513194.01106 109857424.25906      -948.65806        39.40006
R19  21826123.38916 116765232.66516     -3992.37116        36.10016
R15  21326497.37315 113972516.22015      3052.59415        35.40015
C09  37874305.06425  -1829385.14025      -985.52925        34.10025                                                                
C36  24666977.70725     49592.63025     -2615.64325        34.30025  24667056.55224  -2431713.17624     -1982.12424        25.60024
C34  24793673.29715   -810213.08015     -2464.49615        32.90015  24793709.87224  -1908169.52624     -1861.94024        23.50024
C26  24212786.13725   -125186.90525      2508.23325        33.00025  24212756.15823   -831511.58523      1888.76523        21.20023
E07  25973194.43225     28950.01025     -2300.38325        32.60025  25973159.95624   -775752.49324     -1721.84524        24.60024
R05  21374267.80225 114267894.06325      1013.62725        31.70025
E26  25204659.97725     62604.24225     -3290.37625        31.40025  25204658.77823   -751352.39623     -2458.53923        23.40023
C06  38290928.44224    -63324.91024     -1308.37524        29.10024                                                                
R20  21501482.33424 114988276.37024      -689.29824        27.70024
C13  40101954.29524     -6701.74624     -1247.43624        26.50024                                                                
R21  24058526.72923 128752230.64523      2077.02723        22.90023
E21  28370000.95723  -2550921.83323      1924.70923        22.70023                                                                
E12  26868466.44823  -2794751.15623      1572.96423        21.80023                                                                
R13  23643598.37723 126265669.03323     -3925.75523        17.80023
E19  24841104.66125  -3258215.15825       664.77625        30.50025  24841113.35524   -677368.55324       498.69324        27.10024
C16  39679851.01125      8203.85325     -1400.19925        29.70025                                                                
E27                                                                  26843682.90525   -947858.60325      1128.03725        33.60025
> 2025 10 05 08 41 16.0000046  0 36                      
G07  22424209.04326   -116833.31026      1927.11026        40.60026                                                                
G04  21054447.70926     11868.55826     -1467.31026        39.90026  21054447.40926      1059.32426     -1094.96626        38.60026
G06  22737738.29106    -55002.96606       712.77906        38.30006  22737750.88325    -48817.21125       534.48525        31.40025
G09  21055687.65106    -56162.95806       469.40706        37.40006  21055674.46025    -49572.88425       349.24425        31.20025
G26  23936069.00426     22542.14926     -1777.41226        36.20026                                                                
G01  23313754.42425    115094.32725     -4106.62125        33.90025  23313628.51123     77825.98123     -3075.22223        22.00023
G03  20685734.16425     18956.19225     -1949.27225        30.30025                                                                
G16  23027248.46824   -101111.04224       904.88124        28.10024                                                                
G31  24887503.24024      9676.05724     -4290.06424        23.90024                                                                
G30  25088496.99524  -1084647.82824      2805.73924        24.80024                                                                
C21  22495558.44908    -40625.28808        37.74908        47.90008  22495570.44116   2051967.13916        28.11116        38.10016
C22  23510769.33307     28983.35107     -1939.96407        44.90007  23510775.32925   2104099.24525     -1462.52125        34.40025
E29  23782486.22707  -1847890.04807      -818.86707        44.00007  23782489.82506  -1387625.40106      -611.50106        38.70006
C05  37232852.03307  -3207467.98707      -603.33407        42.70007                                                                
E33  24028440.15706  -2477537.56206     -1020.78506        41.40006  24028456.04625   2057067.56525      -770.18925        32.00025
R14  20443423.61206 108985149.72006      -389.29006        40.80006
R03  22868546.73516 122427362.93616     -2513.77416        40.00016
R04  20513352.60106 109858316.11506      -940.54006        39.40006
R19  21826854.88326 116769189.00026     -3991.92926        36.00026
R15  21325898.98706 113969360.73106      3060.34206        35.50006
C09  37874473.84715  -1828403.43915      -979.10915        34.10015                                                                
C34  24794166.45625   -807755.79425     -2453.03825        33.00025  24794339.43624  -1906314.54224     -1851.50524        27.70024
C26  24212306.46925   -127696.80325      2511.23525        32.90025  24212263.29923   -833402.27623      1892.17023        21.00023
E07  25973609.64425     31241.24925     -2286.45525        32.50025  25973603.04924   -774036.33324     -1713.70924        25.40024
R05  21374068.74025 114266874.49625      1018.79625        31.60025
E26  25205270.95425     65892.85825     -3286.99625        31.30025  25205282.04623   -748892.41423     -2461.87223        23.00023
C16  39680099.23925      9600.06725     -1394.06825        30.10025                                                                
E19  24840958.36225  -3258884.69525       669.53725        30.30025  24840982.04624   -677867.07524       499.04824        27.00024
C06  38291186.26324    -62018.99724     -1304.66924        29.20024                                                                
R20  21501632.53024 114989121.83724      -692.49724        27.50024
C13  40102203.42224     -5456.16024     -1245.00624        26.40024                                                                
R21  24058166.37823 128750344.80023      2080.31323        22.90023
E12  26868175.64923  -2796327.78123      1580.66223        21.70023                                                                
R13  23644333.46923 126269636.76823     -3923.37423        17.80023
E21  28369590.84123  -2552845.59423      1922.34623        22.70023                                                                
E27                                                                  26843387.01025   -948989.07225      1131.91525        33.40025
> 2025 10 05 08 41 17.0000049  0 35                      
G07  22423843.89616   -118761.17316      1929.03116        40.50016                                                                
G04  21054732.21226     13333.08226     -1461.84826        39.70026  21054725.91726      2154.38326     -1094.12726        38.40026
G01  23314479.92125    119199.93425     -4104.38325        33.80025  23314393.88123     80895.27823     -3067.14023        21.50023
G26  23936398.47625     24315.11425     -1770.17425        35.30025                                                                
G16  23027063.19624   -102021.09724       913.34524        28.30024                                                                
G30  25087900.70824  -1087458.54724      2814.21924        24.90024                                                                
G31  24888304.88524     13961.75524     -4282.43124        24.00024                                                                
G06  22737609.68006    -55716.38606       714.78906        38.70006  22737612.97825    -49350.81725       534.22225        31.20025
R03  22869012.31207 122429864.47807     -2516.82707        42.50007
C21  22495559.64808    -40663.00408        39.07708        47.80008  22495559.94806   2051938.82806        29.35506        38.60006
C22  23511141.07617     30924.54317     -1940.16417        44.80017  23511147.07225   2105561.99725     -1462.28125        34.20025
E29  23782635.82407  -1847071.01607      -817.88507        44.00007  23782645.11706  -1387013.83806      -610.64006        38.60006
C05  37232965.65407  -3206867.16807      -599.56107        42.60007                                                                
E33  24028634.42306  -2476516.39206     -1020.22606        41.40006  24028647.31425   2057834.54825      -765.88725        31.30025
R14  20443490.16606 108985514.29806      -390.36406        40.80006
R04  20513528.28006 109859266.20706      -939.51106        39.50006
R15  21325314.99216 113966249.59416      3061.10416        35.70016
R19  21827601.96626 116773195.85226     -3981.77326        35.90026
C09  37874656.72105  -1827425.14905      -976.58505        34.00005                                                                
C34  24794728.56715   -805298.85515     -2456.76315        33.10015  24794811.30925  -1904465.42425     -1846.18525        31.20025
C26  24211799.52025   -130207.35525      2510.87825        32.90025  24211778.23523   -835292.11723      1889.41523        20.70023
E07  25974033.25125     33529.30425     -2286.46225        32.40025  25974034.75024   -772325.17024     -1708.66524        25.20024
R05  21373855.88725 114265744.79225      1017.24425        31.60025
E26  25205885.52925     69176.85625     -3281.68825        31.40025  25205903.51623   -746437.37623     -2452.56523        22.70023
C16  39680355.26225     10991.45425     -1388.97325        30.40025                                                                
C06  38291418.60324    -60718.80224     -1297.33624        29.20024                                                                
E27  26843046.44624  -3432142.29324      1520.11024        26.60024  26843096.51125   -950122.06325      1134.25225        33.20025
R20  21501787.82224 114989962.71524      -687.62724        27.30024
C13  40102426.46824     -4213.43724     -1241.29024        26.30024                                                                
E21  28369243.68123  -2554772.13823      1927.93623        23.20023                                                                
R21  24057724.18423 128747988.07323      2083.28123        22.80023
E12  26867865.96323  -2797910.93123      1586.41223        21.50023                                                                
R13  23645040.97923 126273424.95223     -3927.79823        18.00023
G09                                                                  21055583.62325    -49923.78925       352.69425        31.10025
E19                                                                  24840853.43524   -678367.48324       501.35024        26.90024
> 2025 10 05 08 41 18.0000053  0 36                      
G07  22423504.83106   -120688.81106      1927.52506        40.30006                                                                
G06  22737491.86216    -56428.88816       712.04316        38.70016  22737489.76325    -49880.37425       527.53125        31.00025
G26  23936741.43925     26091.83925     -1778.60525        34.90025                                                                
G04  21055038.00126     14803.40326     -1473.22026        38.30026  21055008.32126      3248.49126     -1093.63326        37.10026
G09  21055521.56625    -57103.21725       471.52325        33.60025  21055502.97925    -50273.19625       348.65725        30.60025
G16  23026918.69624   -102931.06924       909.93224        28.60024                                                                
G03  20686496.53624     22838.28624     -1942.10024        27.00024                                                                
G30  25087345.19224  -1090270.68724      2812.85024        24.90024                                                                
G31  24889125.41724     18242.17824     -4277.78224        24.30024                                                                
G01  23315300.75315    123302.66815     -4101.29515        33.80015  23315331.03224     83962.92624     -3066.82224        26.00024
R03  22869489.88208 122432366.02408     -2519.82208        48.70008
C21  22495564.74508    -40701.45308        38.81508        47.60008  22495563.84506   2051909.60006        29.68506        38.50006
C22  23511527.50807     32867.27507     -1943.50107        45.00007  23511530.50625   2107025.66525     -1464.12525        34.10025
E29  23782803.70807  -1846253.77307      -817.09707        44.40007  23782810.30306  -1386403.70906      -609.41106        38.60006
R14  20443574.40806 108985909.38806      -393.30406        41.20006
C05  37233091.86707  -3206264.59807      -603.44607        42.40007                                                                
E33  24028872.15806  -2475496.79606     -1018.80806        41.40006  24028851.17215   2058594.62815      -756.62915        30.30015
R04  20513706.05706 109860164.96406      -937.44206        39.70006
R15  21324742.68806 113963137.69806      3054.91306        36.10006
R19  21828311.57426 116776936.35026     -3989.68026        35.80026
C09  37874854.28425  -1826445.81725      -979.85225        34.00025                                                                
C34  24795283.18305   -802840.64505     -2458.84605        33.40005  24795114.10025  -1902615.14125     -1850.86525        30.40025
C26  24211348.03325   -132719.18625      2512.46925        32.80025  24211303.96323   -837185.61923      1895.33223        20.50023
R05  21373666.71825 114264679.34125      1023.39625        31.90025
C16  39680637.36625     12383.13625     -1391.82925        31.00025                                                                
E26  25206535.17925     72461.98125     -3285.68625        31.60025  25206535.17923   -743976.92723     -2463.15423        22.40023
C06  38291666.53124    -59418.63824     -1300.14924        29.20024                                                                
R20  21501963.80024 114990849.50224      -684.28224        27.20024
C13  40102682.49124     -2975.57424     -1235.43324        26.20024                                                                
E21  28368897.12124  -2556698.51824      1926.29724        23.50024                                                                
R21  24057305.07423 128745691.83723      2083.71023        23.20023
E12  26867547.58423  -2799499.47223      1591.23623        21.30023                                                                
R13  23645834.82923 126277610.44523     -3928.50323        18.60023
E07  25974463.45325     35819.50125     -2292.01625        32.40025  25974483.53924   -770616.53324     -1707.37324        25.00024
E19                                                                  24840736.21624   -678870.00224       503.57524        26.90024
E27                                                                  26842818.30416   -951256.77516      1135.57316        37.80016
> 2025 10 05 08 41 19.0000057  0 37                      
G07  22423137.88526   -122617.61026      1929.37926        40.20026                                                                
G06  22737363.55126    -57145.40326       718.52226        38.60026  22737345.86325    -50412.25925       533.04925        33.80025
G01  23316082.91226    127403.55726     -4099.96626        38.00026  23315974.08724     87022.65524     -3055.76824        25.60024
G26  23937068.51225     27873.68525     -1784.40525        34.80025  23937081.40324  -2587647.67124     -1330.70124        25.40024
G09  21055433.72725    -57574.30725       471.09025        33.10025  21055408.54425    -50623.55125       350.82825        30.50025
G04  21055305.11626     16269.83626     -1464.48826        37.10026  21055279.33326      4339.38226     -1089.28226        36.00026
G03  20686846.99424     24779.28824     -1941.00124        27.00024                                                                
G30  25086781.28324  -1093082.70724      2811.96024        24.90024                                                                
G31  24889955.24324     22525.88324     -4285.34524        24.70024                                                                
G16  23026726.22924   -103839.29124       907.34624        29.10024                                                                
R03  22869956.05908 122434905.86208     -2524.00608        48.60008
C21  22495544.95808    -40740.65808        39.58308        47.50008  22495547.65606   2051879.53406        30.48606        38.10006
E29  23782944.01007  -1845437.97907      -814.81907        44.90007  23782957.50106  -1385794.30306      -609.04406        38.50006
C22  23511889.95707     34812.75907     -1946.86107        45.20007  23511896.25315   2108491.61715     -1467.09315        34.10015
C16  39680894.88816     13770.15016     -1384.68016        38.70016                                                                
C26  24210938.21616   -135235.62016      2518.73516        35.50016  24210815.30123   -839080.91023      1896.18423        20.30023
R14  20443637.96407 108986292.26907      -397.14507        41.50007
E33  24029025.35206  -2474478.43106     -1017.74906        41.30006  24029039.74225   2059355.26425      -760.91325        32.10025
C05  37233206.68727  -3205657.70627      -609.05327        42.20027                                                                
R04  20513868.54406 109861079.04306      -933.50306        39.70006
R15  21324179.37826 113960172.59626      3055.38726        36.20026
C09  37875032.06125  -1825469.79725      -974.36525        34.90025                                                                
R19  21829048.76426 116780924.83226     -3986.68826        35.70026
E07  25974897.85225     38113.33625     -2295.40525        32.40025  25974912.54224   -768904.90424     -1713.12524        24.80024
R05  21373478.44925 114263718.67625      1017.80925        31.90025
E26  25207127.86825     75743.46525     -3279.66225        31.60025  25207129.96723   -741520.24223     -2454.80123        23.00023
C06  38291895.27325    -58119.43725     -1298.71925        29.60025                                                                
R20  21502048.34224 114991346.07124      -678.92624        27.00024
C13  40102929.52024     -1742.87324     -1230.11824        26.10024                                                                
E21  28368526.87824  -2558623.17924      1923.80124        23.70024                                                                
R21  24056888.36323 128743506.61523      2084.70223        23.20023
E12  26867235.80023  -2801092.64423      1595.48623        21.20023                                                                
E30  27389289.29023  -3526572.25723      -222.90123        18.50023                                                                
R13  23646494.07323 126281175.52423     -3927.44023        18.70023
E19                                                                  24840598.01226   -679373.17126       503.49426        37.20026
C34                                                                  24795425.88425  -1900760.52325     -1856.78425        33.50025
E27                                                                  26842519.71016   -952394.24816      1138.85316        37.20016
> 2025 10 05 08 41 20.0000060  0 36                      
G06  22737225.04726    -57864.88526       720.96426        38.50026  22737226.24625    -50950.54325       541.48425        33.60025
G01  23316883.65716    131500.66316     -4095.21316        37.80016  23316777.83124     90075.15224     -3048.88024        27.10024
G26  23937421.96815     29651.16815     -1775.30215        35.40015  23937438.45624  -2586321.26224     -1324.26224        28.00024
G07  22422788.62626   -124548.88526      1932.51326        39.00026                                                                
G09  21055370.17125    -58046.70625       473.05325        32.70025  21055331.79725    -50976.26325       353.89125        30.10025
G16  23026539.15925   -104752.20125       915.25425        29.70025                                                                
G03  20687224.73224     26717.62324     -1937.00024        26.90024                                                                
G31  24890758.98624     26810.77724     -4285.48724        24.80024                                                                
G30  25086256.64624  -1095892.96524      2809.37524        24.90024                                                                
G04  21055596.21426     17730.77426     -1458.19026        36.00026  21055574.92926      5428.64426     -1088.44826        36.00026
C21  22495559.04907    -40782.09807        42.55807        47.40007  22495556.35006   2051846.61106        34.35106        38.10006
R03  22870439.92408 122437407.40008     -2516.49008        48.30008
E29  23783122.38707  -1844625.67607      -810.55807        45.10007  23783128.08306  -1385187.79206      -605.06406        38.50006
C22  23512282.98527     36754.55627     -1939.95227        45.10027  23512285.98305   2109955.04605     -1462.16705        34.80005
C16  39681170.69707     15153.69507     -1381.81007        44.90007                                                                
C26  24210462.14607   -137755.42907      2521.49607        42.10007  24210360.21623   -840977.05823      1896.57723        20.30023
R14  20443735.39607 108986721.67407      -391.05007        41.50007
E33  24029238.50406  -2473463.05106     -1013.88806        41.30006  24029251.99525   2060119.74925      -766.41125        31.40025
R04  20514067.00706 109862052.11906      -929.54606        39.90006
R15  21323619.66526 113957092.04226      3063.01326        36.30026
C09  37875230.52416  -1824497.36316      -970.64016        35.80016                                                                
R19  21829841.11516 116785074.81116     -3979.71916        35.60016
E07  25975328.95425     40402.57325     -2286.93625        32.60025  25975359.53324   -767194.29424     -1710.10024        24.70024
R05  21373305.16925 114262702.93325      1021.78025        31.90025
C06  38292162.68725    -56826.42825     -1289.91225        30.50025                                                                
E26  25207788.61125     79022.71525     -3278.13325        31.50025  25207771.22324   -739069.86624     -2447.22124        25.00024
R20  21502215.32624 114992149.45424      -681.18524        26.90024
C13  40103227.21424      -511.74324     -1230.34624        26.00024                                                                
E30  27389371.43323  -3526359.68723      -212.57023        23.00023                                                                
E21  28368173.12224  -2560549.43224      1927.04724        23.80024                                                                
R21  24056480.04523 128741231.81423      2087.40623        23.40023
E12  26866908.12723  -2802686.96823      1594.90023        21.00023                                                                
R13  23647203.68223 126284875.07423     -3927.25923        19.00023
E19                                                                  24840485.88926   -679881.20026       510.45826        36.80026
C34                                                                  24795912.14715  -1898908.11015     -1851.31015        33.50015
E27                                                                  26842241.80315   -953532.62915      1138.83515        35.00015
> 2025 10 05 08 41 21.0000063  0 36                      
G01  23317643.33126    135595.48526     -4093.67826        38.50026  23317655.62324     93126.73624     -3051.12824        26.90024
G06  22737067.05626    -58583.19226       717.72126        38.40026  22737070.65425    -51487.72625       536.63225        33.20025
G26  23937740.34706     31428.14106     -1776.71706        36.50006  23937754.73725  -2584992.78125     -1329.51725        31.00025
G09  21055231.36725    -58519.32225       472.72525        32.50025  21055220.27425    -51329.99325       354.23825        29.80025
G04  21055847.14025     19190.28125     -1458.79125        35.20025  21055832.75026      6516.76726     -1087.55326        35.90026
G16  23026327.20525   -105665.19125       913.03025        29.90025                                                                
G03  20687576.08924     28658.04424     -1941.46424        27.00024                                                                
G31  24891532.45124     31099.89524     -4291.22924        24.80024                                                                
G30  25085704.72824  -1098703.34824      2810.44524        24.90024                                                                
G07  22422390.20226   -126480.35826      1931.57026        38.40026                                                                
C21  22495524.87207    -40824.62707        43.07507        47.30007  22495527.27106   2051813.34206        33.44206        38.90006
E29  23783251.59827  -1843813.75027      -811.73727        45.00027  23783262.99006  -1384581.69606      -605.88806        38.40006
C16  39681417.72607     16536.64507     -1382.65207        44.60007                                                                
C26  24209968.38807   -140275.61907      2520.37907        42.10007  24209858.96323   -842870.90323      1892.69223        20.20023
R14  20443794.45617 108987144.21817      -393.10817        41.50017
E33  24029405.48906  -2472447.81906     -1015.15706        41.20006  24029424.07625   2060877.30225      -754.08525        31.50025
R04  20514216.00406 109862957.77106      -930.62706        40.00006
C34  24796513.53126  -3808728.53126     -2456.33326        37.40026  24796364.83405  -1897054.84005     -1853.69905        32.40005
C09  37875406.50206  -1823525.44906      -971.65406        36.10006                                                                
R15  21323048.26116 113954145.29316      3059.49216        36.30016
C06  38292383.33526    -55534.68626     -1291.10926        36.20026                                                                
R03  22870889.61308 122439921.19708     -2517.69808        47.80008
C22  23512636.14127     38695.92927     -1941.16027        44.20027  23512638.53906   2111417.94306     -1462.63106        37.00006
R19  21830592.99516 116789203.36516     -3983.04416        35.50016
E07  25975786.73715     42689.86615     -2286.32115        32.70015  25975777.14424   -765508.32124     -1673.65424        24.50024
R05  21373113.60125 114261785.10125      1022.63125        31.80025
C05  37233425.83626  -3204432.44126      -589.37726        38.00026                                                                
E26  25208381.90025     82305.63125     -3284.74825        31.40025  25208387.59624   -736621.23724     -2447.75524        24.50024
C13  40103466.14824       717.91324     -1228.91824        26.00024                                                                
R20  21502361.32524 114993037.77324      -677.81224        26.70024
E30  27389348.94824  -3526157.68024      -196.72524        24.40024                                                                
E21  28367769.90224  -2562480.39724      1933.32124        23.90024                                                                
R13  23647943.86923 126288935.26323     -3928.81223        19.40023
E12  26866554.67123  -2804283.70823      1597.94823        20.80023                                                                
E19                                                                  24840337.49226   -680387.39326       505.27526        35.90026
E27                                                                  26841933.61625   -954671.05225      1138.44425        34.30025
> 2025 10 05 08 41 22.0000067  0 36                      
G26  23938093.50307     33202.36707     -1772.85207        41.60007  23938104.29525  -2583668.16825     -1322.67925        30.70025
G01  23318435.08316    139687.12516     -4090.04816        39.10016  23318308.57124     96182.26324     -3057.49624        26.40024
G06  22736955.83326    -59305.26926       723.96026        38.30026  22736948.33825    -52023.06125       534.41025        32.90025
G07  22422039.44526   -128417.67726      1940.24126        37.70026                                                                
G09  21055158.21725    -58995.00925       477.22225        32.50025  21055144.42725    -51685.71425       356.71725        29.80025
G16  23026185.40425   -106578.74125       913.82925        29.90025                                                                
G03  20687946.03324     30597.49524     -1938.96624        27.40024                                                                
G30  25085168.39924  -1101513.38724      2809.86624        25.20024                                                                
G31  24892347.28724     35386.35124     -4285.12324        24.80024                                                                
G04  21056134.64125     20648.55525     -1457.65725        34.50025  21056121.15126      7603.55326     -1086.11826        35.70026
C21  22495532.36707    -40869.36207        45.83807        47.20007  22495528.17006   2051777.47906        37.15906        38.80006
E29  23783418.58227  -1843005.21427      -806.84027        45.00027  23783426.67606  -1383978.16506      -602.24806        38.40006
C26  24209492.31707   -142799.25007      2525.35007        42.60007  24209386.79023   -844766.42723      1896.36423        20.20023
R14  20443868.20517 108987483.62717      -388.66517        41.50017
C16  39681699.53107     17916.08507     -1377.68407        44.20007                                                                
E33  24029593.75806  -2471435.66606     -1010.61206        41.20006  24029623.73825   2061634.38625      -756.85025        30.70025
R04  20514411.76806 109863951.54206      -926.57106        40.00006
C34  24796993.49916  -3806273.41816     -2455.11216        38.20016  24796846.00115  -1895203.90215     -1849.77015        31.60015
C22  23513023.47317     40634.44617     -1937.08817        43.00017  23513021.37406   2112878.49806     -1459.38306        36.70006
C09  37875603.76526  -1822556.42126      -967.58526        36.20026                                                                
R15  21322497.84226 113951149.61026      3067.86726        36.40026
R19  21831344.57525 116793170.41925     -3981.99025        35.40025
C06  38292646.55226    -54246.02726     -1287.11726        36.10026                                                                
R03  22871414.54927 122442677.79727     -2511.54527        45.90027
E07  25976230.13025     44975.55625     -2284.88825        33.00025  25976220.83724   -763818.31324     -1692.02524        27.10024
C05  37233554.74626  -3203838.58026      -593.86126        37.00026                                                                
R05  21372874.36725 114260451.94325      1030.13025        31.80025
E26  25209019.55925     85585.07025     -3277.69925        31.30025  25209021.65724   -734175.65824     -2444.05324        24.20024
C13  40103671.20624      1947.38224     -1229.37424        26.50024                                                                
R20  21502528.30924 114993875.59224      -680.68224        26.60024
E30  27389383.72424  -3525958.07624      -198.40224        24.40024                                                                
E21  28367466.51224  -2564414.52124      1935.70324        23.90024                                                                
R13  23648692.15123 126292876.25823     -3922.02723        19.80023
E12  26866248.58323  -2805879.86523      1595.86523        20.50023                                                                
E27                                                                  26841651.51125   -955813.99125      1145.19625        33.60025
E19                                                                  24840217.87525   -680899.70025       515.36425        35.20025
> 2025 10 05 08 41 23.0000071  0 36                      
G26  23938435.56607     34972.85607     -1768.61907        44.90007  23938450.25625  -2582346.27425     -1320.53325        33.80025
G01  23319258.01426    143775.66026     -4086.98126        39.10026  23319106.91824     99230.69924     -3044.89024        25.60024
G06  22736838.01516    -60032.13116       729.25516        38.20016  22736828.12125    -52565.05025       545.31625        32.70025
G07  22421691.38626   -130359.08626      1943.45426        37.20026                                                                
G09  21055062.58315    -59476.60615       484.55115        32.70015  21055061.38425    -52042.83725       357.82325        29.50025
G04  21056416.14625     22102.64125     -1451.99325        33.90025  21056403.25525      8688.55325     -1084.10625        34.00025
G16  23026017.82025   -107500.63525       926.06625        30.30025                                                                
G03  20688312.97924     32530.40124     -1929.63324        27.40024                                                                
G30  25084623.37724  -1104326.83524      2815.15024        25.50024                                                                
G31  24893155.82724     39668.20124     -4279.54524        24.80024                                                                
C21  22495536.86417    -40918.89717        51.93517        47.10017  22495529.36906   2051738.14206        41.07506        38.60006
E29  23783572.67517  -1842201.23417      -801.70317        44.90017  23783589.76306  -1383378.06006      -598.39306        38.40006
C26  24209005.75407   -145327.44707      2530.47907        42.60007  24208913.41823   -846666.42523      1902.23423        20.10023
R14  20443947.65007 108987853.54507      -384.90407        41.50007
E33  24029829.69506  -2470427.70706     -1005.86206        41.20006  24029824.89825   2062385.77925      -748.54725        30.60025
C16  39681997.22527     19290.46927     -1371.85627        43.70027                                                                
C34  24797470.76806  -3803820.34506     -2452.05206        39.50006  24797327.16825  -1893356.67725     -1845.36825        30.80025
R04  20514593.44206 109864871.75106      -923.01906        39.90006
C22  23513397.01427     42567.19727     -1929.86727        42.10027  23513401.81106   2114335.80506     -1455.68206        36.40006
R15  21321895.55926 113947877.90826      3065.07726        36.40026
C09  37875793.53416  -1821591.98816      -962.13416        36.20016                                                                
E19  24840241.85825  -4008724.46825       686.84925        32.30025  24840099.15725   -681411.63025       511.74225        34.60025
R19  21832101.85025 116797167.32425     -3974.80725        35.40025
C06  38292936.15226    -52961.84726     -1281.94026        35.90026                                                                
R03  22871900.21327 122445224.53027     -2511.71527        44.10027
C05  37233688.15426  -3203237.76826      -604.28726        36.20026                                                                
R05  21372744.55725 114259705.43725      1033.31125        31.70025
C13  40103941.01924      3174.83224     -1226.44124        26.90024                                                                
R20  21502640.73224 114994424.19324      -677.98924        26.40024
E30  27389442.78324  -3525759.95524      -197.37924        24.30024                                                                
E21  28367096.56824  -2566352.44324      1939.81924        23.90024                                                                
R13  23649458.72023 126296916.58123     -3917.69023        20.40023
E12  26865946.69223  -2807474.15623      1593.35723        20.30023                                                                
E07  25976646.84215     47255.97415     -2277.03115        33.50015  25976662.73124   -762115.99224     -1708.47624        27.40024
E27                                                                  26841371.20525   -956958.55225      1145.37225        32.90025
E26                                                                  25209653.92024   -731732.74724     -2441.57624        24.00024
> 2025 10 05 08 41 24.0000074  0 36                      
G26  23938755.14507     36743.27707     -1770.38707        45.30007  23938767.13615  -2581024.12615     -1322.27515        33.40015
G01  23320010.19316    147862.21716     -4085.56716        39.00016  23319865.39324    102281.64824     -3052.20324        25.00024
G06  22736665.63426    -60758.19926       725.67126        38.10026  22736672.22925    -53109.29925       545.37925        32.50025
G07  22421291.76326   -132297.05526      1936.24926        36.90026                                                                
G09  21054942.06725    -59960.67525       485.30625        32.70025  21054951.06124    -52401.45024       359.35924        29.20024
G16  23025822.05525   -108420.43225       918.74925        30.30025                                                                
G03  20688677.22724     34456.83824     -1923.20124        27.40024                                                                
G30  25084068.16124  -1107142.98424      2817.49924        25.70024                                                                
G31  24893984.15324     43941.49124     -4269.01024        24.80024                                                                
G04  21056657.47925     23553.35225     -1449.02225        33.40025  21056661.67625      9771.60125     -1082.07225        32.80025
C21  22495497.29107    -40969.59007        51.27207        46.90007  22495499.39026   2051698.90126        39.19226        38.40026
E07  25977064.45226     49534.33026     -2277.57426        38.60026  25977081.24124   -760415.73124     -1699.23124        27.00024
E29  23783721.67207  -1841397.95107      -802.93407        44.90007  23783722.57106  -1382778.25306      -599.65706        38.30006
C26  24208519.19107   -147855.86407      2528.52607        42.60007  24208395.97623   -848567.94923      1902.28623        19.90023
E33  24030011.07006  -2469419.64806     -1008.11006        41.40006  24029996.97925   2063135.56125      -748.97725        30.60025
R14  20444005.21007 108988266.17607      -386.15007        41.50007
C34  24797913.86126  -3801367.73226     -2452.38126        40.20026  24797777.15625  -1891512.85025     -1842.12625        30.20025
R04  20514749.33526 109865812.65226      -921.96226        39.80026
C09  37875958.71906  -1820628.70206      -962.71306        36.80006                                                                
C22  23513757.36526     44499.02226     -1931.36126        41.30026  23513754.06716   2115792.65116     -1456.61516        36.10016
R15  21321286.08126 113944727.77926      3066.64726        36.50026
R19  21832795.27025 116800982.06425     -3975.10925        35.40025
C06  38293152.90226    -51677.36226     -1284.63726        35.70026                                                                
R03  22872372.98627 122447860.11427     -2509.49227        42.40027
C05  37233786.48625  -3202645.92625      -587.35625        35.40025                                                                
R05  21372509.22025 114258553.55925      1036.29125        31.70025
E27  26841141.56424  -4105895.97124      1537.78824        29.40024  26841059.42125   -958105.98825      1148.87325        32.30025
C16  39682240.05727     20665.40227     -1375.20727        41.70027                                                                
C13  40104161.36724      4396.21224     -1218.34324        27.40024                                                                
R20  21502721.07624 114994959.78624      -672.82724        26.30024
E30  27389446.98024  -3525561.76624      -198.22424        24.30024                                                                
R13  23650197.40923 126300966.07323     -3916.23523        20.90023
E12  26865603.73023  -2809064.04023      1587.68023        20.10023                                                                
E21  28366693.34724  -2568292.12424      1940.56124        23.90024  28366769.19423  -2644281.73623      1444.47623        19.10023
E19                                                                  24839948.66125   -681926.19225       515.87725        33.90025
E26                                                                  25210251.40624   -729290.21624     -2442.34124        25.80024
> 2025 10 05 08 41 25.0000078  0 36                      
G26  23939099.90607     38512.80807     -1768.33507        45.80007  23939114.29605  -2579703.17805     -1320.34805        33.20005
G01  23320785.45616    151947.51416     -4084.66516        39.20016  23320653.24824    105333.48424     -3052.28024        24.40024
G07  22420917.32226   -134235.97026      1939.38726        36.70026                                                                
G09  21054871.01625    -60446.25325       486.33125        32.70025  21054865.62024    -52763.50424       363.77324        28.90024
G04  21056954.87325     25002.81325     -1448.83625        33.10025  21056944.08125     10854.13325     -1082.27325        31.30025
G06  22736552.61226    -61486.33926       729.17526        37.40026  22736533.12625    -53654.55525       545.75925        33.10025
G16  23025651.77325   -109338.75825       917.58925        30.30025                                                                
G03  20689049.86924     36388.82324     -1934.75924        27.40024  20689016.89223  -2798571.42423     -1436.09623        21.00023
G30  25083526.43624  -1109959.67524      2816.96124        25.80024                                                                
G31  24894826.27024     48206.95124     -4261.54324        24.70024                                                                
C21  22495493.99407    -41023.46507        55.46607        46.60007  22495500.88926   2051660.19326        38.44226        38.10026
E29  23783878.16407  -1840596.30307      -800.83007        44.90007  23783884.75906  -1382179.67206      -597.96906        38.20006
E07  25977517.73916     51811.82016     -2277.05616        39.40016  25977524.03415   -758715.80515     -1699.75915        32.70015
E33  24030196.34107  -2468412.51607     -1006.66607        41.80007  24030197.24126   2063887.76826      -753.41926        35.80026
C26  24208032.32807   -150386.02707      2531.03507        42.50007  24207917.20823   -850464.21423      1893.63423        19.80023
R14  20444098.74506 108988712.36506      -386.68206        41.40006
C34  24798400.12516  -3798916.90416     -2449.93516        40.20016  24798258.32325  -1889659.02325     -1858.82725        29.60025
C09  37876155.08306  -1819666.37806      -961.84106        37.20006                                                                
R15  21320752.15016 113941820.78716      3071.78716        36.50016
C22  23514177.07426     46429.88826     -1930.38726        40.50026  23514135.40325   2117249.54825     -1456.92225        34.20025
R19  21833585.82325 116805158.83725     -3974.01125        35.30025
R04  20514921.11626 109866679.22826      -922.14026        39.10026
C06  38293410.12426    -50392.76226     -1284.65626        35.50026                                                                
E27  26840862.15825  -4107433.02625      1537.05425        31.80025  26840776.71725   -959254.62925      1149.24525        30.80025
R03  22872931.79926 122450798.23526     -2504.11826        40.80026
R05  21372335.94025 114257573.76925      1028.96625        31.60025
C05  37233906.40325  -3202066.34925      -573.44525        34.80025                                                                
C16  39682514.06726     22039.29426     -1373.37026        40.00026                                                                
C13  40104397.60324      5617.79924     -1221.69124        27.50024                                                                
R20  21502858.38124 114995639.99024      -677.29724        26.20024
E30  27389512.03524  -3525364.90624      -196.19524        24.20024                                                                
E21  28366338.69224  -2570234.13024      1943.16724        23.80024  28366407.94423  -2645738.51623      1462.93123        19.50023
R13  23650993.35823 126305164.55523     -3916.12123        21.10023
E12  26865311.73223  -2810647.07723      1579.61323        20.00023                                                                
E19                                                                  24839826.64625   -682443.05825       518.01925        33.30025
E26                                                                  25210880.07124   -726849.99224     -2439.06924        25.30024
> 2025 10 05 08 41 26.0000082  0 36                      
G26  23939443.16807     40277.41207     -1762.39007        46.20007  23939459.05706  -2578385.44106     -1316.13006        38.30006
G01  23321583.20426    156026.00626     -4075.08726        39.20026  23321437.80524    108381.08524     -3045.48124        23.80024
G07  22420567.76426   -136179.41526      1945.70826        36.50026                                                                
G09  21054772.68425    -60937.80125       494.53425        32.70025  21054766.98824    -53129.66424       368.21424        28.40024
G04  21057242.97425     26447.95925     -1442.98825        32.80025  21057229.78325     11933.45425     -1077.71525        32.00025
G06  22736421.30326    -62217.64826       732.89426        36.40026  22736412.60925    -54204.75525       552.67225        32.80025
G03  20689428.80624     38314.16224     -1922.01524        27.50024  20689392.83123  -2797143.42123     -1423.95623        20.90023
G31  24895636.90924     52461.85624     -4249.62424        24.70024                                                                
G16  23025451.51225   -110264.38425       929.27525        30.50025                                                                
G30  25083024.28424  -1112779.59124      2821.52924        25.80024                                                                
C21  22495491.59507    -41082.98307        62.33907        46.40007  22495495.49326   2051616.40526        46.32826        36.60026
E29  23784041.85007  -1839800.24007      -793.26907        44.80007  23784046.04826  -1381585.65326      -591.73826        38.00026
E33  24030412.79107  -2467410.86507      -998.91107        42.90007  24030398.10225   2064636.49525      -746.98825        35.40025
C26  24207582.93927   -152919.58627      2535.25727        42.40027  24207474.41423   -852362.42723      1899.18723        19.60023
E07  25977951.23906     54083.38206     -2269.34706        41.40006  25977967.72705   -757019.67305     -1694.23305        32.00005
C34  24798880.69206  -3796470.66206     -2443.94706        40.40006  24798739.49024  -1887807.13124     -1850.92424        29.00024
C09  37876352.64716  -1818709.83016      -953.66116        37.20016                                                                
C22  23514649.24716     48352.52016     -1918.51316        39.80016  23514514.64025   2118703.43625     -1452.38225        34.00025
R15  21320171.15326 113938663.77726      3076.88026        36.40026
R19  21834340.10125 116809141.20025     -3966.11225        35.30025
C06  38293655.05425    -49117.12225     -1271.16025        35.30025                                                                
R04  20515107.58726 109867624.72526      -909.49326        38.40026
R03  22873431.25326 122453420.03126     -2495.25826        39.50026
E27  26840562.06625  -4108978.97425      1550.39425        32.40025  26840493.41325   -960395.69925      1137.28325        29.60025
R05  21372163.25925 114256598.57325      1041.70925        31.50025
C05  37234010.43125  -3201508.03025      -547.69025        34.20025                                                                
R14  20444173.39326 108989056.34526      -375.95426        40.00026
C16  39682777.58526     23406.19926     -1363.41126        38.40026                                                                
C13  40104627.54424      6834.76724     -1214.65824        27.50024                                                                
R20  21503020.56924 114996454.85324      -669.65524        26.10024
E30  27389557.30424  -3525172.23124      -190.58224        24.20024                                                                
E21  28365956.15724  -2572180.82424      1949.03824        23.80024  28366045.49523  -2647201.67323      1466.34623        19.60023
R13  23651747.33623 126309137.64123     -3909.59123        21.80023
E12  26865064.10323  -2812223.39523      1572.95723        19.80023                                                                
E26                                                                  25211507.53724   -724415.62024     -2431.44524        24.90024
E19                                                                  24839707.92825   -682966.40725       526.58925        32.60025
> 2025 10 05 08 41 27.0000085  0 36                      
G26  23939777.43707     42038.27407     -1758.98907        46.70007  23939793.02606  -2577070.48306     -1313.56906        37.70006
G01  23322342.57816    160101.37616     -4073.80916        39.20016  23322221.16223    111424.62823     -3041.51523        23.20023
G07  22420198.12026   -138131.50326      1956.40926        36.30026                                                                
G09  21054668.95625    -61430.64325       493.48825        33.20025  21054675.25225    -53500.62925       373.36725        29.50025
G06  22736267.80926    -62955.50326       741.12626        35.50026  22736264.81125    -54754.41425       549.38925        32.10025
G30  25082463.37224  -1115607.31224      2831.62224        25.90024                                                                
G31  24896427.76224     56716.81124     -4254.98024        24.90024                                                                
G16  23025276.43325   -111193.64825       931.08325        30.80025                                                                
G03  20689799.05024     40234.79524     -1918.27824        27.50024                                                                
G04  21057515.48525     27890.56625     -1441.33725        32.50025  21057500.19625     13008.48425     -1072.88525        31.90025
C21  22495479.30427    -41146.81727        65.99127        46.20027  22495484.40025   2051569.49425        48.47225        35.40025
E29  23784184.55207  -1839006.83807      -791.32207        44.70007  23784195.64426  -1380994.30826      -590.00726        37.90026
E33  24030589.36917  -2466412.38217      -996.89817        43.50017  24030586.37115   2065382.14615      -744.11215        35.10015
C26  24207065.19717   -155458.33417      2541.34117        42.30017  24206982.15523   -854269.70523      1911.81023        19.50023
E07  25978381.14117     56351.99917     -2266.89417        41.50017  25978396.73016   -755326.03016     -1692.39816        36.00016
C34  24799353.76506  -3794028.22106     -2440.54106        40.70006  24799211.36324  -1885961.34224     -1842.73724        28.40024
C09  37876544.21426  -1817754.96326      -954.02526        37.10026                                                                
R15  21319668.10126 113935983.10026      3078.28526        36.40026
C22  23515035.08026     50273.77926     -1920.57326        39.30026  23514883.08525   2120159.95525     -1457.83425        33.70025
R19  21835093.47925 116813178.66925     -3965.21725        35.20025
C06  38293889.19225    -47844.80525     -1270.65625        35.10025                                                                
R14  20444275.02326 108989606.26426      -377.57726        39.50026
R03  22873875.54526 122455806.67726     -2494.02026        38.60026
R04  20515294.95726 109868635.34626      -915.06626        37.60026
E27  26840277.56225  -4110525.94125      1547.47525        32.40025  26840199.31724   -961547.62924      1157.35924        29.10024
C05  37234130.64825  -3200938.93825      -574.47925        33.70025                                                                
R05  21371940.51325 114255416.08925      1043.52625        31.40025
C16  39683063.58726     24772.04126     -1365.31026        37.10026                                                                
C13  40104863.78124      8046.60724     -1209.27424        27.50024                                                                
R20  21503107.20924 114996926.93924      -665.27924        26.10024
E30  27389583.08624  -3524983.08324      -187.38524        24.10024                                                                
E21  28365600.60324  -2574131.01124      1951.93224        23.70024  28365673.15323  -2648664.20823      1462.22423        19.70023
R13  23652491.72123 126313120.65823     -3903.46223        22.40023
E12  26864778.70123  -2813797.09223      1572.38723        19.70023                                                                
E19                                                                  24839568.82425   -683488.23725       521.07025        31.80025
E26                                                                  25212121.81124   -721988.75224     -2423.11624        24.50024
> 2025 10 05 08 41 28.0000088  0 36                      
G26  23940102.11207     43797.79107     -1758.84407        46.70007  23940109.90726  -2575756.94426     -1312.82926        37.00026
G01  23323088.76206    164174.85206     -4072.52606        39.50006  23322977.23923    114467.08323     -3041.90923        22.60023
G07  22419805.69126   -140081.66926      1949.20526        36.20026                                                                
G16  23025105.85125   -112124.23725       931.25225        31.00025                                                                
G06  22736122.71025    -63692.67425       736.82925        34.90025  22736105.02225    -55302.39725       547.14425        31.20025
G04  21057780.20225     29329.08725     -1436.47725        32.20025  21057762.21525     14075.09025     -1062.39425        31.70025
G03  20690158.20224     42155.39924     -1920.59024        27.50024                                                                
G30  25081903.65924  -1118440.03224      2835.21824        26.20024                                                                
G31  24897268.38024     60971.60924     -4254.71824        24.90024                                                                
G09  21054560.73126    -61928.85426       500.89426        36.60026  21054557.13325    -53871.92125       371.45625        32.70025
C21  22495446.92617    -41211.26917        64.76217        45.90017  22495451.12325   2051520.55825        49.94925        35.20025
E29  23784314.36207  -1838216.24007      -789.44507        44.60007  23784326.05416  -1380404.01016      -589.77516        37.90016
E33  24030742.86307  -2465415.30307      -996.37807        44.00007  24030754.55515   2066127.29815      -744.90215        35.10015
C26  24206552.55217   -157999.35417      2542.15617        42.20017  24206473.10723   -856181.00723      1913.31323        19.30023
E07  25978789.15907     58618.09307     -2264.83207        41.70007  25978811.34325   -753638.27725     -1684.80825        35.10025
C34  24799796.25806  -3791587.83206     -2439.36106        40.90006  24799659.85324  -1884123.75024     -1833.49324        27.90024
R15  21319082.90616 113932963.72716      3080.94416        36.50016
C09  37876695.30926  -1816804.39026      -948.42726        37.00026                                                                
C22  23515385.53726     52190.21026     -1914.01626        38.80026  23515235.04225   2121614.22425     -1453.14525        33.30025
R14  20444332.88316 108990022.70416      -375.87916        38.70016
C06  38294112.53825    -46575.99825     -1267.05125        35.10025                                                                
R19  21835807.58525 116817106.68625     -3965.40325        35.10025
R03  22874377.69826 122458601.57526     -2494.31126        37.80026
R04  20515419.67026 109869410.74426      -908.94326        36.80026
E26  25212885.38325  -4506437.28125     -3252.69525        30.80025  25212720.79724   -719561.45924     -2427.50424        24.20024
E27  26839966.07825  -4112072.49625      1546.34825        32.40025  26839883.93524   -962703.40324      1157.69724        28.70024
R05  21371699.18125 114254232.84925      1049.17825        31.30025
C05  37234216.98825  -3200352.95025      -594.43625        33.20025                                                                
C16  39683292.62826     26135.83326     -1362.76726        36.20026                                                                
C13  40105029.86624      9257.44524     -1210.33824        27.60024                                                                
R20  21503234.32124 114997714.26024      -666.88624        26.20024
E30  27389625.35724  -3524794.27124      -188.64524        24.00024                                                                
E21  28365225.86324  -2576083.44824      1953.56124        23.70024  28365277.72723  -2650130.63223      1468.36723        19.70023
R13  23653216.91923 126317100.62023     -3902.82823        22.60023
E12  26864461.52023  -2815366.92123      1567.89323        19.60023                                                                
E19                                                                  24839422.52625   -684008.93925       520.13825        31.10025
> 2025 10 05 08 41 29.0000092  0 35                      
G01  23323876.91616    168245.65016     -4069.45816        39.50016  23323759.99723    117505.29123     -3036.08423        22.20023
G09  21054497.77426    -62425.86726       496.41526        37.70026  21054472.29226    -54246.14226       375.68526        35.80026
G07  22419483.71426   -142037.84926      1959.18726        36.20026                                                                
G16  23024940.06625   -113059.31125       937.31625        31.40025                                                                
G04  21058057.81025     30763.43025     -1432.25425        32.00025  21058042.52125     15148.47725     -1076.77625        31.40025
G03  20690521.25024     44071.21824     -1913.42624        27.60024                                                                
G30  25081356.23824  -1121275.99124      2837.57724        26.40024                                                                
G31  24898063.42924     65226.89224     -4255.52324        24.90024                                                                
G06  22735990.20225    -64434.17325       743.66325        34.30025  22735950.62925    -55852.95325       551.84325        30.60025
E33  24030950.31907  -2464421.48307      -992.19007        44.40007  24030955.11625   2066874.98825      -748.95925        35.00025
C21  22495445.42727    -41279.26627        69.77027        45.70027  22495446.92625   2051467.18525        55.59125        35.10025
E29  23784477.74907  -1837429.27207      -785.15307        44.60007  23784486.14306  -1379816.34406      -586.35006        37.80006
C34  24800274.42706  -3789151.02306     -2435.01806        41.40006  24800138.62124  -1882290.02324     -1831.79524        27.40024
C26  24206066.58907   -160543.47707      2545.67207        42.10007  24205998.53623   -858098.39923      1920.43723        19.20023
E07  25979236.14907     60878.21107     -2256.37807        41.60007  25979255.63625   -751951.38225     -1686.46425        34.40025
R15  21318562.16726 113930127.07126      3083.29726        36.50026
C22  23515756.98016     54104.14816     -1912.69016        38.40016  23515622.97325   2123067.09225     -1452.16725        32.80025
C09  37876885.67816  -1815857.78016      -944.62716        36.80016                                                                
R14  20444420.42206 108990433.80706      -369.34606        38.20006
C06  38294355.96925    -45307.58125     -1268.22025        35.00025                                                                
R19  21836550.47125 116821026.28625     -3952.42425        35.00025
R03  22874866.36026 122461163.62626     -2488.25026        37.10026
R04  20515618.43326 109870421.36926      -906.99026        36.20026
E26  25213516.44625  -4503186.52625     -3250.75425        32.40025  25213355.15724   -717128.47224     -2435.83324        23.80024
E27  26839735.53825  -4113621.56325      1550.32325        32.30025  26839595.23524   -963858.86124      1155.29924        28.20024
R05  21371486.02825 114253038.13225      1046.92325        31.20025
C05  37234347.69725  -3199747.70625      -614.87225        32.80025                                                                
C16  39683598.11725     27495.06525     -1356.95225        35.30025                                                                
C13  40105282.89024     10467.48724     -1209.64224        27.60024                                                                
R20  21503354.23824 114998299.58524      -662.13224        26.50024
E30  27389664.03024  -3524605.77424      -188.33824        24.00024                                                                
E21  28364842.72824  -2578034.78024      1950.78024        23.70024  28364912.87923  -2651591.18423      1457.61623        19.60023
R13  23653934.02223 126320875.05323     -3904.52823        22.70023
E12  26864192.60623  -2816935.40923      1567.81723        19.60023                                                                
G26                                                                  23940451.37026  -2574448.12826     -1306.45426        36.30026
> 2025 10 05 08 41 30.0000095  0 35                      
G01  23324646.78306    172314.09106     -4067.26106        39.50006  23324525.06723    120533.84323     -3023.72323        21.80023
G09  21054376.35926    -62929.74226       507.30626        37.60026  21054373.66025    -54620.76725       374.82825        35.20025
G07  22419094.88426   -143993.88726      1955.96526        36.10026                                                                
G16  23024776.67925   -113992.71425       932.56725        31.40025                                                                
G04  21058334.81825     32195.62925     -1431.12725        31.80025  21058311.73425     16222.20825     -1073.90425        31.10025
G03  20690888.19624     45984.40324     -1911.86724        27.60024                                                                
G30  25080829.80324  -1124111.86724      2835.83424        26.50024                                                                
G26  23940806.62427     47310.17027     -1753.95327        42.40027  23940779.34326  -2573140.21526     -1307.46226        35.60026
G31  24898869.27124     69487.43324     -4263.17024        24.90024                                                                
G06  22735814.82325    -65177.19125       743.77625        33.90025  22735831.61125    -56402.93625       549.69725        31.00025
C21  22495430.73717    -41348.82317        70.33617        45.60017  22495432.53625   2051414.45725        52.40725        35.10025
E29  23784624.04707  -1836643.58907      -785.03907        44.50007  23784633.94106  -1379229.72806      -586.09006        37.70006
E33  24031139.18907  -2463428.66907      -992.31007        44.70007  24031143.08625   2067617.28925      -739.60625        34.90025
C26  24205584.22307   -163088.83307      2545.97307        42.00007  24205510.47423   -860015.09623      1916.34823        19.50023
E07  25979674.14607     63135.97807     -2256.84207        41.50007  25979684.93825   -750266.92025     -1683.24625        33.80025
C34  24800741.20406  -3786715.55506     -2434.79706        41.40006  24800604.19924  -1880452.72424     -1839.08424        26.80024
C22  23516124.82606     56017.18206     -1912.58106        38.20006  23515988.12025   2124511.71825     -1440.50425        32.30025
R15  21318021.64126 113927248.36826      3090.45926        36.50026
C09  37877067.35226  -1814910.28926      -947.93126        36.70026                                                                
R14  20444494.77106 108990840.33606      -371.30606        37.80006
C06  38294600.30015    -44041.73515     -1264.56115        34.90015                                                                
R19  21837295.75525 116825022.42425     -3957.24325        34.90025
R03  22875323.54326 122463619.21226     -2490.37026        36.50026
R04  20515769.52826 109871240.44126      -903.68226        35.60026
E26  25214067.46425  -4499936.81325     -3249.19125        32.30025  25213970.93123   -714707.13023     -2415.51923        23.40023
E27  26839442.64025  -4115171.54625      1550.44025        32.10025  26839295.14324   -965019.01424      1162.50024        27.70024
C16  39683838.85025     28850.55025     -1353.61125        34.50025                                                                
R05  21371316.94525 114252144.77825      1047.54025        31.10025
C05  37234454.72325  -3199149.45625      -594.75225        32.40025                                                                
C13  40105529.02024     11678.11024     -1210.91424        27.60024                                                                
R20  21503469.95824 114998929.28824      -660.46924        26.70024
E30  27389694.60924  -3524416.46524      -189.71624        24.00024                                                                
E21  28364472.18524  -2579988.13424      1954.36424        23.60024                                                                
R13  23654643.33123 126324673.16823     -3902.44323        22.90023
E12  26863852.04223  -2818504.62523      1569.58023        19.50023                                                                
> 2025 10 05 08 41 31.0000099  0 36                      
G01  23325435.23716    176385.10116     -4072.29316        39.40016  23325308.12523    123554.42223     -3016.59123        21.50023
G09  21054278.32626    -63430.76426       499.59526        37.40026  21054292.71625    -54995.74525       375.15425        34.50025
G07  22418725.83926   -145949.13226      1954.84826        36.10026                                                                
G16  23024592.00725   -114924.08925       930.36125        31.40025                                                                
G26  23941195.15526     49064.48326     -1754.31326        40.40026  23941132.19925  -2571820.62525     -1325.42825        34.90025
G04  21058597.13725     33628.42925     -1433.09925        31.60025  21058593.53925     17292.88225     -1069.14525        30.70025
G03  20691266.53424     47901.11324     -1918.47224        27.50024                                                                
G30  25080279.98324  -1126940.96124      2825.70124        26.50024                                                                
G31  24899708.69024     73747.69424     -4260.11824        24.80024                                                                
G06  22735688.31125    -65916.84125       737.96625        33.60025  22735674.82025    -56949.27325       544.51325        30.30025
E33  24031331.95507  -2462434.35507      -995.06407        44.70007  24031340.94926   2068360.62026      -743.84626        40.00026
E29  23784788.03407  -1835856.60007      -787.64307        44.60007  23784794.03006  -1378642.07606      -588.16906        37.70006
C21  22495425.34107    -41417.26207        67.88007        45.40007  22495428.33925   2051362.71025        51.25625        34.60025
E07  25980111.54307     65395.25207     -2260.02707        41.50007  25980126.53325   -748580.07425     -1688.03725        33.20025
C26  24205091.36407   -165632.79507      2543.26307        41.90007  24205036.50223   -861923.67523      1904.51923        19.60023
C34  24801202.28506  -3784279.06106     -2437.00606        41.30006  24801078.17124  -1878618.84224     -1832.17224        26.30024
C22  23516486.37526     57933.04226     -1917.27226        37.90026                                                                
C09  37877255.62216  -1813963.25416      -946.80616        36.60016                                                                
R15  21317453.83426 113924160.17826      3086.53426        36.40026
R14  20444583.21006 108991257.54406      -374.85506        37.50006
C06  38294847.32905    -42774.46705     -1267.97805        35.20005                                                                
R19  21838044.03725 116828969.57925     -3960.87425        34.80025
E26  25214706.62225  -4496685.90825     -3251.50025        32.60025                                                                
R03  22875852.37726 122466396.49526     -2487.07626        36.00026
R04  20515980.58225 109872315.43125      -906.64725        35.10025
C16  39684103.56725     30208.24525     -1358.79825        34.00025                                                                
R05  21371138.86825 114251138.22325      1043.25825        31.00025
C05  37234579.73725  -3198572.28725      -566.62925        32.10025                                                                
E19  24839073.56724  -4788355.69124       684.53224        25.80024                                                                
C13  40105738.87524     12886.04524     -1206.59024        27.60024                                                                
R20  21503616.25624 114999656.93124      -666.19824        27.00024
E30  27389745.57424  -3524224.85624      -192.75924        23.90024                                                                
E21  28364154.40524  -2581941.39324      1953.21024        23.50024                                                                
R13  23655400.90723 126328663.06523     -3905.35323        23.00023
E12  26863563.94223  -2820074.30523      1569.91023        19.40023                                                                
E27                                                                  26839017.53524   -966177.35424      1157.43324        27.30024
> 2025 10 05 08 41 32.0000102  0 36                      
G01  23326231.48616    180454.43016     -4068.48716        39.40016  23326067.49923    126578.85923     -3026.36623        21.10023
G07  22418331.91226   -147904.42726      1955.31926        36.10026                                                                
G09  21054165.00526    -63933.38426       503.41926        37.20026  21054181.49325    -55365.20625       366.70225        33.80025
G16  23024377.35525   -115857.81925       934.90725        31.90025                                                                
G26  23941534.22126     50820.54626     -1756.93626        38.90026  23941443.08425  -2570511.96325     -1303.19825        34.20025
G04  21058849.86225     35063.10025     -1435.60725        31.40025  21058844.16625     18362.18725     -1068.61925        29.60025
G03  20691628.38424     49819.36924     -1919.02824        27.50024                                                                
G30  25079722.96924  -1129770.02724      2829.05124        26.40024                                                                
G31  24900491.44824     78003.55924     -4253.66624        24.80024                                                                
G11  25585473.44523  -4595081.64423      2427.23823        18.00023                                                                
G06  22735521.02625    -66658.21525       742.23625        33.40025  22735514.73125    -57499.25725       551.80925        30.10025
E33  24031504.93507  -2461440.71607      -993.30207        45.40007  24031508.23316   2069102.67216      -741.41216        39.60016
E29  23784915.74507  -1835070.74007      -785.29507        44.60007  23784923.24006  -1378055.15606      -586.55506        39.30006
C21  22495388.76607    -41486.67807        69.90507        45.30007  22495396.86115   2051310.65815        52.20315        34.60015
E07  25980524.95706     67653.27806     -2257.40006        41.40006  25980530.05325   -746893.59325     -1686.29925        32.80025
C26  24204594.60807   -168177.55807      2545.16307        41.80007  24204619.79024   -863825.62024      1898.62824        24.50024
C34  24801621.39526  -3781848.50426     -2427.58826        41.20026  24801527.86024  -1876794.09324     -1820.18324        25.80024
C22  23516841.33016     59847.42016     -1913.63616        37.80016                                                                
C09  37877417.51006  -1813017.41806      -945.23706        36.60006                                                                
R14  20444616.78616 108991543.56616      -375.06316        37.20016
R15  21316864.44226 113921117.85226      3084.50126        36.40026
C06  38295073.97226    -41508.65926     -1265.07926        35.50026                                                                
R19  21838700.88225 116832591.44025     -3960.38625        34.80025
E26  25215325.69325  -4493435.78825     -3249.72625        32.90025                                                                
R03  22876244.20626 122468600.85526     -2489.32826        35.50026
R04  20516121.18515 109873175.11315      -912.23215        34.60015
C16  39684373.38025     31562.47025     -1352.49125        33.50025                                                                
R05  21370940.10625 114250183.67325      1051.73725        30.90025
C13  40105880.97624     14091.67124     -1204.47124        27.90024                                                                
R20  21503727.17924 115000357.02724      -665.82124        27.20024
E27  26838779.79924  -4118266.73124      1548.55724        28.10024  26838700.35424   -967333.13824      1154.50624        26.90024
E30  27389766.25924  -3524032.61524      -192.55724        23.90024                                                                
E19  24838951.55224  -4789044.88424       689.19224        25.40024                                                                
R13  23656141.39423 126332725.54623     -3909.77623        23.00023
E12  26863285.73423  -2821646.20323      1573.00723        19.30023                                                                
E21  28363796.75223  -2583895.47323      1954.49123        23.40023                                                                
> 2025 10 05 08 41 33.0000105  0 35                      
G01  23326977.07026    184523.78526     -4069.36826        39.30026  23326839.46523    129604.39223     -3026.07923        20.80023
G07  22417995.54526   -149864.18226      1961.98526        36.20026                                                                
G09  21054081.66326    -64434.80026       500.81426        37.00026  21054097.55225    -55734.12025       368.64125        33.10025
G06  22735387.01925    -67397.12325       737.67425        33.30025  22735379.82425    -58049.22025       549.95225        29.60025
G16  23024200.17825   -116793.53625       936.71125        32.10025                                                                
G26  23941919.15426     52577.24026     -1757.01026        37.70026  23941774.05525  -2569202.14825     -1310.39025        33.40025
G04  21059151.15325     36496.25525     -1432.39625        31.20025  21059121.77324     19431.56824     -1069.42024        29.30024
G03  20692009.42024     51742.20124     -1925.12024        27.60024                                                                
G30  25079196.53424  -1132602.51324      2834.19624        26.40024                                                                
G31  24901316.77724     82253.96224     -4247.67124        24.80024                                                                
E33  24031695.00407  -2460447.94907      -992.33107        46.10007  24031696.50306   2069844.13406      -741.16806        38.90006
C21  22495375.87507    -41557.26207        71.16807        45.20007  22495382.17125   2051258.66425        51.96725        34.60025
R14  20444686.03807 108991921.10707      -374.87807        42.30007
E29  23785064.74227  -1834285.50827      -784.91827        44.60027  23785071.33806  -1377469.15506      -585.54206        39.10006
E07  25980923.68126     69910.91526     -2257.44326        41.40026  25980950.96225   -745207.92025     -1685.26825        32.30025
C26  24204132.92727   -170722.93427      2545.68127        41.60027  24204061.57724   -865704.23424      1866.94724        23.70024
C34  24802082.47626  -3779418.76426     -2429.33126        40.90026  24801990.14024  -1874971.15324     -1822.03524        25.40024
C09  37877594.68706  -1812072.42806      -944.56706        37.10006                                                                
C22  23517189.38926     61760.70826     -1912.74326        37.70026  23517158.81025  -3644961.38625     -1437.72225        29.50025
R15  21316327.21416 113918254.44616      3089.43216        36.30016
C06  38295320.10226    -40245.62226     -1261.65026        35.60026                                                                
R19  21839485.13925 116836794.99925     -3959.05625        34.80025
R03  22876673.80825 122470909.38325     -2485.97825        35.10025
R04  20516310.95325 109874200.29525      -909.21725        34.20025
C16  39684624.60625     32913.91825     -1350.05925        33.10025                                                                
R05  21370689.18025 114248848.98325      1058.40525        30.80025
C13  40106080.03924     15295.85524     -1203.46324        28.60024                                                                
E27  26838487.80224  -4119820.35324      1553.62224        27.90024  26838399.36324   -968490.48324      1158.12524        26.50024
R20  21503821.01424 115000867.36924      -661.22024        27.20024
E19  24838769.87724  -4789742.84824       702.35024        25.10024                                                                
E30  27389812.72724  -3523840.80524      -191.59524        23.90024                                                                
E21  28363393.23123  -2585851.16223      1956.49423        23.40023                                                                
R13  23656881.88123 126336686.40523     -3914.61023        23.00023
E12  26862982.64423  -2823220.14723      1574.96723        19.20023                                                                
E26  25215970.54715  -4490184.40515     -3251.26515        33.20015                                                                
> 2025 10 05 08 41 34.0000109  0 35                      
G01  23327771.52016    188591.01016     -4066.15716        39.20016  23327629.11823    132632.28623     -3029.07423        20.40023
G07  22417605.21526   -151823.82526      1959.58626        36.50026                                                                
G09  21053995.02326    -64940.35026       507.61726        36.70026  21054017.80725    -56107.25625       375.24625        32.50025
G06  22735288.08825    -68137.14825       740.58325        33.20025  22735235.92424    -58600.80824       552.39924        28.90024
G16  23024044.88525   -117727.55025       933.16125        32.10025                                                                
G03  20692351.48324     53660.78324     -1916.45624        27.70024  20692299.91923  -3350274.15823     -1434.38223        19.90023
G30  25078658.70624  -1135440.07224      2840.09324        26.30024                                                                
G31  24902118.42224     86504.12724     -4250.04324        24.70024                                                                
G04  21059417.06925     37924.67525     -1426.05125        31.00025  21059402.37924     20495.44924     -1061.13024        29.00024
G26  23942239.93226     54327.54126     -1747.10226        36.60026  23942117.31725  -2567887.72225     -1316.73125        32.60025
E33  24031894.36607  -2459456.66007      -990.54807        46.10007  24031895.26506   2070584.29206      -739.50406        38.40006
C21  22495371.07907    -41629.20707        72.62607        45.10007  22495378.27425   2051204.66625        54.99925        34.50025
E29  23785218.23617  -1833503.15617      -781.66117        44.50017  23785230.22806  -1376884.54506      -583.91406        39.00006
R14  20444752.29307 108992220.85507      -373.14207        44.00007
C26  24203648.76316   -173270.15416      2548.14116        41.40016  24203599.29723   -867556.85823      1839.63023        23.10023
C34  24802552.25026  -3776989.01026     -2429.76026        40.60026  24802466.81024  -1873142.42524     -1831.62124        24.90024
C09  37877782.95706  -1811129.51906      -941.86706        37.50006                                                                
C22  23517582.11726     63671.59426     -1909.68326        37.60026  23517535.34924  -3643524.95024     -1436.43524        28.50024
C06  38295568.33016    -38982.49216     -1263.17616        36.20016                                                                
C13  40106316.57525     16497.71125     -1200.69125        33.20025                                                                
R15  21315759.70706 113915168.53906      3090.34406        36.80006
R19  21840213.03525 116840634.99825     -3954.54025        34.70025
E07  25981376.66726     72166.17926     -2254.82726        40.90026  25981388.05925   -743524.15925     -1682.80425        33.70025
E26  25216591.11705  -4486936.29505     -3246.72105        33.40005  25216617.79924  -3640817.05324     -2424.80024        26.80024
R03  22877142.38425 122473364.96725     -2487.66225        34.80025
R04  20516493.22725 109875122.80125      -905.45125        33.90025
C16  39684852.14925     34268.11325     -1355.56725        32.80025                                                                
E27  26838208.09524  -4121376.14124      1556.87024        29.30024  26838116.05924   -969650.53524      1161.40624        26.10024
R05  21370512.00225 114247849.30925      1057.60625        30.70025
R20  21503941.53124 115001458.81624      -663.82124        27.20024
E19  24838639.76824  -4790451.58124       714.11724        24.90024                                                                
E30  27389876.88324  -3523652.92224      -185.91924        23.90024                                                                
E21  28363016.39223  -2587815.14123      1968.12223        23.30023                                                                
R13  23657606.78023 126340505.15323     -3910.69523        22.90023
E12  26862668.76123  -2824799.15023      1581.53123        19.10023                                                                
> 2025 10 05 08 41 35.0000113  0 35                      
G01  23328574.96416    192654.01616     -4060.89516        39.10016  23328428.66513    135665.49613     -3035.86513        20.20013
G07  22417221.48116   -153787.54916      1965.76316        36.60016                                                                
G09  21053911.98026    -65449.54526       511.01726        36.50026  21053904.78525    -56483.89325       378.38825        31.00025
G16  23023891.09225   -118663.73425       937.26925        32.00025                                                                
G26  23942574.80026     56077.39126     -1749.62526        35.60026  23942462.97825  -2566571.20725     -1317.56025        31.80025
G04  21059689.28025     39350.41825     -1424.40425        30.70025  21059685.38324     21555.08224     -1057.50924        28.60024
G03  20692706.13824     55576.43424     -1914.18424        27.80024  20692671.36223  -3348842.47323     -1430.33523        20.20023
G30  25078130.77124  -1138280.17624      2841.37724        26.20024                                                                
G31  24902928.76124     90749.79824     -4243.42324        24.70024                                                                
G06  22735159.47725    -68881.78525       746.94425        33.10025  22735104.91424    -59156.54324       557.81024        27.90024
E33  24032095.82617  -2458469.55817      -985.00917        46.00017  24032094.62706   2071321.41206      -735.60106        37.80006
R14  20444832.03707 108992591.53507      -367.49407        44.00007
C21  22495365.38327    -41707.61727        81.64327        44.90027  22495372.87725   2051150.35925        54.46225        33.10025
E29  23785379.22507  -1832724.85707      -776.02307        44.40007  23785389.11806  -1376303.45306      -579.33306        38.90006
C26  24203122.32706   -175822.27906      2554.57706        41.30006  24203136.41723   -869453.74523      1919.01723        22.40023
E07  25981804.77116     74416.62616     -2247.03716        40.50016  25981826.65616   -741844.13716     -1678.15316        37.80016
C34  24803004.03826  -3774567.44526     -2417.47026        40.30026  24802942.28024  -1871309.05024     -1835.69824        24.50024
C06  38295822.55406    -37724.20906     -1255.86006        37.50006                                                                
C22  23517980.54116     65577.03016     -1902.71016        37.60016  23517913.38724  -3642088.11324     -1437.03724        27.70024
C09  37877977.52216  -1810191.09616      -936.18116        37.50016                                                                
R15  21315194.29806 113912092.57506      3096.18006        37.00006
R19  21840908.85315 116844302.78315     -3953.28515        34.80015
C13  40106568.40025     17693.93425     -1193.40725        35.20025                                                                
E26  25217238.66925  -4483691.98825     -3242.40425        33.40025  25217246.46424  -3638394.61624     -2422.43624        26.40024
R03  22877628.34725 122475910.93925     -2480.34825        34.50025
C16  39685138.15125     35619.03725     -1349.28825        32.50025                                                                
R05  21370360.90725 114246988.07925      1058.56525        30.50025
R04  20516668.60625 109876007.00125      -893.24125        33.10025
R20  21504088.13024 115002187.22024      -651.44024        27.30024
E19  24838516.25324  -4791170.62824       724.20324        24.70024                                                                
E30  27389884.07824  -3523470.00924      -180.42824        23.80024                                                                
E21  28362705.20823  -2589785.45523      1973.48123        23.30023                                                                
R13  23658285.51023 126344074.81923     -3907.24523        22.80023
E12  26862369.26923  -2826385.01323      1589.29223        18.90023                                                                
E27  26837897.21025  -4122938.72925      1565.98825        30.50025  26837830.65624   -970814.00124      1165.17124        25.80024
> 2025 10 05 08 41 36.0000116  0 34                      
G01  23329355.32326    196718.83826     -4065.73026        39.00026  23329197.63313    138700.48413     -3035.87713        20.00013
G07  22416862.32926   -155749.82426      1961.55126        36.60026                                                                
G06  22735029.36725    -69621.65025       737.47825        33.00025  22734991.29324    -59709.00524       550.82524        28.40024
G16  23023690.83125   -119602.33525       939.80925        31.90025                                                                
G26  23942894.07925     57831.21125     -1755.80425        34.70025  23942799.34525  -2565249.10425     -1324.89625        31.00025
G04  21059952.79825     40779.77425     -1431.16325        30.50025  21059955.19624     22617.70524     -1064.11724        28.20024
G03  20693076.68124     57493.76024     -1918.16324        27.80024  20693031.71224  -3347409.23224     -1434.01924        24.70024
G30  25077595.94224  -1141120.08224      2839.80624        26.10024                                                                
G31  24903743.29724     94994.52224     -4244.25024        24.60024                                                                
G09  21053806.15326    -65957.15026       506.80926        36.20026  21053800.45725    -56862.86925       380.14725        30.00025
R14  20444905.78607 108992994.25307      -373.52707        44.40007
E29  23785529.42107  -1831945.05007      -780.56007        44.30007  23785534.51706  -1375720.94806      -583.21106        38.40006
C21  22495353.09117    -41783.03417        73.92017        44.80017  22495354.89025   2051094.62625        56.44625        32.10025
C26  24202666.04306   -178372.39706      2549.11306        41.10006  24202651.05323   -871374.92323      1933.32323        21.80023
E07  25982239.77006     76668.03906     -2252.14506        40.40006  25982253.86006   -740162.75306     -1682.06406        40.70006
C22  23518328.00006     67484.40606     -1908.34606        37.80006  23518274.93724  -3640653.82624     -1433.01224        27.50024
C06  38296056.99106    -36464.20006     -1260.87106        38.10006                                                                
C34  24803487.60326  -3772143.65626     -2424.89926        39.90026  24803402.16224  -1869472.88824     -1837.55524        24.10024
C09  37878155.59916  -1809251.16216      -940.68916        37.50016                                                                
R15  21314620.79526 113909038.02826      3086.85926        37.00026
R19  21841636.75025 116848207.07325     -3956.05925        34.80025
R03  22878086.13115 122478371.12015     -2484.73315        34.20015
C13  40106788.14825     18894.60425     -1202.89325        34.90025                                                                
E33  24032283.19727  -2457481.43127      -988.63927        45.00027  24032282.59726   2072060.72426      -740.40826        37.20026
C16  39685396.57225     36968.24225     -1348.34625        32.20025                                                                
E27  26837600.11625  -4124499.41025      1559.72725        30.50025  26837540.75724   -971964.59824      1144.16224        25.40024
R05  21370142.95825 114245832.37425      1053.13225        30.40025
R04  20516847.28225 109876973.95525      -905.76725        32.30025
R20  21504179.56624 115002686.85424      -657.79824        27.40024
E19  24838386.14324  -4791890.71824       720.61324        24.60024                                                                
E21  28362371.53923  -2591755.73023      1970.25623        23.40023                                                                
R13  23659152.21023 126348713.39423     -3906.96223        22.70023
E12  26862036.19923  -2827976.29523      1593.99223        18.90023                                                                
E26  25217841.25215  -4480446.53815     -3246.02115        33.40015  25217861.63824  -3635970.37524     -2425.14224        26.00024
> 2025 10 05 08 41 37.0000119  0 36                      
G01  23330078.42316    200790.05616     -4074.41416        38.90016  23330057.13824    141741.07124     -3043.38524        26.10024
G07  22416458.50926   -157706.70026      1954.17626        36.60026                                                                
G09  21053691.33316    -66456.87116       495.78016        36.00016  21053682.63924    -57233.16824       365.96024        29.20024
G16  23023472.58225   -120533.61625       927.62125        31.90025                                                                
G26  23943206.46325     59592.21425     -1764.59425        33.90025  23943114.42725  -2563926.38125     -1323.03325        30.20025
G04  21060219.61325     42215.00325     -1438.16425        30.40025  21060210.32024     23688.18824     -1074.41224        27.90024
G03  20693413.64824     59415.97824     -1924.66424        27.80024  20693376.77324  -3345971.97924     -1439.25824        25.00024
G30  25077050.02024  -1143953.93524      2830.82624        26.00024                                                                
G31  24904513.76424     99248.40124     -4258.45524        24.60024                                                                
G06  22734882.46825    -70354.47825       729.31025        33.00025  22734801.82424    -60254.70324       542.31524        28.20024
R14  20444965.44507 108993418.33107      -384.46607        44.90007
E29  23785655.03407  -1831157.65307      -791.19307        44.20007  23785664.62706  -1375133.06306      -590.57406        38.40006
C21  22495322.21207    -41849.81607        62.46407        44.50007  22495323.11225   2051046.34125        44.56025        31.60025
E07  25982651.98406     78927.08006     -2262.85306        40.70006  25982663.97606   -738475.84606     -1689.66906        39.90006
C26  24202148.90106   -180915.36806      2539.39706        40.90006  24202146.20323   -873290.86223      1913.31923        21.40023
C22  23518671.26306     69398.86106     -1917.99406        38.30006  23518614.90224  -3639219.39524     -1434.50224        26.90024
C06  38296282.13626    -35195.90026     -1272.44626        38.10026                                                                
C34  24803939.39026  -3769710.61326     -2437.67126        39.60026  24803849.15324  -1867634.20624     -1839.94224        23.60024
C09  37878318.68606  -1808303.75706      -951.14006        37.40006                                                                
R15  21313993.03026 113905788.50526      3080.50926        36.90026
R19  21842398.22225 116852385.37825     -3962.83725        34.80025
R03  22878539.41715 122480903.30915     -2493.89815        34.00015
E26  25218445.93315  -4477192.88715     -3257.75115        33.40015  25218406.36124  -3633537.26724     -2437.54124        25.20024
C13  40107001.00125     20104.37825     -1214.32525        34.60025                                                                
C16  39685657.99125     38326.26425     -1362.42925        32.00025                                                                
E27  26837284.43525  -4126048.49725      1543.29025        30.40025  26837219.97924   -973124.22824      1164.14724        25.10024
R05  21369888.73425 114244579.54125      1042.52825        30.30025
R04  20516964.20125 109877705.68725      -912.21625        31.70025
R20  21504270.70324 115003279.06924      -677.97924        27.60024
E30  27390030.97624  -5365101.50124      -194.86424        23.90024                                                                
E19  24838232.05024  -4792599.60524       703.28524        24.50024                                                                
R21  24049738.61224 128705296.72324      2109.45624        23.70024
R13  23659808.45523 126352323.55623     -3914.84423        22.70023
E12  26861727.41323  -2829565.76623      1588.56423        19.20023                                                                
E21  28362128.40724  -5404840.59624      1960.09224        24.30024                                                                
E33                                                                  24032452.27926   2072807.29926      -750.20626        36.60026
> 2025 10 05 08 41 38.0000123  0 35                      
G01  23330823.40706    204866.87206     -4079.61406        38.80006  23330760.75024    144785.35324     -3046.13024        25.00024
G07  22416090.36426   -159652.07926      1939.63026        36.50026                                                                
G06  22734752.65825    -71081.14025       723.57925        33.50025  22734666.31824    -60796.55924       539.93524        27.60024
G16  23023312.19325   -121458.32025       921.41425        31.80025                                                                
G04  21060495.72225     43657.59825     -1446.27725        30.20025  21060494.82324     24767.72824     -1084.06824        27.40024
G26  23943570.71125     61361.25125     -1773.05425        33.20025  23943460.98724  -2562601.78324     -1325.53424        29.40024
G30  25076520.28624  -1146778.16824      2819.42124        25.80024                                                                
G31  24905328.00024    103511.15124     -4267.18224        24.60024                                                                
G03  20693771.60024     61345.05324     -1932.50124        28.20024  20693754.81224  -3344530.14224     -1444.12924        24.60024
G09  21053603.19416    -66950.05416       489.91416        35.80016  21053603.19424    -57596.97224       360.55624        28.80024
R14  20445048.48707 108993808.08407      -391.03607        44.90007
E29  23785816.02207  -1830364.47807      -796.06307        44.10007  23785825.91506  -1374540.72306      -594.56806        38.30006
C21  22495316.81607    -41911.63807        59.34307        44.30007  22495322.21225   2051002.38425        41.79425        30.80025
E07  25983088.18206     81191.78006     -2267.53006        41.30006  25983104.97106   -736784.70606     -1693.25506        39.40006
C26  24201668.03426   -183452.43126      2534.10826        40.70026  24201672.83123   -875199.34023      1904.74623        21.00023
C22  23519054.09826     71320.04126     -1924.54226        38.30026  23518995.63814  -3637773.52714     -1451.58614        26.40014
C09  37878510.55306  -1807350.50606      -956.17406        37.50006                                                                
C06  38296542.35526    -33922.06526     -1276.60126        37.90026                                                                
C34  24804401.37026  -3767271.29526     -2442.45326        39.20026  24804327.62123  -1865792.57923     -1843.09723        23.20023
R15  21313458.20026 113902877.69826      3074.57126        36.90026
R19  21843182.77925 116856529.24225     -3974.30425        34.70025
R03  22879036.17315 122483510.55315     -2498.92415        33.90015
E26  25219064.70515  -4473933.83515     -3261.75115        33.30015  25219029.92924  -3631101.69924     -2436.79824        24.50024
C13  40107250.42825     21319.24425     -1217.41325        34.30025                                                                
C16  39685930.50225     39692.10725     -1369.75325        31.70025                                                                
E33  24032651.64126  -2455472.94426     -1010.02926        39.70026  24032652.54126   2073557.44326      -751.92926        36.00026
R05  21369716.35325 114243604.34725      1036.91825        30.20025
E27  26836992.73725  -4127589.50325      1536.96525        30.30025  26836937.57524   -974279.21124      1152.65824        24.80024
R04  20517130.88625 109878546.21525      -917.11325        31.30025
R20  21504453.87624 115004206.41224      -677.16724        27.60024
E21  28361730.28324  -5406798.48124      1957.88424        27.10024                                                                
E30  27390106.52424  -5364899.64124      -201.86024        25.10024  27390123.91223  -4013795.83623      -153.01523        23.00023
E19  24838115.43024  -4793292.65524       685.13024        24.50024                                                                
R21  24049352.18024 128703175.07024      2103.46424        23.70024
R13  23660553.14023 126356246.21523     -3923.08323        22.70023
> 2025 10 05 08 41 39.0000126  0 35                      
G01  23331606.46506    208947.77006     -4082.93906        38.80006  23331544.70824    147833.19324     -3049.61724        24.30024
G07  22415745.90226   -161594.77926      1941.36026        36.50026                                                                
G09  21053495.86816    -67440.98216       489.79916        35.70016  21053503.36325    -57962.24725       366.01025        31.00025
G16  23023150.60425   -122377.64925       916.64225        32.10025                                                                
G04  21060769.13325     45100.80725     -1443.51625        30.10025  21060775.72824     25854.49424     -1090.38024        27.00024
G03  20694128.95324     63276.23924     -1932.24124        28.50024  20694122.35724  -3343087.19624     -1443.50024        24.50024
G30  25075967.46924  -1149600.47724      2821.34624        25.70024  25075902.11423  -3747775.84423      2128.68423        18.30023
G31  24906135.04124    107778.84124     -4270.16124        24.60024                                                                
G06  22734588.37225    -71805.95425       723.89025        33.70025  22734523.01724    -61338.32624       541.72324        27.00024
G26  23943861.80925     63132.56725     -1772.45525        32.60025  23943797.05424  -2561274.10324     -1329.22124        28.60024
E29  23785963.52007  -1829567.00607      -799.62007        44.10007  23785975.81206  -1373945.13106      -597.21806        38.20006
C21  22495301.82727    -41969.28627        55.56027        44.00027  22495301.22725   2050957.68925        45.06325        30.30025
R14  20445124.33517 108994219.95617      -394.06417        44.60017
E07  25983514.18707     83460.59607     -2270.87307        41.50007  25983534.57306   -735090.41306     -1695.87006        39.10006
C22  23519385.06926     73244.62826     -1926.29026        38.20026  23519334.10424  -3636321.72024     -1454.77624        25.20024
C09  37878688.03006  -1806393.28006      -959.21306        37.80006                                                                
C34  24804893.33026  -3764828.89426     -2443.94326        38.80026  24804794.99823  -1863947.16723     -1847.30523        22.70023
R15  21312858.01526 113899678.64326      3073.22526        36.80026
C26  24201230.63726   -185985.13526      2530.52326        40.10026  24201196.76023   -877111.73723      1914.35623        20.70023
R19  21843890.88925 116860326.37525     -3971.82625        34.60025
E26  25219702.06405  -4470669.83105     -3266.48105        33.40005  25219650.19924  -3628663.23124     -2439.91624        24.00024
R03  22879496.95425 122485983.76225     -2499.40725        33.90025
C06  38296828.95726    -32647.76626     -1274.53226        37.10026                                                                
C13  40107473.77425     22536.11125     -1217.86625        34.00025                                                                
R05  21369487.91125 114242391.27425      1043.29425        30.20025
E27  26836712.13125  -4129128.14325      1537.45625        30.10025  26836641.38024   -975436.13724      1157.89824        24.60024
R04  20517306.86425 109879495.54625      -917.71525        31.00025
C16  39686164.64025     41062.00725     -1371.92925        31.50025                                                                
R20  21504527.92524 115004609.63624      -681.32424        27.60024
E30  27390156.58924  -5364689.89424      -213.69124        26.30024  27390164.98324  -4013640.41824      -155.41824        24.40024
E21  28361392.71624  -5408756.76324      1958.48024        27.00024                                                                
E19  24837969.43224  -4793980.42724       685.13324        24.50024                                                                
R21  24048990.03124 128701246.35524      2088.99124        24.00024
R13  23661259.15123 126360024.46623     -3924.79523        23.00023
E33  24032854.30126  -2454466.60226     -1006.34226        38.30026  24032841.41025   2074305.35225      -746.79125        35.30025
> 2025 10 05 08 41 40.0000130  0 35                      
G01  23332431.19406    213029.70106     -4082.44406        38.80006  23332335.56024    150875.15724     -3039.02524        23.70024
G07  22415413.73226   -163540.63726      1947.43626        36.50026                                                                
G09  21053414.02506    -67930.25106       488.44106        35.70006  21053423.01925    -58327.65225       365.47125        32.30025
G06  22734458.56225    -72528.87325       721.97025        33.70025  22734442.37314    -61876.57714       536.49214        27.30014
G16  23022975.82525   -123290.30825       909.32325        32.20025                                                                
G03  20694514.48624     65209.70224     -1934.60124        28.80024  20694500.69514  -3341642.34814     -1445.79714        25.40014
G31  24906951.37624    112047.22524     -4268.72724        24.80024                                                                
G30  25075454.82424  -1152423.21924      2822.95724        25.50024  25075366.38522  -3749845.76822      2004.10222        15.30022
G04  21061079.41825     46548.49125     -1449.92025        30.00025  21061055.43524     26939.69524     -1084.41724        26.60024
G26  23944212.56725     64902.44725     -1769.16025        32.00025                                                                
E29  23786133.20307  -1828769.28007      -797.85207        44.00007  23786137.99906  -1373349.48706      -595.67006        38.10006
C21  22495302.12627    -42026.86327        57.54127        43.70027  22495307.82225   2050914.92725        41.79725        31.20025
E07  25983960.87807     85729.19507     -2268.48907        41.50007  25983976.76706   -733396.34506     -1693.95406        38.80006
R14  20445217.87007 108994666.90507      -393.25607        44.20007
C22  23519797.28326     75173.98826     -1931.74626        38.10026  23519713.04124  -3634868.25824     -1454.29024        24.30024
C09  37878886.79216  -1805435.35016      -958.28016        37.80016                                                                
R15  21312301.90016 113896653.90616      3070.43416        36.70016
C26  24200787.84316   -188516.47816      2530.66216        39.40016  24200722.48823   -879024.75223      1913.32423        20.60023
R19  21844612.48915 116864132.69815     -3975.11215        34.60015
C34  24805383.79026  -3762385.23226     -2444.29126        38.20026  24805275.86523  -1862104.69123     -1841.00723        22.20023
E26  25220278.26505  -4467405.98905     -3263.75905        33.80005  25220281.26324  -3626224.72224     -2438.52924        23.50024
R03  22880003.30325 122488642.32325     -2505.81925        33.80025
C06  38297073.88726    -31371.60926     -1277.08526        36.40026                                                                
C13  40107765.17225     23754.66625     -1219.39925        33.70025                                                                
R05  21369280.75525 114241230.97925      1035.86825        30.10025
R04  20517493.03525 109880440.27725      -922.87025        30.70025
E27  26836403.94425  -4130667.65725      1539.95025        30.00025  26836341.58724   -976589.52424      1151.61724        24.30024
E33  24033040.17226  -2453456.45026     -1012.05626        36.80026  24033039.57325   2075051.68025      -745.53825        34.60025
R20  21504671.82524 115005326.56424      -680.01424        27.60024
E30  27390191.66524  -5364484.17324      -203.70824        26.70024  27390218.64624  -4013483.86324      -157.12324        24.40024
C16  39686464.43225     42432.59325     -1370.92925        30.60025                                                                
E21  28361025.17124  -5410712.19824      1954.01124        26.70024                                                                
E19  24837845.61724  -4794669.86324       690.26924        24.60024                                                                
R21  24048572.72024 128698959.30724      2088.22124        24.30024
R13  23661997.84023 126363916.56223     -3921.70723        23.30023
> 2025 10 05 08 41 41.0000133  0 34                      
G09  21053304.00117    -68420.59717       490.88417        43.30017  21053309.99725    -58694.86225       368.11125        34.20025
G01  23333180.07626    217111.47926     -4081.70126        38.80026  23333092.23623    153921.01823     -3047.80823        23.20023
G03  20694848.15525     67143.44725     -1933.88525        32.40025  20694849.35424  -3340197.75524     -1444.46724        26.80024
G07  22415009.01226   -165486.33926      1945.62526        36.40026                                                                
G06  22734316.16015    -73253.92415       726.11715        33.60015  22734235.81624    -62416.01124       540.02624        28.70024
G16  23022793.55225   -124210.97325       924.66925        32.30025                                                                
G04  21061320.15125     47991.65325     -1440.90225        29.90025  21061308.16024     28025.01924     -1085.38524        26.20024
G31  24907749.42424    116315.15824     -4267.70724        24.80024                                                                
G30  25074896.31124  -1155247.23824      2824.65624        25.40024  25074828.55722  -3751844.50122      2041.25922        15.10022
G26  23944560.02625     66672.65525     -1770.37225        31.40025                                                                
E29  23786262.41307  -1827973.21607      -795.23307        44.00007  23786269.60806  -1372754.97106      -593.95206        38.00006
C21  22495270.94817    -42085.89417        59.75917        43.50017  22495275.14525   2050870.36625        45.46025        30.60025
E07  25984383.88507     87996.39507     -2266.50107        41.60007  25984388.38206   -731703.29406     -1692.54206        38.70006
R14  20445274.23107 108995071.90907      -391.51107        43.60007
C22  23520135.74926     77098.86626     -1922.63726        38.00026  23520064.69824  -3633417.91424     -1448.78424        23.60024
C09  37879060.97226  -1804478.72726      -955.97026        37.70026                                                                
R15  21311698.71806 113893537.41506      3074.89606        36.70006
C26  24200201.44906   -191050.04906      2534.68406        38.90006  24200215.83923   -880941.14623      1918.08223        20.60023
R19  21845344.88225 116868156.39125     -3976.59825        34.60025
E26  25220849.07025  -4464143.28925     -3262.12825        34.10025  25220885.34423  -3623787.34323     -2436.81223        23.10023
R03  22880503.65725 122491425.72825     -2498.27125        33.60025
C06  38297324.21426    -30096.85926     -1274.04626        35.80026                                                                
R05  21369137.45425 114240570.90925      1039.17425        30.00025
R04  20517660.02025 109881440.94025      -916.48525        30.40025
E27  26836121.83925  -4132207.68725      1540.28925        29.90025  26836025.60624   -977742.79524      1153.21224        23.90024
R20  21504812.42824 115006184.27924      -683.73124        27.60024
E33  24033216.75025  -2452445.10825     -1011.93525        35.40025  24033207.15725   2075794.21825      -740.64225        33.80025
C16  39686710.56225     43797.95125     -1362.74325        30.00025                                                                
E30  27390218.04724  -5364280.16324      -203.15424        26.70024  27390231.83724  -4013330.81824      -151.28924        25.10024
E21  28360640.53724  -5412667.79024      1955.66924        26.50024                                                                
E19  24837735.29424  -4795366.11124       699.65424        24.90024                                                                
R21  24048238.75124 128697277.90024      2091.32424        24.30024
R13  23662700.55324 126367775.04024     -3917.99524        23.50024
C34                                                                  24805728.85123  -1860263.27523     -1840.88623        21.70023
> 2025 10 05 08 41 42.0000137  0 33                      
G09  21053217.66107    -68913.69307       494.47107        43.30007  21053225.15616    -59063.02016       368.63316        38.20016
G01  23333958.33726    221187.24726     -4072.76226        38.70026  23333883.08923    156965.41723     -3043.66723        22.90023
G03  20695219.59826     69073.16626     -1927.70626        36.50026  20695227.69225  -3338755.88725     -1440.50425        29.50025
G07  22414635.17126   -167432.24426      1946.00626        36.40026                                                                
G06  22734195.04405    -73979.80205       726.29205        33.60005  22734108.10425    -62960.12325       546.45025        30.00025
G16  23022602.88425   -125136.99025       928.69225        32.30025                                                                
G04  21061578.57325     49432.98325     -1440.41425        29.80025  21061590.26424     29104.07824     -1075.92624        26.00024
G31  24908582.54724    120580.96724     -4264.74524        24.70024                                                                
G30  25074367.47724  -1158072.34524      2825.65124        25.20024  25074333.30022  -3753886.45322      2063.55922        13.60022
G26  23944911.98225     68442.73725     -1770.01825        30.90025                                                                
E29  23786421.60307  -1827179.70107      -792.24007        44.00007  23786429.99706  -1372162.42206      -591.56606        38.20006
C21  22495271.24807    -42147.26307        62.53807        43.20007  22495274.24625   2050823.75025        47.64325        31.60025
E07  25984822.18207     90260.66807     -2262.80707        41.90007  25984829.07706   -730012.44206     -1689.75206        40.60006
R14  20445352.47707 108995436.48807      -390.14507        43.00007
C22  23520479.31116     79021.94616     -1922.18016        38.00016  23520463.12224  -3631974.86524     -1439.40224        26.10024
C26  24199750.86106   -193586.40606      2537.74806        38.40006  24199741.86723   -882854.34323      1911.59823        20.60023
R19  21846102.75825 116872157.88925     -3968.98025        34.80025
E26  25221536.79325  -4460883.30925     -3258.61825        34.10025  25221452.55223  -3621353.54623     -2432.00623        22.40023
R03  22880947.05025 122493747.27725     -2493.84525        33.50025
C34  24806293.96025  -3757497.76025     -2439.56925        34.60025  24806292.76123  -1858425.58823     -1835.82223        23.00023
C06  38297568.24525    -28827.41125     -1266.79625        35.20025                                                                
R05  21368979.46325 114239673.72525      1043.00025        30.00025
E27  26835835.53825  -4133753.66425      1548.94925        29.80025  26835739.00424   -978901.82724      1161.91224        23.50024
R04  20517802.72125 109882151.21425      -916.05725        30.20025
E19  24837622.57224  -4796063.12724       697.40024        27.30024                                                                
R20  21504986.00824 115007059.59024      -681.07924        27.80024
C16  39686952.19525     45160.13425     -1360.59625        29.60025                                                                
E33  24033411.61525  -2451440.31425     -1001.52125        34.20025  24033404.72025   2076533.15725      -737.14125        33.10025
E30  27390258.51924  -5364075.48124      -205.01824        26.70024  27390281.60324  -4013178.72924      -151.61124        24.90024
C13  40108213.36225     26204.52025     -1224.14225        29.70025                                                                
E21  28360247.80924  -5414625.56424      1958.86424        26.30024                                                                
R21  24047847.22224 128695130.20124      2097.98724        24.80024
R13  23663458.72824 126371770.28424     -3906.92324        23.90024
> 2025 10 05 08 41 43.0000140  0 35                      
G09  21053126.22407    -69404.99407       490.40307        43.20007  21053130.72106    -59429.82606       366.13006        38.00006
G01  23334717.71116    225264.86116     -4078.53616        38.70016  23334653.55524    160011.72324     -3047.25924        25.10024
G03  20695587.74316     71006.48216     -1935.11416        37.50016  20695594.33815  -3337311.25215     -1446.01815        32.10015
G06  22734007.37425    -74705.31225       725.32625        33.60025  22733966.30315    -63502.86615       542.05915        32.30015
G16  23022416.41325   -126057.93825       918.41425        32.30025                                                                
G04  21061852.88325     50873.97225     -1440.81725        29.80025  21061858.27924     30180.07324     -1074.46324        25.70024
G26  23945230.96225     70211.47625     -1768.06725        30.50025                                                                
G31  24909398.28224    124842.30624     -4259.10224        24.60024                                                                
G30  25073803.26724  -1160901.70924      2831.49124        25.00024                                                                
G07  22414255.63426   -169378.92726      1947.07126        36.30026                                                                
E29  23786570.90007  -1826384.43107      -796.14807        44.20007  23786580.19306  -1371568.54306      -594.54306        38.10006
C21  22495255.05907    -42207.14807        59.14307        43.10007  22495261.35525   2050779.09425        43.67525        31.50025
E07  25985242.49107     92526.88007     -2267.18207        41.90007  25985258.08006   -728320.21506     -1692.91306        40.00006
R14  20445413.93407 108995772.08707      -394.92207        42.50007
C22  23520830.06806     80948.32206     -1928.02406        38.30006  23520839.36215  -3630523.28615     -1455.84415        31.40015
R15  21310387.12626 113886484.03726      3069.45326        36.80026
C26  24199290.97916   -196120.78116      2533.38416        38.00016  24199249.00924   -884763.97424      1907.84824        24.40024
R19  21846839.94725 116876108.86825     -3975.14025        35.00025
E26  25222193.63915  -4457620.79115     -3263.78715        34.00015  25222072.82223  -3618922.26823     -2430.01823        22.00023
R03  22881373.35525 122496037.42325     -2499.42725        33.40025
C34  24806767.33215  -3755057.04515     -2440.71415        34.20015  24806761.33624  -1856590.20624     -1834.22924        23.50024
C06  38297822.46925    -27554.45025     -1274.71725        34.60025                                                                
C09  37879442.90725  -1802578.26325      -954.09325        33.70025                                                                
R05  21368815.47725 114238804.84425      1039.01025        29.90025
E27  26835540.84225  -4135297.65125      1542.99225        29.70025                                                                
R04  20517995.48725 109883190.95225      -913.00025        30.10025
C16  39687231.60125     46522.33025     -1362.20225        29.50025                                                                
E19  24837490.66324  -4796759.22024       695.63124        28.70024                                                                
R20  21505104.42624 115007700.77124      -682.96624        28.20024
E33  24033623.56925  -2450438.92225      -999.68925        33.10025  24033590.59125   2077271.77525      -738.45725        32.30025
E30  27390282.20224  -5363872.45924      -202.19224        26.70024  27390304.08724  -4013031.82524      -144.31224        24.70024
C13  40108426.51424     27425.62924     -1221.10924        29.10024                                                                
E21  28359870.07024  -5416585.20324      1960.57124        26.10024  28359925.53223  -4052314.86423      1468.17123        19.50023
R21  24047375.64824 128692615.75124      2091.87724        24.90024
R13  23664162.34124 126375535.54524     -3915.38224        23.90024
> 2025 10 05 08 41 44.0000144  0 36                      
G09  21053041.98217    -69896.07817       490.97617        43.10017  21053046.47906    -59796.48806       366.58906        37.80006
G03  20695966.68026     72940.78226     -1934.79126        38.60026  20695971.47706  -3335866.13306     -1445.36106        41.10006
G01  23335525.95226    229342.98526     -4078.37826        38.70026  23335445.60724    163060.26024     -3049.65024        24.70024
G07  22413880.59326   -171320.89226      1939.60526        36.10026                                                                
G06  22733843.98725    -75432.73125       728.37225        33.60025  22733837.99125    -64046.46725       544.02925        35.40025
G16  23022264.71825   -126977.19525       918.41125        32.20025                                                                
G04  21062125.99425     52317.60425     -1444.95425        29.80025  21062139.48424     31264.72224     -1088.97524        25.40024
G26  23945583.81725     71982.49625     -1772.16025        30.10025                                                                
G31  24910211.32024    129103.23024     -4260.71524        24.60024                                                                
G30  25073292.42124  -1163732.86424      2832.05024        24.80024                                                                
E29  23786728.59007  -1825589.14707      -795.29007        44.30007  23786741.18206  -1370974.60906      -593.96106        37.80006
C21  22495251.76107    -42267.48407        60.56107        42.90007  22495260.75525   2050734.97925        43.84625        31.30025
E07  25985758.73417     94791.03517     -2263.12517        41.90017  25985699.67406   -726628.05706     -1692.12306        39.60006
R14  20445508.66907 108996225.14307      -394.75907        42.20007
C22  23521223.99506     82874.69106     -1926.36406        39.00006  23521218.29925  -3629072.31425     -1450.66725        31.30025
C26  24198823.60326   -198656.42526      2536.27726        37.70026  24198775.93624   -886673.24724      1909.09324        23.80024
R19  21847580.43515 116880016.98815     -3973.72715        35.00015
R15  21309846.60026 113883542.63926      3074.75726        36.50026
E26  25222809.41205  -4454358.24905     -3262.55305        34.00005  25222700.88823  -3616491.42123     -2430.63023        21.60023
R03  22881839.83225 122498481.52125     -2493.40325        33.30025
C34  24807233.51015  -3752615.56715     -2441.85815        33.90015  24807239.80524  -1854755.26924     -1834.71524        23.50024
C06  38298070.69725    -26280.31825     -1274.71825        34.10025                                                                
E27  26835235.65325  -4136842.67125      1545.53525        29.70025                                                                
R05  21368617.31425 114237691.97325      1038.05725        29.80025
C16  39687496.91824     47887.04724     -1365.97724        29.40024                                                                
R04  20518162.47225 109884033.01425      -918.07125        29.90025
C09  37879651.26325  -1801623.91525      -954.34725        33.10025                                                                
E19  24837371.34624  -4797451.44024       690.28324        28.60024                                                                
R20  21505203.95724 115008180.51024      -685.98624        28.40024
E33  24033831.32525  -2449435.37925     -1004.61825        32.20025  24033791.45225   2078027.12125      -763.71025        31.50025
C13  40108681.93724     28645.50624     -1219.26024        28.60024                                                                
E21  28359467.44924  -5418544.15524      1958.60824        25.90024  28359557.08723  -4053781.15323      1465.34623        19.70023
R21  24047007.50324 128690592.09424      2089.37424        24.90024
R13  23664899.53124 126379419.23824     -3911.81924        23.90024
E12  26859642.05723  -5804185.65323      1583.30023        19.10023                                                                
E30                                                                  27390359.84823  -4012880.10123      -154.13323        21.70023
> 2025 10 05 08 41 45.0000148  0 35                      
G09  21052957.74117    -70387.19317       491.13117        43.00017  21052964.33606    -60163.54106       367.24806        37.00006
G06  22733714.17726    -76159.07426       725.80526        40.00026  22733709.98026    -64589.72426       543.08526        37.00026
G01  23336321.90126    233422.69926     -4080.50726        38.60026  23336234.96124    166108.37124     -3047.89824        24.60024
G07  22413519.64326   -173263.07326      1942.28826        36.00026                                                                
G16  23022080.34525   -127897.60225       920.98125        32.20025                                                                
G04  21062417.09225     53758.63025     -1439.72225        30.10025  21062422.48824     32342.44324     -1074.25824        25.10024
G26  23945931.87625     73754.48825     -1772.47625        29.70025                                                                
G31  24911017.46124    133364.51624     -4261.46424        24.50024                                                                
G30  25072732.70824  -1166563.73124      2830.72224        24.70024                                                                
G03  20696344.41916     74875.54316     -1934.99116        39.30016  20696350.41506  -3334421.18906     -1444.85706        40.20006
E29  23786896.47407  -1824794.17807      -794.81207        44.60007  23786902.77006  -1370381.04906      -593.37206        37.70006
C21  22495255.95827    -42326.72027        58.68727        42.80027  22495254.75925   2050688.05225        48.33325        30.70025
R14  20445586.01517 108996582.09417      -394.73117        42.00017
C22  23521602.63326     84800.03426     -1924.83026        40.00026  23521600.53525  -3627620.18325     -1452.71225        30.80025
C26  24198334.34226   -201189.24326      2531.40426        37.40026  24198299.26623   -888584.53523      1912.29423        23.30023
R19  21848328.41715 116883964.14215     -3975.81315        35.30015
E26  25223454.86625  -4451095.69425     -3262.56025        34.40025  25223336.14823  -3614055.01523     -2439.18423        21.30023
C34  24807712.87825  -3750173.85025     -2441.83625        33.70025  24807719.17313  -1852912.68413     -1846.40713        23.40013
R03  22882321.29925 122501003.75225     -2497.96325        33.20025
C06  38298318.62625    -25005.70625     -1274.85125        33.60025                                                                
E07  25986194.63226     97054.56826     -2263.22126        40.50026  25986140.96906   -724936.06206     -1691.91306        39.20006
R05  21368463.22125 114236814.67825      1040.14125        29.80025
C16  39687778.72324     49252.72824     -1366.16124        29.40024                                                                
E27  26834920.57125  -4138381.65925      1535.97225        29.70025                                                                
R04  20518357.03725 109885020.65125      -916.72925        29.80025
E19  24837211.25624  -4798142.97024       691.18624        28.50024                                                                
R20  21505374.83924 115009038.98824      -684.04024        28.40024
C09  37879827.54125  -1800664.70325      -961.64325        32.30025                                                                
E33  24033988.11625  -2448429.87225     -1006.49025        31.40025  24033998.30925   2078793.64725      -772.11625        30.70025
C13  40108904.68324     29862.46824     -1215.50324        28.30024                                                                
E21  28359112.19524  -5420502.27224      1957.69824        25.70024  28359197.03623  -4055249.40223      1469.23023        20.10023
R21  24046640.25724 128688571.49724      2085.55724        24.90024
R13  23665685.28724 126383560.41624     -3909.49924        23.80024
E12  26859296.09623  -5805766.71223      1581.05823        19.10023                                                                
E30                                                                  27390402.41923  -4012730.86023      -148.00023        20.90023
> 2025 10 05 08 41 46.0000151  0 35                      
G09  21052856.71117    -70877.22917       489.49617        42.90017  21052866.60426    -60529.15726       364.89726        36.10026
G03  20696707.16816     76811.63616     -1936.75916        39.80016  20696717.36106  -3332975.13806     -1446.60306        39.50006
G01  23337056.69226    237502.40626     -4079.70326        38.50026  23337004.52824    169151.60324     -3040.79124        24.20024
G07  22413171.28426   -175207.46526      1945.49726        35.90026                                                                
G16  23021916.35925   -128815.51525       916.66625        32.10025                                                                
G04  21062695.00025     55200.98025     -1443.01325        30.60025  21062688.10424     33418.09624     -1074.61824        25.00024
G26  23946301.82024     75529.07924     -1775.89024        29.40024                                                                
G31  24911811.91124    137628.92924     -4265.97624        24.40024                                                                
G30  25072182.88924  -1169388.92324      2822.35424        24.60024                                                                
G06  22733594.56026    -76882.22326       721.55326        39.90026  22733569.07826    -65131.47726       541.00026        36.70026
E29  23787049.06907  -1823997.80107      -797.08107        44.80007  23787052.06706  -1369786.43206      -595.14506        37.00006
C21  22495234.67317    -42385.28817        58.23417        42.70017  22495245.16625   2050642.72225        44.53025        30.50025
R14  20445664.56107 108997009.98207      -396.97407        41.80007
C22  23521995.66116     86725.24016     -1925.13616        40.50016  23521967.78125  -3626166.47525     -1454.49525        30.20025
C26  24197841.78326   -203723.02026      2534.25526        37.10026  24197810.90423   -890498.87223      1915.86223        23.00023
R19  21849071.90206 116887950.33106     -3977.79006        35.70006
E26  25223971.40815  -4447832.01815     -3264.23615        34.40015  25223954.91923  -3611619.30623     -2435.36123        21.00023
R15  21308720.87925 113877481.70525      3067.26225        33.50025
C34  24808185.35125  -3747734.50525     -2438.15825        33.60025  24808180.85424  -1851069.18924     -1843.95024        24.40024
R03  22882795.27025 122503550.48825     -2507.62425        33.10025
C06  38298555.76225    -23731.21925     -1274.42525        33.30025                                                                
C16  39688041.34125     50615.36625     -1361.11825        29.80025                                                                
R05  21368284.84425 114235870.84125      1033.31525        29.80025
E27  26834665.74725  -4139918.45125      1535.69425        29.70025                                                                
R04  20518584.57925 109886248.11325      -914.89225        29.80025
R20  21505458.78124 115009498.06824      -686.07024        28.30024
E19  24837100.93324  -4798837.34524       695.79624        28.40024                                                                
C09  37880028.10225  -1799706.03725      -958.39425        31.60025                                                                
C13  40109166.10224     31079.37024     -1216.87324        28.10024                                                                
E33  24034210.86225  -2447420.45125     -1011.37725        30.70025  24034185.08025   2079548.50125      -749.01825        29.90025
R21  24046222.94624 128686347.99624      2096.94624        24.90024
R13  23666447.06024 126387637.41324     -3922.18924        23.70024
E12  26858954.03323  -5807345.57023      1577.75823        19.10023                                                                
E21  28358702.97824  -5422460.88824      1958.86624        25.60024  28358828.89123  -4056714.07423      1462.88323        20.70023
E07                                                                  25986572.07126   -723244.40126     -1691.49426        38.70026
> 2025 10 05 08 41 47.9999999  0 34                      
G09  21047899.94207    -71837.54307       473.66407        42.90007  21047911.33425    -61245.51725       354.36325        35.20025
G03  20692675.25906     80705.59806     -1954.82706        40.20006  20692681.55506  -3330067.61506     -1459.30606        39.90006
G06  22728535.56226    -78305.63926       706.19526        39.80026  22728523.27126    -66198.01826       534.04126        36.40026
G04  21058454.73516     58110.97816     -1462.77116        36.70016  21058464.02924     35592.50124     -1093.80424        26.20024
G01  23333868.09916    245684.48116     -4096.30416        38.20016  23333784.75724    175256.94424     -3058.60124        23.60024
G16  23016818.08825   -130631.61625       902.47725        32.20025                                                                
G26  23942170.08124     79093.51024     -1793.94724        28.70024                                                                
G31  24908692.87124    146173.67424     -4280.49724        24.30024                                                                
G30  25066367.21524  -1175011.26924      2800.31924        24.30024                                                                
G07  22407647.30926   -179068.02726      1917.07226        35.80026                                                                
E29  23782574.06707  -1822386.11007      -812.51107        45.00007  23782581.26206  -1368582.80406      -606.70806        36.50006
C21  22490445.78807    -42482.98707        41.95707        42.50007  22490454.48225   2050590.76725        12.66625        29.90025
C22  23517936.77126     90596.49526     -1941.79026        41.10026  23517931.07524  -3623246.69024     -1465.84124        29.10024
R14  20441046.85817 108997857.37417      -415.39717        41.50017
C26  24192126.53926   -208767.72126      2515.82726        36.70026  24192065.38223   -894305.62423      1891.90123        22.30023
R19  21845848.53426 116896260.25126     -3989.96026        35.60026
C34  24804456.53225  -3742823.12925     -2468.45725        34.60025  24804348.60724  -1847364.46324     -1859.35624        24.10024
E26  25220530.09015  -4441285.46315     -3281.26715        34.30015  25220426.96223  -3606727.80123     -2451.32023        20.60023
E07  25982728.73126    103861.40026     -2279.27926        35.80026  25982658.58026   -719846.19626     -1700.27426        37.60026
R03  22878924.35025 122508399.63125     -2514.29625        32.80025
C06  38294278.02325    -21159.01125     -1293.97625        32.70025                                                                
R04  20514084.09525 109887726.13325      -932.61325        29.70025
C16  39683779.49125     53371.79025     -1390.18725        29.70025                                                                
R05  21363015.69225 114233238.19925      1024.34125        29.70025
E27  26829319.24925  -4142980.35025      1518.44625        29.70025                                                                
C09  37875632.84525  -1797777.86925      -971.05725        30.60025                                                                
R20  21500902.83524 115010677.90924      -702.34924        28.20024
E19  24832051.22924  -4800206.86324       675.19124        28.20024  24832036.23923  -4326962.83223       505.68523        22.30023
C13  40104898.55624     33542.10624     -1242.80824        27.80024                                                                
R21  24040725.65224 128682492.88124      2067.90324        24.90024
R13  23663203.90523 126395826.55623     -3942.11123        23.40023
E12  26853623.12423  -5810470.97623      1546.28923        19.10023                                                                
E33  24029810.50825  -2445376.59125     -1028.29225        29.70025                                                                
E21                                                                  28353315.40823  -4059606.47723      1429.94423        19.10023
> 2025 10 05 08 41 49.0000003  0 35                      
G09  21047823.79507    -72303.62707       460.67107        43.10007  21047833.38825    -61594.45725       345.27525        35.00025
G03  20693055.69606     82667.75106     -1967.02606        40.40006  20693064.09006  -3328602.81306     -1468.93606        39.50006
G06  22728401.25526    -79007.04426       697.63226        39.70026  22728399.15726    -66723.16826       520.89626        36.30026
G01  23334662.84926    249787.96926     -4108.39526        38.00026  23334575.31023    178320.56723     -3067.61423        23.30023
G07  22407276.76526   -180984.93926      1913.52926        35.80026                                                                
G16  23016688.57825   -131522.35925       883.48225        32.20025                                                                
G26  23942543.92224     80894.09024     -1806.82924        28.40024                                                                
G31  24909554.47424    150462.41224     -4294.88824        24.30024                                                                
G30  25065850.67324  -1177811.64124      2797.68424        24.20024                                                                
G04  21058740.73716     59579.04416     -1472.65616        37.60016  21058754.52824     36687.74624     -1097.61524        26.00024
E29  23782734.15607  -1821566.22907      -825.23207        45.00007  23782748.54606  -1367970.54006      -616.26506        36.50006
C21  22490442.49107    -42518.48407        30.54407        42.40007  22490453.88324   2050578.37324         8.92924        29.00024
R14  20441139.79306 108998299.76506      -428.61906        41.30006
C22  23518350.48526     92546.40126     -1955.50326        40.90026  23518318.40724  -3621779.49324     -1469.36224        28.60024
C26  24191628.58416   -211276.30316      2503.32716        36.60016  24191537.74723   -896194.37323      1884.30223        21.70023
R19  21846573.73226 116900085.71026     -4009.87226        35.60026
C34  24804943.39525  -3740352.59725     -2474.76025        35.00025  24804830.37324  -1845500.50624     -1868.00524        24.00024
E26  25221109.88905  -4437998.22405     -3292.22005        34.30005  25221067.01923  -3604268.35323     -2464.90223        20.40023
R15  21302373.97315 113869038.31715      3039.93115        33.80015
E07  25983166.72825    106148.70825     -2291.32125        35.40025  25983103.47226   -718139.81426     -1709.72826        37.00026
R03  22879436.69625 122511088.07325     -2526.15925        32.70025
C06  38294535.24525    -19859.37025     -1304.44025        32.40025                                                                
R05  21362783.65325 114231944.82625      1013.16225        29.70025
R04  20514263.67125 109888635.62925      -944.28725        29.60025
C16  39684067.89125     54760.99525     -1391.70825        29.60025                                                                
E27  26829029.05025  -4144497.51625      1513.39925        29.60025                                                                
C09  37875822.61425  -1796798.75125      -984.89225        30.30025                                                                
E19  24831923.51724  -4800875.94924       663.64124        28.20024  24831920.21923  -4327463.83623       498.66423        22.30023
R20  21501051.53224 115011420.09024      -717.30324        28.20024
E33  24030037.15124  -2444345.20024     -1034.52924        29.20024                                                                
C13  40105164.47224     34787.68624     -1249.82424        27.60024                                                                
E21  28352804.86223  -6531410.03823      1920.18223        22.50023                                                                
R21  24040314.93624 128680241.83324      2052.35124        24.90024
R13  23663916.81123 126399580.36023     -3950.68023        23.30023
E12  26853334.42323  -5812010.06823      1531.38923        19.10023                                                                
> 2025 10 05 08 41 50.0000007  0 35                      
G09  21047729.36007    -72756.27507       445.93007        43.40007  21047739.85315    -61932.85215       333.12115        35.00015
G06  22728269.04726    -79691.97326       676.69026        39.60026  22728259.45316    -67235.53416       505.97416        36.90016
G04  21059017.74506     61059.98106     -1487.37106        38.70006  21059027.63924     37793.74324     -1111.37424        26.30024
G01  23335433.91526    253906.07926     -4125.42026        37.80026  23335348.17524    181393.04324     -3076.90224        25.70024
G07  22406941.59716   -182890.85916      1900.42216        35.80016                                                                
G16  23016496.41125   -132394.10725       862.25025        32.10025                                                                
G26  23942902.47424     82701.98424     -1811.55024        28.10024                                                                
G31  24910394.79324    154764.32024     -4308.49224        24.40024                                                                
G30  25065335.03024  -1180601.68224      2784.87424        24.10024                                                                
G03  20693423.84106     84642.14506     -1980.76406        40.60006  20693432.23506  -3327128.53706     -1479.01306        39.20006
E29  23782886.45007  -1820733.45007      -839.22807        45.00007  23782898.74206  -1367348.73606      -626.57406        36.20006
C21  22490435.29607    -42540.91307        15.89407        42.30007  22490449.68624   2050572.12724         3.17324        28.80024
C22  23518745.91126     94508.17326     -1967.70626        40.80026  23518685.65324  -3620302.15024     -1482.41424        28.10024
R14  20441203.64906 108998684.18206      -444.96306        41.10006
C34  24805422.76316  -3737867.64416     -2492.16416        36.40016  24805302.24724  -1843627.32324     -1877.79524        23.90024
R19  21847334.00526 116904195.89226     -4020.02426        35.70026
C26  24191146.51826   -213772.19926      2489.55326        36.50026  24191054.18223   -898073.26223      1873.96023        21.20023
E26  25221799.11215  -4434697.77015     -3307.06015        34.30015  25221691.18723  -3601797.75923     -2476.16623        20.30023
R15  21301817.25925 113866106.87325      3030.41025        33.80025
E07  25983588.53615    108450.19115     -2307.82015        35.10015  25983535.47326   -716419.03226     -1727.98126        36.40026
R03  22879946.64325 122513861.53425     -2553.48525        32.60025
C06  38294788.57025    -18546.99325     -1318.74425        32.20025                                                                
R04  20514416.86525 109889499.14725      -960.88125        29.60025
E27  26828752.94125  -4146004.71025      1502.20825        29.60025                                                                
R05  21362513.24025 114230542.08025      1002.02825        29.60025
C16  39684325.41325     56163.30325     -1408.85825        29.50025                                                                
R20  21501213.42024 115012329.83524      -737.15224        28.10024
C09  37875999.49125  -1795804.79525     -1001.37425        29.90025                                                                
E33  24030245.50724  -2443302.79624     -1047.91124        28.80024                                                                
C13  40105405.50624     36044.21324     -1262.00124        27.40024                                                                
R21  24039927.60424 128678211.28724      2038.95324        24.80024
R13  23664698.07023 126403796.41423     -3963.91023        23.10023
E21  28352434.01823  -6533320.82623      1910.78823        22.40023                                                                
E12  26853028.63523  -5813532.45723      1514.03823        19.10023                                                                
E19  24831794.90624  -4801532.39124       650.12024        28.60024  24831793.40723  -4327955.04923       486.31723        22.30023
> 2025 10 05 08 41 51.0000011  0 34                      
G09  21047651.71407    -73198.16907       436.51707        43.40007  21047664.90506    -62263.18706       326.30506        40.30006
G03  20693804.27706     86626.98306     -1990.80906        40.60006  20693817.76816  -3325645.59116     -1487.28016        38.00016
G04  21059309.14406     62551.53606     -1496.86406        39.40006  21059322.63424     38907.14324     -1117.10024        27.80024
G06  22728156.62526    -80366.46126       669.26726        39.50026  22728139.23716    -67736.01116       494.53116        36.50016
G01  23336259.24426    258035.20926     -4134.63826        37.60026  23336144.12424    184471.78524     -3081.87424        25.20024
G07  22406571.05426   -184788.04026      1892.81226        35.90026                                                                
G16  23016349.81325   -133256.37525       857.52825        32.00025                                                                
G31  24911222.81924    159079.99024     -4322.54924        24.40024                                                                
G30  25064827.18124  -1183382.12224      2775.64024        24.10024                                                                
G26  23943254.13024     84517.16624     -1818.82624        27.80024                                                                
E29  23783063.32807  -1819890.13307      -848.58607        44.90007  23783069.32406  -1366718.99106      -633.71506        36.20006
C21  22490443.39007    -42552.84107         6.67907        42.30007  22490446.98824   2050571.82524        -2.66924        28.40024
C22  23519124.54926     96479.55526     -1976.18526        40.60026  23519071.18624  -3618817.48324     -1488.32924        27.60024
C34  24805893.73716  -3735373.47216     -2498.78016        36.90016  24805791.50824  -1841748.61424     -1881.47124        26.00024
R19  21848104.77226 116908267.04226     -4026.79026        35.90026
R14  20441309.77606 108999195.97306      -452.55406        40.70006
C26  24190689.63426   -216258.69226      2481.79026        36.30026  24190586.20623   -899946.53623      1870.46523        20.80023
E26  25222396.59805  -4431385.47205     -3318.21805        34.50005  25222334.84123  -3599321.50023     -2479.09123        20.30023
R15  21301245.55515 113862998.80815      3017.04715        33.90015
E07  25984046.31905    110761.56005     -2316.56205        34.80005                                                                
E19  24831671.39225  -4802178.27725       640.60825        32.30025  24831678.88623  -4328441.26623       483.71923        22.20023
C06  38295046.99125    -17225.34325     -1326.28625        32.10025                                                                
R04  20514598.83925 109890420.89625      -970.08825        29.70025
E27  26828476.53225  -4147500.65525      1490.31925        29.70025                                                                
C16  39684610.21624     57575.77024     -1417.54624        29.40024                                                                
R05  21362430.49725 114230047.22525       984.00525        29.50025
R20  21501332.73724 115012914.39824      -739.61424        28.30024
C09  37876211.44425  -1794800.51625     -1009.44025        29.60025                                                                
E33  24030471.55124  -2442249.51124     -1058.72624        28.50024                                                                
C13  40105666.62524     37311.60524     -1272.82424        27.30024                                                                
R21  24039566.95424 128676228.98324      2027.84524        24.80024
E21  28352081.16323  -6535217.32223      1889.34823        22.50023  28351936.66324  -4943787.11624      1417.47624        23.50024
R13  23665461.64223 126407819.92923     -3981.36823        23.00023
E12  26852751.62723  -5815035.90623      1493.97823        19.00023                                                                
> 2025 10 05 08 41 52.0000014  0 36                      
G09  21047549.48507    -73631.47707       429.01407        43.30007  21047561.77606    -62587.08006       320.67206        40.10006
G04  21059578.35706     64051.69806     -1504.46606        40.60006  21059587.65124     40026.74024     -1122.69424        29.30024
G03  20694159.83126     88620.10826     -1997.01926        40.50026  20694178.41826  -3324157.79726     -1490.21826        37.70026
G06  22728023.21726    -81026.64426       653.03126        39.40026  22727994.73706    -68228.74706       488.86706        36.40006
G07  22406203.50826   -186672.52226      1878.13226        35.90026                                                                
G16  23016151.35025   -134115.16125       857.04425        31.90025                                                                
G26  23943618.67824     86346.51024     -1836.42424        27.50024                                                                
G31  24912010.97424    163402.29524     -4325.62224        24.30024                                                                
G30  25064281.25924  -1186155.90124      2770.44824        24.00024                                                                
G01  23336985.94116    262172.75516     -4141.75216        37.20016  23336911.59224    187560.46924     -3093.65424        24.70024
E29  23783197.93507  -1819038.24707      -856.17007        44.90007  23783210.82606  -1366082.69406      -639.57306        36.10006
R04  20514761.92625 109891399.34725      -977.50825        31.50025
C21  22490422.10507    -42556.34607        -0.70807        42.30007  22490427.50124   2050573.25924        -2.30324        27.90024
C22  23519489.99626     98462.79926     -1989.17526        40.50026  23519436.63324  -3617330.99224     -1487.40224        27.10024
C34  24806373.10506  -3732869.12006     -2509.44206        37.50006  24806251.68924  -1839861.52124     -1891.28524        27.60024
R14  20441407.80816 108999824.45916      -459.02116        40.00016
R19  21848855.75226 116912389.47326     -4037.03726        35.90026
C26  24190183.58416   -218735.03516      2471.26816        36.20016  24190134.11923   -901818.10223      1870.71323        23.00023
E26  25223000.98015  -4428064.49615     -3326.06515        34.50015  25222950.91423  -3596840.36823     -2483.56723        20.20023
R15  21300646.26915 113859902.20715      3007.10615        34.10015
E07  25984464.82905    113081.46405     -2324.17005        34.60005                                                                
C06  38295299.11625    -15896.01925     -1333.16125        32.00025                                                                
E19  24831537.68425  -4802812.81525       628.86325        32.20025  24831533.48723  -4328928.75923       488.13023        22.10023
E21  28351536.44024  -6819752.66424      1885.83524        29.40024  28351560.42324  -4945195.43724      1408.32124        23.70024
R03  22880844.82125 122518722.93725     -2564.57325        29.70025
E27  26828173.44225  -4148987.08525      1481.67225        29.80025                                                                
C16  39684860.54324     58998.23124     -1427.45824        29.40024                                                                
R05  21362273.10624 114229311.43424       980.33924        29.40024
C09  37876400.61325  -1793790.57725     -1012.76925        29.50025                                                                
R20  21501445.15924 115013620.61924      -750.51824        28.50024
E33  24030637.93624  -2441187.74424     -1066.00824        28.20024                                                                
C13  40105870.18424     38584.95424     -1276.32824        27.00024                                                                
R21  24039182.62024 128674278.83824      2022.80824        24.80024
R13  23666123.58423 126411460.65223     -3986.62023        22.90023
E12  26852436.54523  -5816532.91823      1493.79323        18.90023                                                                
E30  27385834.18223  -6452116.20023      -269.03823        17.90023                                                                
> 2025 10 05 08 41 53.0000018  0 36                      
G04  21059874.55207     65558.10507     -1509.52807        43.80007  21059884.44525     41151.50125     -1127.34425        30.90025
G09  21047479.33307    -74058.61607       424.05607        43.30007  21047489.82606    -62906.46706       317.13406        41.20006
G06  22727886.81126    -81684.43426       656.59326        39.40026  22727880.51606    -68716.50406       485.26706        36.70006
G01  23337772.59626    266314.32726     -4143.58426        37.00026  23337710.53924    190655.48124     -3098.17524        24.40024
G07  22405855.44926   -188551.59926      1876.37426        35.90026                                                                
G03  20694561.25326     90619.47126     -2002.48126        39.50026  20694568.14926  -3322662.74926     -1498.67426        37.30026
G16  23016009.54825   -134968.29925       850.31525        31.80025                                                                
G26  23943955.04524     88186.61224     -1845.48024        27.20024                                                                
G31  24912813.51824    167730.53924     -4331.21124        24.40024                                                                
G30  25063752.72524  -1188923.18624      2764.03624        24.00024                                                                
E29  23783377.51007  -1818180.32007      -860.94607        44.90007  23783384.40606  -1365442.07606      -642.77806        36.00006
R04  20514948.99617 109892348.67817      -982.39317        42.40017
C21  22490432.89707    -42553.23507        -6.41907        42.20007  22490438.59324   2050580.78124       -10.56624        29.40024
C34  24806863.26626  -3730358.57226     -2513.64526        38.70026  24806745.14824  -1837969.47224     -1894.52624        27.10024
C22  23519862.93826    100451.18626     -1990.95826        40.30026  23519824.86424  -3615833.36624     -1503.19424        26.70024
R14  20441490.25106 109000211.16106      -467.15706        39.60006
R19  21849601.33626 116916325.14826     -4045.15626        35.90026
C26  24189729.39926   -221204.95326      2466.70426        36.00026  24189629.26823   -903676.47623      1851.77723        22.40023
R15  21300107.84205 113856972.28605      3003.59905        34.40005
E26  25223686.00615  -4424737.98915     -3329.01915        34.40015  25223596.06823  -3594357.67123     -2483.47923        20.10023
E07  25984921.11325    115408.67125     -2330.85825        34.50025  25984936.70325  -5081860.18025     -1752.24825        31.60025
E19  24831416.26825  -4803442.32225       626.99225        32.10025  24831406.97523  -4329409.44023       477.27523        23.20023
C06  38295554.53925    -14559.21425     -1340.54425        31.90025                                                                
R03  22881315.79525 122521191.54825     -2564.69425        30.40025
E21  28351180.88625  -6821639.49025      1886.82525        30.20025  28351209.06624  -4946600.63424      1403.63524        23.70024
E27  26827899.13225  -4150469.14125      1479.86925        29.90025                                                                
C16  39685146.24524     60425.48124     -1429.64424        29.40024                                                                
R20  21501597.15424 115014380.39724      -756.75424        28.60024
R05  21362129.50524 114228490.74124       977.66724        29.30024
C09  37876587.68424  -1792774.97524     -1018.43324        29.30024                                                                
E33  24030850.18924  -2440114.43524     -1079.08024        28.00024                                                                
C13  40106136.69924     39864.31524     -1282.36724        26.90024                                                                
R21  24038714.34424 128671719.97824      2016.36024        24.70024
R13  23666811.60723 126415082.27423     -3995.28923        22.80023
E30  27385901.93523  -6451841.44723      -274.75323        18.80023                                                                
E12  26852109.47123  -5818023.73023      1487.71123        18.80023                                                                
> 2025 10 05 08 41 54.0000022  0 36                      
G04  21060153.95907     67069.58107     -1514.00907        47.20007  21060164.75125     42279.37025     -1129.42125        32.30025
G09  21047393.29307    -74481.07707       420.12107        43.20007  21047401.98706    -63222.00706       313.61706        40.50006
G06  22727748.90726    -82336.78426       649.63026        39.30026  22727752.80416    -69204.27116       487.77116        37.50016
G01  23338594.02826    270460.18626     -4148.00126        36.90026  23338495.09624    193751.67024     -3096.77624        24.00024
G07  22405482.50726   -190423.20726      1867.87326        35.90026                                                                
G03  20694948.88526     92624.10426     -2007.26626        38.70026  20694943.18926  -3321164.47726     -1499.88326        37.00026
G16  23015853.95625   -135816.49025       845.71725        31.80025                                                                
G26  23944290.21324     90029.04124     -1843.59124        26.90024                                                                
G31  24913613.36424    172059.41924     -4329.19624        25.00024                                                                
G30  25063213.69824  -1191688.39424      2764.16924        23.90024                                                                
R04  20515129.17207 109893356.23907      -986.71607        44.10007
E29  23783536.10107  -1817317.22707      -865.67607        44.80007  23783540.89706  -1364797.71306      -646.23506        36.00006
C21  22490420.60627    -42545.01127       -10.78027        42.20027  22490432.89724   2050586.18124        -4.33824        29.20024
C34  24807332.14116  -3727842.79116     -2518.39516        39.00016  24807214.62324  -1836073.64524     -1897.71524        26.80024
R14  20441591.88006 109000796.92806      -469.57806        39.30006
R19  21850391.28926 116920593.76626     -4043.47426        35.80026
R15  21299529.84205 113853925.38005      3000.26805        34.70005
C26  24189210.15826   -223669.26626      2461.50926        35.80026  24189148.10123   -905537.36423      1862.14423        21.80023
E26  25224249.91515  -4421406.90115     -3333.37815        34.40015  25224222.33423  -3591870.56423     -2489.30923        20.00023
E07  25985346.21915    117738.96615     -2332.58715        34.30015  25985364.20725  -5080114.91625     -1745.26425        30.50025
C22  23520223.88826    102443.90926     -1994.89126        39.70026  23520198.70524  -3614335.58024     -1497.86524        26.20024
R03  22881794.56325 122523797.25925     -2569.14425        31.00025
C06  38295786.27925    -13219.18625     -1341.64025        31.70025                                                                
E19  24831259.17725  -4804070.81125       627.98025        31.90025  24831273.86724  -4329883.89924       471.34924        25.40024
E21  28350819.63625  -6823522.41625      1880.97525        30.50025  28350843.02024  -4948007.83524      1408.20224        23.60024
E27  26827581.65225  -4151944.25025      1471.63425        30.20025                                                                
C16  39685430.74824     61856.06724     -1432.25324        29.40024                                                                
R20  21501713.77324 115015047.59024      -760.00524        28.90024
R05  21361978.71024 114227727.41224       967.70924        29.20024
C09  37876755.56824  -1791754.63524     -1022.70824        29.20024                                                                
E33  24031036.95924  -2439037.20824     -1079.18524        27.80024                                                                
C13  40106407.11224     41149.42624     -1287.98624        26.70024                                                                
R21  24038381.87524 128669983.44524      2018.82024        24.70024
R13  23667500.83023 126418806.27523     -3999.05523        22.70023
E12  26851797.98723  -5819507.43023      1480.14323        18.60023                                                                
E30  27385955.29823  -6451559.24023      -285.93523        19.20023                                                                
> 2025 10 05 08 41 55.0000026  0 36                      
G04  21060453.45107     68583.93307     -1515.04007        47.30007  21060462.74515     43409.72415     -1131.59715        33.20015
G09  21047321.34307    -74900.70107       418.20507        43.20007  21047330.03706    -63535.94406       313.13506        40.20006
G01  23339408.86316    274610.29716     -4152.23516        36.80016  23339298.54024    196849.96124     -3099.34124        23.80024
G07  22405135.94726   -192292.07526      1867.49626        35.90026                                                                
G03  20695338.31526     94631.78326     -2009.20126        38.20026  20695335.31726  -3319665.65726     -1499.09426        35.80026
G16  23015720.84825   -136662.37925       844.73725        31.90025                                                                
G31  24914485.76024    176388.66424     -4329.42724        25.20024                                                                
G26  23944674.84724     91870.46924     -1840.92824        26.70024                                                                
G30  25062687.86224  -1194450.35124      2760.33124        24.00024                                                                
G06  22727628.99016    -82986.64416       648.61316        39.30016  22727636.18506    -69690.11206       484.87906        37.40006
R04  20515311.74507 109894281.05007      -988.10407        45.60007
E29  23783699.78707  -1816451.85607      -866.51107        44.80007  23783714.17706  -1364151.52606      -647.09906        35.80006
C21  22490436.19527    -42534.51127       -11.63827        42.20027  22490445.48924   2050591.90424        -5.88524        29.20024
R03  22882295.51615 122526425.18415     -2575.21015        34.90015
C34  24807820.80326  -3725325.25426     -2518.41526        38.90026  24807718.87424  -1834176.05224     -1898.47524        26.40024
R14  20441685.71506 109001243.88206      -472.67006        39.10006
C22  23520654.98916    104437.13216     -1993.47116        39.10016  23520591.13424  -3612837.12624     -1498.78724        25.70024
R19  21851154.86026 116924625.11426     -4048.29126        35.70026
E26  25224895.66805  -4418073.79305     -3334.11705        34.70005  25224863.29123  -3589384.99623     -2484.79923        20.00023
R15  21298979.42305 113850931.99505      2995.63005        34.80005
C26  24188760.76926   -226134.72026      2466.02526        35.60026  24188685.52123   -907394.23123      1854.85623        21.40023
E07  25985801.00425    120077.27425     -2342.06425        34.20025  25985755.13624  -5078369.80124     -1745.03924        29.40024
E19  24831154.25025  -4804696.60525       624.44625        31.70025  24831159.64625  -4330352.28825       465.35225        31.60025
C06  38296065.08625    -11878.57225     -1340.90625        31.50025                                                                
E21  28350470.67825  -6825402.19825      1878.20925        30.50025  28350494.36123  -4949418.63123      1412.59323        23.40023
E27  26827361.00425  -4153414.42725      1467.71125        30.20025                                                                
C16  39685726.34325     63285.36325     -1428.65025        29.50025                                                                
R20  21501892.45024 115015951.21224      -761.30724        29.10024
R05  21361803.63124 114226739.21424       973.19424        29.10024
C09  37876973.51724  -1790727.91324     -1029.91324        29.00024                                                                
E33  24031248.61324  -2437957.86624     -1080.39824        27.60024                                                                
C13  40106660.43724     42438.53024     -1291.09824        26.60024                                                                
R21  24037970.85924 128667731.61424      2018.29524        24.60024
R13  23668301.27623 126423026.91623     -3995.78123        22.80023
E30  27386009.26023  -6451276.97923      -282.28723        19.60023                                                                
E12  26851557.55423  -5820989.86023      1481.79623        18.50023                                                                
> 2025 10 05 08 41 56.0000030  0 36                      
G04  21060737.05507     70096.56607     -1512.02407        47.30007  21060740.65306     44539.24006     -1129.09606        36.10006
G09  21047231.70507    -75321.95607       422.07107        43.50007  21047238.00016    -63849.14916       312.84016        38.80016
G06  22727495.28206    -83637.78206       651.77806        39.30006  22727498.58006    -70176.75006       487.03606        36.80006
G01  23340180.22906    278758.84006     -4147.75806        36.70006  23340077.40114    199947.52914     -3097.20514        23.50014
G07  22404790.28626   -194166.61826      1877.38126        35.90026                                                                
G16  23015539.77325   -137508.30325       845.94125        32.00025                                                                
G26  23944980.63524     93710.96024     -1840.02124        26.50024                                                                
G03  20695708.55916     96637.94216     -2005.39916        37.60016  20695709.15926  -3318168.57526     -1496.21226        35.60026
G31  24915283.80824    180716.54924     -4327.20324        25.40024                                                                
G30  25062174.01824  -1197212.79224      2762.68224        24.10024                                                                
R04  20515483.52607 109895247.23107      -984.87007        45.70007
E29  23783858.67707  -1815587.78107      -863.42507        44.80007  23783871.26906  -1363506.11206      -645.02706        35.80006
R15  21298413.41506 113847951.60206      3000.95106        37.70006
C21  22490431.39817    -42525.65617        -8.03317        42.20017  22490438.29425   2050598.47825        -7.00025        29.60025
R03  22882753.59906 122528922.89506     -2570.58806        40.30006
C22  23521029.73006    106428.99806     -1991.18806        39.00006  23520967.97324  -3611341.10124     -1494.81024        25.20024
R14  20441778.65106 109001784.64606      -470.56406        38.90006
E26  25225546.81705  -4414741.36405     -3332.08805        35.00005  25225491.65623  -3586896.94523     -2489.29123        19.90023
C26  24188273.60716   -228598.97716      2463.65816        35.50016  24188203.75523   -909253.16123      1859.96123        20.90023
E07  25986247.39515    122411.52815     -2331.47615        34.00015  25986256.08924  -5076625.99124     -1743.15724        29.20024
E19  24831026.53825  -4805322.85125       626.47225        31.70025  24831030.73525  -4330818.32125       464.85625        31.00025
C06  38296316.31225    -10535.02825     -1345.00825        31.40025                                                                
E21  28350099.83425  -6827286.45525      1886.49425        30.40025  28350130.11323  -4950831.64923      1414.12923        23.40023
C16  39685997.35625     64717.38425     -1433.38325        29.70025                                                                
R20  21502021.66024 115016687.26524      -757.26524        29.30024
E27  26827043.22425  -4154886.10325      1472.42525        30.10025                                                                
R19  21851909.13825 116928704.67925     -4048.02425        34.70025
C09  37877183.37224  -1789703.75824     -1022.87224        28.90024                                                                
R05  21361613.86224 114225769.36224       973.62524        29.00024
C34  24808276.78726  -3722807.97626     -2517.14726        38.10026  24808192.54624  -1832280.69824     -1894.23424        26.00024
E33  24031445.87624  -2436876.78324     -1081.95424        27.50024                                                                
C13  40106910.46424     43724.75724     -1284.78924        26.50024                                                                
R21  24037584.12724 128665707.18024      2028.15224        24.60024
R13  23669049.25823 126427066.47123     -3989.79723        23.00023
E30  27386053.92923  -6451000.60223      -273.43723        19.90023                                                                
E12  26851246.36923  -5822473.20223      1483.79723        18.40023                                                                
> 2025 10 05 08 41 57.0000034  0 35                      
G04  21061030.25207     71605.69907     -1507.38107        47.10007  21061038.64606     45666.16306     -1125.62506        35.80006
G09  21047161.25307    -75747.81807       428.16407        43.80007  21047169.64806    -64167.72306       321.25706        38.50006
G06  22727397.25026    -84292.16326       656.00226        39.30026  22727386.45816    -70665.08816       489.18716        40.00016
G01  23340951.59526    282901.21426     -4139.28826        36.70026  23340875.14823    203041.39423     -3092.01223        23.20023
G07  22404460.81526   -196047.58626      1884.18026        36.20026                                                                
G03  20696111.18026     98639.45326     -1999.18526        37.10026  20696100.38826  -3316673.85526     -1493.53826        35.50026
G31  24916116.33224    185040.17024     -4321.48724        25.50024                                                                
G26  23945283.12524     95549.24924     -1837.18824        26.30024                                                                
G30  25061680.85924  -1199982.23824      2772.94724        24.10024                                                                
G16  23015394.07425   -138357.80725       851.29425        32.20025                                                                
R04  20515698.17807 109896340.60407      -980.23107        45.70007
E29  23784036.45407  -1814728.26407      -857.23807        44.70007  23784046.04806  -1362864.31206      -639.99206        35.80006
C21  22490441.89107    -42520.94207        -2.64207        42.10007  22490447.88725   2050600.31925         0.52725        31.60025
R15  21297832.71706 113844795.35206      3007.07306        41.10006
C22  23521423.95706    108417.55306     -1986.89806        38.90006  23521359.50224  -3609842.95624     -1499.20524        24.70024
R03  22883247.35826 122531511.75326     -2567.11826        40.20026
R14  20441874.88406 109002243.03406      -467.05006        38.70006
C26  24187809.82825   -231068.21325      2471.72425        35.40025  24187737.27823   -911120.16323      1871.03723        20.70023
E26  25226209.65825  -4411411.51525     -3328.55725        35.00025  25226138.90723  -3584406.67023     -2491.38623        21.00023
E07  25986702.78025    124738.60925     -2323.74425        33.90025  25986646.41924  -5074886.51424     -1737.30924        27.60024
E19  24830918.91325  -4805952.55825       631.43725        31.80025  24830920.41225  -4331284.90625       466.86125        30.70025
C06  38296589.42325     -9196.84825     -1335.49825        31.30025                                                                
R19  21852706.88625 116932918.95625     -4033.78425        34.00025
C16  39686274.06425     66145.02925     -1425.45625        29.80025                                                                
E21  28349751.77525  -6829178.92625      1896.57725        30.30025  28349779.95624  -4952246.89224      1416.35424        25.80024
R20  21502189.24425 115017527.37925      -752.90425        29.70025
C09  37877373.14024  -1788685.06724     -1015.95824        28.90024                                                                
C34  24808746.26226  -3720298.07726     -2506.20926        36.70026  24808683.60624  -1830389.14824     -1889.64724        25.70024
R05  21361439.38324 114224782.69324       980.13524        28.90024
E33  24031661.42724  -2435798.13924     -1077.42424        27.40024                                                                
C13  40107154.79524     45004.66024     -1276.74024        26.40024                                                                
R21  24037205.48924 128663626.86224      2025.45724        24.50024
R13  23669760.06623 126430807.28523     -3985.78823        23.00023
E30  27386137.27223  -6450732.31623      -264.23923        20.60023                                                                
E12  26850985.25023  -5823968.94023      1501.93523        18.40023                                                                
> 2025 10 05 08 41 58.0000038  0 35                      
G04  21061322.85007     73113.00107     -1506.38607        46.90007  21061336.34006     46791.59706     -1124.69006        35.50006
G09  21047088.40407    -76177.75407       431.97407        43.80007  21047095.59906    -64488.64406       322.09406        38.00006
G06  22727255.74816    -84952.07316       662.67416        39.50016  22727268.93906    -71157.67906       494.71806        40.00006
G01  23341731.95516    287044.38316     -4143.56516        36.90016  23341673.49623    206133.46523     -3091.17423        22.90023
G03  20696479.92516    100635.58116     -1993.43716        36.70016  20696490.11826  -3315182.56926     -1489.56826        37.60026
G16  23015269.66025   -139214.91525       860.91025        32.40025                                                                
G26  23945663.56224     97388.39724     -1839.57624        26.20024                                                                
G31  24916938.36324    189360.40424     -4318.53824        25.50024                                                                
G30  25061168.21424  -1202757.27824      2777.83624        24.00024                                                                
G07  22404089.07216   -197929.53016      1882.43116        36.30016                                                                
E29  23784207.93507  -1813871.48707      -855.40707        44.80007  23784219.02806  -1362224.75406      -638.43806        37.20006
C21  22490453.28307    -42518.32507        -1.56907        42.40007  22490464.37625   2050602.44325        -2.26625        31.30025
R15  21297308.68016 113841941.88416      3006.25016        40.80016
C22  23521810.68906    110402.27806     -1982.80906        38.90006  23521751.63024  -3608344.42524     -1498.72324        24.20024
R03  22883748.61026 122534141.20326     -2556.25326        39.90026
R14  20441998.69906 109002849.39006      -460.53806        38.50006
E19  24830800.49525  -4806588.48525       639.78625        35.30025  24830802.29325  -4331760.42125       479.97925        30.90025
R04  20515881.65117 109897271.54517      -979.16217        45.10017
C26  24187376.92715   -233539.84715      2472.83115        35.30015  24187280.39423   -912984.35423      1862.78523        20.70023
E26  25226860.50825  -4408086.10125     -3323.19625        34.90025  25226783.46123  -3581923.25023     -2479.99123        22.10023
E21  28349388.12725  -6831075.97225      1900.08325        34.90025  28349429.19926  -4953664.30226      1418.49526        35.50026
E07  25987142.87515    127062.69115     -2323.33115        33.90015  25987097.00724  -5073150.47524     -1734.31924        26.10024
R19  21853452.17025 116936851.56725     -4033.63625        33.50025
C06  38296855.33925     -7861.62825     -1333.73925        31.30025                                                                
R20  21502297.16925 115018052.26125      -748.47725        29.90025
C16  39686553.47125     67571.80225     -1426.33625        30.00025                                                                
C09  37877584.19424  -1787669.25224     -1014.37624        29.20024                                                                
R05  21361321.86524 114224101.95824       985.79524        28.80024
E33  24031874.87924  -2434725.59524     -1069.49424        27.40024                                                                
C13  40107382.33724     46276.42124     -1267.68924        26.30024                                                                
R21  24036798.67124 128661396.47424      2027.56124        24.50024
R13  23670527.53523 126434852.95723     -3979.80723        23.00023
E30  27386206.82423  -6450471.24923      -257.45923        21.00023                                                                
E12  26850699.54823  -5825480.19423      1519.01223        18.30023                                                                
C34  24809209.14226  -3717791.67226     -2504.65726        35.60026                                                                
> 2025 10 05 08 41 59.0000042  0 36                      
G04  21061605.85407     74613.83607     -1497.60107        46.70007  21061613.94805     47912.44905     -1118.56105        35.30005
G09  21047001.46427    -76614.92127       440.78127        43.70027  21047009.55826    -64816.80026       331.77326        37.70026
G06  22727117.54416    -85617.86516       668.73316        39.70016  22727133.43306    -71655.14806       499.90806        39.40006
G07  22403722.12606   -199818.02006      1891.76306        36.30006                                                                
G03  20696857.96326    102625.89926     -1987.41226        36.50026  20696860.06216  -3313696.97216     -1482.75316        38.20016
G16  23015094.88115   -140074.89315       861.41215        32.60015                                                                
G26  23946003.82724     99224.66324     -1834.82424        26.10024                                                                
G31  24917765.49024    193673.63324     -4309.72624        25.50024                                                                
G30  25060624.09124  -1205540.22124      2786.89324        24.00024                                                                
G01  23342498.52507    291180.92407     -4133.22507        43.60007  23342455.05523    209221.69623     -3086.30923        22.60023
E29  23784357.53207  -1813021.26307      -846.94607        45.30007  23784370.72326  -1361591.07426      -630.74026        36.00026
C21  22490441.29117    -42522.38117         7.39217        43.00017  22490450.88525   2050602.94225         0.31225        31.10025
R04  20516062.72527 109898284.46027      -970.55727        44.00027
R15  21296734.57716 113838916.37416      3014.83416        40.40016
E19  24830668.58626  -4807229.28426       642.98526        37.30026  24830672.78325  -4332243.21325       486.43225        30.30025
R03  22884199.79826 122536600.61126     -2551.31526        39.50026
C22  23522158.74826    112379.59826     -1973.61826        38.70026  23522122.47324  -3606848.76024     -1494.23224        23.80024
R14  20442044.26726 109003136.16726      -456.24726        38.30026
C26  24186819.31326   -236018.31926      2481.89026        35.80026  24186795.93023   -914848.66623      1864.37123        20.70023
E21  28349030.17525  -6832980.95825      1908.70625        35.30025  28349057.45616  -4955085.46316      1423.03516        36.50016
E26  25227489.17315  -4404766.52015     -3315.91315        34.90015  25227405.23123  -3579449.31223     -2469.19723        22.10023
E07  25987561.68525    129379.54825     -2312.99425        33.80025  25987589.86625  -5071420.40525     -1727.08525        29.80025
R19  21854201.65125 116940904.34225     -4026.00625        33.30025
C06  38297100.86925     -6530.30325     -1329.37825        31.40025                                                                
R20  21502419.48525 115018750.05625      -742.63425        30.30025
C09  37877743.68424  -1786661.67324     -1003.46024        29.30024                                                                
C16  39686821.48525     68992.98625     -1418.39025        30.00025                                                                
C34  24809655.23325  -3715291.69725     -2496.75925        34.60025  24809941.83524  -5579235.45424     -1872.40924        28.70024
R05  21361123.10224 114223081.63124       999.48824        28.80024
E33  24032063.44924  -2433660.98024     -1060.65024        27.30024                                                                
C13  40107600.88624     47537.66424     -1255.98324        26.20024                                                                
R21  24036442.81724 128659535.13324      2028.65224        24.40024
R13  23671243.13924 126438717.54424     -3976.49324        23.80024
E27  26826189.11624  -4159330.37724      1491.44124        23.70024  26826190.31524  -5518198.46824      1114.93124        25.10024
E30  27386245.79723  -6450215.25123      -253.46323        21.20023                                                                
E12  26850415.64423  -5827004.41023      1530.69723        18.20023                                                                
> 2025 10 05 08 42 00.0000046  0 36                      
G04  21061894.55407     76111.54307     -1496.14207        46.50007  21061909.84325     49033.54825     -1121.22125        35.10025
G09  21046927.11627    -77055.72127       442.61627        43.70027  21046928.31526    -65149.69726       335.26826        37.10026
G01  23343291.47627    295314.23527     -4131.69427        43.60027  23343250.70423    212301.73723     -3075.94423        22.30023
G06  22727010.51806    -86286.90306       670.66006        40.20006  22727017.11306    -72155.19206       501.33106        39.00006
G07  22403387.55816   -201708.89116      1892.06116        36.30016                                                                
G16  23014979.46125   -140936.22825       862.01425        32.70025                                                                
G31  24918595.31524    197984.28924     -4309.36724        25.40024                                                                
G30  25060114.14424  -1208327.09624      2788.84024        23.90024  25060092.85923  -5256727.87623      2088.03023        18.50023
G26  23946354.58424    101052.92924     -1824.26524        26.00024                                                                
G03  20697241.99816    104614.60416     -1987.89916        37.80016  20697247.99306  -3312213.36606     -1482.60906        38.10006
E29  23784531.11207  -1812174.41607      -845.15807        45.60007  23784542.80426  -1360960.63826      -628.81426        35.90026
C21  22490450.88507    -42529.53707         8.70707        43.80007  22490459.87925   2050597.89125         7.82725        30.50025
R04  20516251.29517 109899239.91817      -968.97217        43.30017
R15  21296168.86906 113835840.40806      3018.88206        40.10006
E19  24830557.96216  -4807877.33216       650.92316        37.90016  24830558.56225  -4332726.39325       483.37425        29.90025
R14  20442139.60116 109003591.50916      -454.24616        38.10016
R03  22884672.57126 122539078.41426     -2548.19426        39.20026
R20  21502589.46725 115019606.23925      -739.66325        34.20025
C26  24186346.54116   -238498.91016      2481.65016        36.40016  24186326.15523   -916718.03623      1871.89923        20.50023
E21  28348676.42016  -6834888.33216      1908.56816        35.80016  28348705.20006  -4956509.71006      1425.78906        35.80006
E26  25228126.83105  -4401451.20605     -3313.43005        34.80005  25228043.78923  -3576988.83223     -2453.74823        22.00023
R13  23672011.80724 126442769.32824     -3974.17024        29.20024
E07  25987984.99225    131691.07125     -2308.85525        33.70025  25988044.35124  -5069690.99724     -1729.07524        29.20024
R19  21854945.43625 116944830.83125     -4022.03025        33.20025
C06  38297379.67625     -5201.15525     -1328.05825        31.40025                                                                
C09  37877962.23225  -1785656.74425     -1003.60525        29.80025                                                                
C34  24810133.40225  -3712799.86925     -2487.75425        33.80025  24810424.80024  -5577364.99224     -1870.46124        28.30024
C16  39687125.77525     70407.39425     -1411.02025        29.90025                                                                
C22  23522544.58126    114357.21826     -1977.76826        38.20026  23522512.80323  -3605359.58523     -1485.93023        23.40023
R05  21360872.17624 114221687.28924       989.41024        28.70024
E33  24032260.71224  -2432598.61424     -1061.24024        27.30024                                                                
C13  40107808.34224     48797.06524     -1258.48024        26.10024                                                                
R21  24036065.37824 128657462.47224      2023.83624        24.30024
E30  27386256.88923  -6449965.72523      -246.29023        21.30023                                                                
E12  26850129.94223  -5828543.45423      1546.45823        18.20023                                                                
E27  26825947.48324  -4160823.15724      1492.78024        23.70024  26825917.20424  -5519312.20524      1113.73724        28.50024
> 2025 10 05 08 42 01.0000049  0 34                      
G06  22726863.02007    -86960.35907       675.66607        45.60007  22726868.41606    -72658.68306       505.21406        38.90006
G04  21062162.26807     77604.65107     -1490.80907        46.30007  21062174.26025     50149.67825     -1113.64625        34.70025
G09  21046818.89017    -77500.76417       447.16517        43.80017  21046826.68526    -65481.19226       330.79526        36.80026
G03  20697593.95407    106596.98407     -1979.21607        42.60007  20697605.34606  -3310733.33406     -1478.24406        39.00006
G01  23344068.23817    299443.70217     -4127.54417        43.30017  23344013.07623    215380.99823     -3078.87123        22.00023
G07  22403010.41926   -203604.28826      1897.65926        36.40026                                                                
G26  23946676.26124    102879.59224     -1825.86124        25.90024                                                                
G30  25059573.61824  -1211111.51424      2783.18924        23.80024  25059537.34323  -5258816.23623      2088.36023        18.50023
E29  23784675.91107  -1811332.49907      -839.45307        45.70007  23784684.00625  -1360316.40425      -651.13325        34.80025
C21  22490431.99807    -42541.54507        14.43307        44.20007  22490435.59525   2050590.57925         8.44225        30.20025
R04  20516413.48207 109900215.29507      -963.39407        42.60007
R15  21295554.59406 113832664.28106      3022.58206        39.90006
E19  24830404.46926  -4808528.10126       652.37926        38.00026  24830414.66225  -4333212.11325       486.99025        29.70025
R14  20442205.25606 109004046.08506      -449.03706        38.00006
C26  24185850.38406   -240983.55606      2486.67306        36.70006  24185829.69923   -918587.58523      1869.63823        20.40023
R03  22885147.14226 122541723.95026     -2542.09626        38.80026
R13  23672737.90516 126446751.58216     -3966.92616        36.10016
R20  21502692.29616 115020261.19216      -733.90316        36.30016
E21  28348291.48626  -6836797.56326      1910.15826        35.70026  28348320.56615  -4957937.30815      1429.27415        34.80015
E26  25228742.60525  -4398141.15525     -3308.16725        34.80025  25228652.66723  -3574527.41523     -2461.88523        22.00023
R19  21855711.70625 116949035.92425     -4019.57625        33.10025
C22  23522900.73526    116327.75326     -1966.99326        37.30026  23522872.25423  -3603875.13223     -1482.09123        22.90023
C09  37878119.02425  -1784654.67925     -1000.63125        30.50025                                                                
C06  38297618.61025     -3876.99025     -1321.67325        31.40025                                                                
E07  25988453.26825  -7683839.38525     -2308.35525        32.90025  25988464.66024  -5067959.19124     -1733.00624        28.60024
C16  39687365.90825     71820.89825     -1413.05125        29.80025                                                                
R05  21360699.79524 114220872.71024       994.15624        28.80024
E33  24032444.78524  -2431540.31924     -1056.26024        27.50024                                                                
C13  40108010.10224     50063.25324     -1269.58224        26.10024                                                                
E27  26825648.29024  -4162318.57424      1496.73424        24.50024  26825612.01525  -5520429.29525      1118.76625        32.20025
R21  24035704.72824 128655637.88324      2032.55124        24.30024
E30  27386299.16023  -6449715.66523      -250.32823        21.30023                                                                
E12  26849794.77423  -5830093.45623      1555.48023        18.10023                                                                
C34  24810604.07625  -3710309.13925     -2490.18025        33.20025  24810886.78024  -5575491.05224     -1875.67924        27.70024
> 2025 10 05 08 42 02.0000053  0 35                      
G04  21062460.26207     79097.68507     -1492.99607        46.10007  21062468.05725     51265.85325     -1116.19625        34.30025
G09  21046745.74107    -77946.19207       445.61907        43.90007  21046751.73726    -65812.50426       331.21926        36.60026
G06  22726755.39527    -87632.73327       671.83227        45.40027  22726750.59806    -73161.80206       502.93206        38.10006
G03  20697980.38607    108579.73507     -1982.93707        42.80007  20697992.67806  -3309253.13206     -1480.28706        38.80006
G01  23344862.68807    303572.35007     -4128.23707        42.90007  23344809.92423    218462.47023     -3082.57623        21.80023
G16  23014658.38425   -142673.27525       866.90525        32.90025                                                                
G26  23947063.59324    104703.91524     -1823.15324        25.80024                                                                
G30  25059058.87524  -1213893.70524      2781.07624        23.80024  25059018.70223  -5260901.07623      2083.07923        18.50023
G07  22402648.26926   -205501.23726      1897.72526        36.40026                                                                
E29  23784848.89207  -1810490.70807      -841.72607        45.70007  23784852.18925  -1359681.83625      -629.73525        34.60025
C21  22490435.89507    -42553.59607        12.07307        44.50007  22490444.88925   2050582.30025         8.76325        30.00025
R15  21294904.64406 113829137.97806      3016.35406        39.80006
R04  20516602.05207 109901171.52107      -965.46507        42.10007
E19  24830291.14716  -4809180.14116       653.42416        38.00016  24830300.14125  -4333699.56425       488.31625        29.70025
R14  20442272.40926 109004352.70126      -454.29226        37.90026
R03  22885648.69516 122544356.47016     -2542.14616        38.50016
C26  24185406.99116   -243468.98316      2485.81516        36.70016  24185363.22123   -920464.08823      1879.98023        20.20023
R13  23673476.89326 126450645.20826     -3970.04626        36.30026
E26  25229304.41625  -4394831.20425     -3309.65125        34.80025  25229290.02623  -3572061.92823     -2467.52223        22.10023
E21  28347941.62826  -6838711.93826      1916.94626        35.50026  28347968.31015  -4959365.30415      1428.19415        33.90015
R20  21502865.57626 115021134.97426      -739.67926        36.10026
C22  23523319.84526    118297.59526     -1969.49426        36.50026  23523261.98523  -3602391.17923     -1483.70223        22.50023
R19  21856421.91425 116952781.77925     -4018.25125        33.00025
C09  37878323.48225  -1783656.97625      -995.52225        31.70025                                                                
C06  38297853.64825     -2556.81925     -1318.17325        31.30025                                                                
E07  25988881.97125  -7681529.67925     -2309.70525        32.40025  25988894.86224  -5066242.06924     -1709.77824        27.90024
C34  24811121.51825  -3707817.21925     -2492.51425        32.70025  24811482.76824  -5573616.95624     -1874.17424        27.00024
R05  21360503.43124 114219769.77924       998.40924        29.00024
C16  39687638.71925     73232.87725     -1411.21525        29.70025                                                                
C13  40108215.76024     51327.88324     -1263.85024        26.10024                                                                
E27  26825371.88124  -4163815.09224      1497.06924        24.70024  26825337.10625  -5521547.34925      1118.53525        31.80025
R21  24035355.76924 128653718.35624      2034.92224        24.20024
E30  27386330.33823  -6449463.32423      -253.48023        21.70023                                                                
E12  26849520.76423  -5831651.97623      1562.77823        18.10023                                                                
E33  24032660.63524  -2430485.88624     -1052.50124        27.50024                                                                
> 2025 10 05 08 42 03.0000057  0 35                      
G04  21062755.25807     80593.85107     -1497.73207        45.90007  21062763.05325     52382.99625     -1117.62725        34.20025
G09  21046670.19307    -78388.27307       440.40807        44.10007  21046677.08926    -66143.26126       330.48126        36.40026
G03  20698371.01617    110565.44817     -1987.19317        42.80017  20698380.60906  -3307770.45006     -1483.92006        38.80006
G01  23345653.24107    307703.43107     -4132.29407        42.60007  23345615.46723    221543.73723     -3081.16323        21.60023
G07  22402270.23126   -207392.20626      1887.97826        36.30026                                                                
G26  23947413.15124    106529.88124     -1826.78624        25.70024                                                                
G30  25058539.03424  -1216676.09024      2782.48124        23.70024  25058491.66723  -5262984.60123      2082.86623        18.60023
G16  23014480.90625   -143536.40125       863.12625        32.90025                                                                
G06  22726631.88017    -88302.68017       668.73317        45.00017  22726631.88016    -73662.37716       499.30416        37.00016
R15  21294296.96507 113825838.75707      3012.22807        42.50007
E29  23785014.07707  -1809645.81607      -846.44307        45.70007  23785024.27025  -1359051.83525      -627.71825        34.60025
C21  22490445.18907    -42562.61307         7.50107        44.80007  22490451.48425   2050578.70825         1.24825        29.70025
R04  20516790.32217 109902127.74817      -971.95917        41.70017
E19  24830180.22406  -4809830.23806       648.87606        38.60006  24830186.81925  -4334184.15225       483.15725        29.90025
C26  24184921.62726   -245949.80126      2478.51326        36.70026  24184898.54323   -922331.22523      1862.45323        20.10023
R03  22886109.47616 122546769.16916     -2546.40016        38.20016
R14  20442328.77026 109004599.06526      -458.32926        37.70026
C22  23523708.37626    120269.93626     -1973.59026        36.20026  23523714.67124  -3600910.37124     -1479.23524        25.70024
E26  25229943.27425  -4391517.03925     -3316.27025        34.70025  25229931.58223  -3569594.93823     -2467.74023        22.20023
R20  21503009.77626 115021853.43426      -742.46726        35.70026
E21  28347594.76925  -6840623.92825      1910.79625        35.20025  28347615.75425  -4960788.09225      1420.18325        33.00025
R19  21857193.28025 116956855.22425     -4026.49225        32.90025
C09  37878526.74225  -1782652.61025     -1007.69725        31.90025                                                                
C06  38298157.03825     -1234.53825     -1323.33625        31.20025                                                                
E07  25989328.96225  -7679219.76525     -2310.01725        32.10025  25989349.34824  -5064518.62324     -1726.60824        27.30024
C34  24811634.16325  -3705322.84325     -2495.60325        32.30025  24811967.23324  -5571744.73224     -1871.28624        26.40024
R05  21360336.74724 114218825.18224       997.62524        29.00024
C16  39687919.92525     74644.03825     -1410.75325        29.60025                                                                
E33  24032898.67024  -2429428.61524     -1058.69024        27.50024                                                                
C13  40108458.89224     52587.45424     -1257.04124        27.10024                                                                
R13  23674252.45625 126454733.66725     -3979.54825        35.40025
E27  26825119.15624  -4165310.58724      1494.98224        24.70024  26825063.09525  -5522661.56925      1112.30425        31.50025
R21  24034948.05224 128651484.14424      2023.52824        24.10024
E30  27386384.90023  -6449207.32423      -257.83023        21.70023                                                                
E12  26849235.66123  -5833216.77123      1567.93323        17.90023                                                                
> 2025 10 05 08 42 04.0000061  0 35                      
G04  21063027.47007     82090.45807     -1496.82607        45.70007  21063038.86225     53501.79525     -1119.62725        33.90025
G09  21046584.15307    -78830.11007       441.71507        44.10007  21046584.75326    -66475.33226       332.72726        36.20026
G03  20698744.25827    112552.90027     -1988.32027        42.80027  20698750.55306  -3306287.08506     -1483.70606        39.30006
G01  23346429.10307    311834.97007     -4131.76807        42.40007  23346391.92923    224625.91923     -3082.63723        21.60023
G07  22401878.70226   -209283.19726      1891.00226        36.20026                                                                
G31  24921883.13924  -7940469.57324     -4311.10324        24.90024                                                                
G26  23947754.91424    108362.10724     -1835.35524        25.70024                                                                
G30  25058025.49024  -1219457.23624      2780.52624        23.70024  25057965.23223  -5265073.91923      2092.21523        18.50023
G06  22726499.07227    -88969.56627       665.35627        44.00027  22726497.27325    -74164.22025       502.47625        35.20025
R15  21293720.46408 113822801.02108      3012.02908        48.50008
E29  23785163.67407  -1808800.72907      -845.18407        45.70007  23785175.66625  -1358423.19125      -627.96525        34.10025
C21  22490434.09607    -42571.85207         9.34907        45.20007  22490441.59125   2050572.21025         7.95225        32.30025
R04  20516960.00426 109903078.60526      -968.33826        41.40026
E19  24830050.71406  -4810479.84806       649.36606        38.90006  24830055.81015  -4334669.17915       485.24615        30.70015
C26  24184425.17116   -248430.52216      2480.67116        37.80016  24184417.37623   -924194.97323      1862.05323        20.10023
R03  22886566.95906 122549262.28506     -2545.99806        38.00006
R14  20442427.40226 109005168.05126      -457.09926        37.50026
E26  25230583.93015  -4388200.84415     -3316.45915        34.60015  25230553.05224  -3567123.01324     -2474.39324        23.80024
C22  23524049.53926    122246.16826     -1978.17726        35.80026                                                                
R20  21503144.98225 115022620.09425      -742.24725        35.30025
C09  37878689.22925  -1781647.62325     -1005.29725        32.40025                                                                
R19  21857919.67725 116960784.00625     -4026.92625        32.80025
C06  38298348.90525        90.60825     -1326.57725        31.10025                                                                
E07  25989728.88525  -7676909.70125     -2310.13825        31.90025  25989792.14124  -5062788.23424     -1733.86024        26.70024
C34  24812041.58125  -3702832.26425     -2488.67925        31.90025  24812440.00524  -5569871.57524     -1873.62324        25.50024
R05  21360137.08524 114217801.79224       986.95524        29.10024
C16  39688218.21824     76061.86624     -1421.16024        29.40024                                                                
E33  24033070.45224  -2428364.87324     -1066.97724        27.70024  24033090.83723  -5525285.78723      -789.96223        18.60023
E21  28347234.11825  -6842532.32725      1906.60325        34.50025  28347240.11425  -4962210.84425      1422.73325        32.20025
C13  40108706.82024     53852.26424     -1267.43024        27.10024                                                                
R13  23674986.04825 126458695.28925     -3974.48325        34.00025
E27  26824778.29224  -4166807.73024      1497.96724        24.60024  26824765.10225  -5523778.91625      1118.90925        31.00025
R21  24034556.22324 128649429.85524      2022.77824        24.10024
E30  27386432.26723  -6448952.62823      -254.04423        21.70023                                                                
E12  26848904.39023  -5834787.51023      1573.70923        17.80023                                                                
> 2025 10 05 08 42 05.0000065  0 36                      
G04  21063323.36507     83587.82607     -1497.74907        45.60007  21063334.45725     54619.81125     -1117.62325        33.70025
G09  21046507.70607    -79270.90807       440.27907        44.10007  21046511.30326    -66804.38226       327.54126        35.90026
G06  22726378.55627    -89634.06527       663.30527        42.80027  22726383.05225    -74659.28925       491.68125        35.10025
G07  22401513.55526   -211171.99626      1887.70326        36.10026                                                                
G16  23014131.34825   -145265.66325       864.96625        29.50025                                                                
G30  25057505.95024  -1222235.66124      2777.06224        23.60024  25057425.60523  -5267175.25123      2107.33723        18.30023
G31  24922712.06524  -7936156.70024     -4312.87124        24.70024                                                                
G03  20699128.59117    114542.02117     -1989.95517        42.90017  20699138.78406  -3304803.00006     -1484.44506        41.00006
G01  23347214.26027    315965.65527     -4130.25627        42.10027  23347200.17023    227723.18523     -3104.80823        21.40023
G26  23948120.06124    110198.13624     -1837.92924        25.70024  23948069.09723  -5593444.09923     -1374.48123        18.50023
R15  21293166.74708 113819789.28608      3011.70308        48.40008
E29  23785328.85917  -1807954.76117      -846.40817        45.60017  23785346.24725  -1357791.33225      -633.46725        33.60025
C21  22490446.08807    -42579.58107         6.97407        45.20007  22490448.48625   2050565.59125         6.67925        31.50025
R04  20517145.27626 109904018.74126      -969.17126        41.10026
E19  24829932.59506  -4811128.61206       648.34106        39.10006  24829942.18905  -4335153.65905       484.20605        31.30005
R03  22887062.21706 122551861.10406     -2547.31306        37.90006
C26  24183954.49726   -250910.59826      2479.75326        37.80026  24183943.40424   -926057.72024      1862.24524        26.30024
R14  20442496.35426 109005483.05926      -467.47026        37.40026
E12  26848939.46625  -8118269.55625      1522.97925        33.90025                                                                
E26  25231208.39825  -4384882.01725     -3320.39225        34.40025  25231200.30324  -3564644.25624     -2482.17124        23.70024
C22  23524438.07026    124220.33926     -1973.14026        35.50026                                                                
C09  37878881.09625  -1780640.86025     -1007.65125        32.60025                                                                
R20  21503257.70425 115023169.45925      -744.12525        34.90025
R19  21858661.96325 116964702.07625     -4025.12225        32.80025
C34  24812529.34325  -3700341.17725     -2491.34025        31.60025  24812941.85824  -5567990.88724     -1884.45424        24.70024
C06  38298610.32425      1415.26525     -1324.41325        31.00025                                                                
R05  21360011.47224 114217076.71124       989.91424        29.20024
C16  39688481.73624     77478.36324     -1415.83224        29.30024                                                                
E33  24033309.08624  -2427296.50124     -1070.68724        27.90024  24033306.98822  -5524535.39122      -730.61222        15.60022
E21  28346893.55425  -6844438.40725      1904.91925        33.50025  28346890.85625  -4963626.78525      1412.53625        31.30025
C13  40108978.43224     55120.28024     -1269.61724        27.40024                                                                
R13  23675764.60925 126462799.02925     -3973.28525        32.70025
E27  26824498.28624  -4168304.12824      1496.02424        24.50024  26824491.09125  -5524890.08325      1108.07725        30.50025
R21  24034291.20624 128647959.76824      2028.43924        24.00024
E30  27386475.13823  -6448695.76723      -257.94423        21.70023                                                                
E07  25990185.46925  -7674597.09125     -2313.88325        31.60025  25990235.23524  -5061062.29724     -1723.71024        26.20024
> 2025 10 05 08 42 06.0000068  0 36                      
G07  22401123.82516   -213059.97816      1887.57316        37.30016                                                                
G04  21063595.57607     85084.56507     -1496.42407        45.40007  21063598.57425     55738.09125     -1118.41325        33.60025
G09  21046400.08007    -79711.33607       440.24207        44.00007  21046406.97626    -67132.98426       328.37726        35.50026
G03  20699490.74117    116529.63717     -1986.86317        42.90017  20699497.03606  -3303318.73506     -1484.35406        40.70006
G06  22726270.03127    -90299.77727       666.31827        41.80027  22726231.95725    -75155.42225       496.66525        34.30025
G26  23948413.85824    112034.67724     -1836.79724        25.60024  23948391.37423  -5592071.39323     -1371.81823        18.90023
G30  25056958.82824  -1225013.63124      2777.74324        23.50024  25056889.87623  -5269253.95223      2067.38623        18.10023
G31  24923508.01424  -7931839.06924     -4320.00924        24.40024                                                                
G16  23013946.97615   -146128.95715       863.29415        35.40015                                                                
G01  23347997.01826    320098.73226     -4134.27326        41.00026                                                                
R15  21292589.64708 113816811.18908      3012.32708        48.50008
E29  23785473.06007  -1807109.04407      -845.59107        45.50007  23785487.74925  -1357159.69325      -631.52825        33.60025
C21  22490415.80907    -42587.87007         8.57007        45.10007  22490427.20125   2050560.08225         4.95425        30.80025
R03  22887519.70006 122554414.73206     -2546.02906        38.50006
E19  24829795.89006  -4811777.55106       649.02606        39.40006  24829799.18805  -4335638.25605       484.65605        31.90005
R04  20517332.34626 109905126.67126      -969.89726        40.80026
C26  24183452.64416   -253391.68916      2481.59716        37.70016  24183446.94824   -927938.48424      1889.77324        25.40024
R14  20442599.48326 109006138.98526      -455.37926        37.20026
E26  25231786.99725  -4381565.46925     -3315.40825        34.30025  25231807.38324  -3562146.09524     -2507.86324        23.60024
C22  23524806.81525    126194.88525     -1974.73225        35.20025                                                                
C09  37879045.38325  -1779631.81825     -1010.18025        32.60025                                                                
R20  21503398.30715 115024027.17315      -744.44515        34.50015
R19  21859396.45525 116968737.25125     -4030.18625        32.70025
C34  24813022.20225  -3697848.15825     -2493.98425        31.50025                                                                
E12  26848629.18125  -8119790.09125      1521.10725        33.50025  26848642.37224  -6070892.81224      1134.32124        25.40024
C06  38298842.96325      2741.63825     -1327.23125        30.90025                                                                
E07  25990640.85425  -7672282.51525     -2315.55825        31.20025  25990653.74524  -5059339.66324     -1720.98224        25.70024
R05  21359805.21524 114216080.09224       992.89024        29.20024
E33  24033481.46724  -2426231.05224     -1063.98624        28.50024  24033458.98322  -5523805.85222      -765.88722        15.40022
C16  39688713.17624     78897.39124     -1420.29224        29.20024                                                                
E21  28346512.81825  -6846348.97025      1912.80325        32.60025  28346514.01725  -4965039.81625      1411.57525        30.60025
C13  40109219.16524     56390.56424     -1271.41824        27.50024                                                                
R13  23676493.70425 126466797.32925     -3981.17425        31.50025
E27  26824194.59624  -4169798.78724      1493.79024        24.40024  26824189.20025  -5526012.04325      1127.35625        30.00025
R21  24033894.58124 128645942.23624      2033.51824        23.90024
E30  27386497.92223  -6448439.02523      -256.68123        22.00023                                                                
> 2025 10 05 08 42 07.0000072  0 37                      
G07  22400770.36907   -214948.74307      1889.15607        44.20007                                                                
G09  21046331.42807    -80154.06307       443.87607        43.90007  21046333.22725    -67463.86325       332.01725        35.30025
G04  21063877.38127     86579.65027     -1495.00727        44.90027  21063893.87025     56849.53725     -1108.02725        33.30025
G06  22726123.73216    -90969.31416       671.44916        41.30016  22726116.53716    -75656.45416       503.48116        37.70016
G16  23013786.58726   -146991.58526       862.29526        36.80026                                                                
G01  23348780.07626    324228.80826     -4128.57326        40.00026                                                                
G26  23948773.90924    113864.55124     -1826.53924        25.60024  23948750.52523  -5590706.50123     -1360.98523        19.10023
G30  25056414.40523  -1227792.23523      2778.92023        23.40023  25056364.04023  -5271332.95523      2079.15223        17.90023
G31  24924346.23424  -7927521.38824     -4317.70424        24.10024                                                                
G03  20699880.47107    118515.75007     -1985.36107        42.90007  20699884.66806  -3301835.44506     -1482.80106        40.60006
R15  21292031.43328 113813774.98128      3013.03928        48.50028
E29  23785651.43617  -1806265.16317      -842.96417        45.40017  23785658.93115  -1356529.54315      -629.40515        33.60015
C21  22490436.49517    -42596.75217         9.17917        45.00017  22490437.09425   2050550.97725        10.90225        30.50025
R03  22888004.16407 122556956.09807     -2543.86707        42.10007
E19  24829674.17406  -4812428.31606       651.67806        39.50006  24829685.86605  -4336124.22805       486.66005        32.30005
C05  37234011.93026  -8052166.88626      -623.82526        40.90026                                                                
C26  24183028.13826   -255869.80326      2476.62526        37.50026                                                                
R04  20517517.91826 109906066.80426      -962.10826        40.10026
R14  20442705.60926 109006651.52926      -457.16826        37.00026
E33  24033691.02226  -2425165.97426     -1064.89426        35.50026  24033695.81922  -5523017.93122      -777.69222        15.80022
E26  25232363.49825  -4378251.48325     -3313.45325        34.20025  25232383.28523  -3559666.79223     -2469.87223        22.90023
C22  23525190.54925    128166.85725     -1970.68625        34.90025                                                                
R20  21503533.21405 115024695.89805      -742.65605        34.20005
C09  37879274.42425  -1778631.31425      -996.23525        32.60025                                                                
R19  21860160.32625 116972769.36425     -4030.74325        32.60025
C34  24813514.46125  -3695359.42525     -2486.58925        31.30025                                                                
E12  26848360.26725  -8121312.75625      1522.66525        33.10025  26848359.96724  -6072025.58824      1132.77524        28.70024
C06  38299105.58125      4062.59225     -1318.24425        30.70025                                                                
E07  25991065.36025  -7669971.68625     -2308.95525        30.90025  25991109.42924  -5057618.79824     -1719.98024        25.20024
R05  21359660.11524 114215251.74524      1002.63324        29.10024
C16  39688997.37924     80307.03424     -1404.94924        29.00024                                                                
C13  40109500.67024     57661.23424     -1270.86324        27.50024                                                                
E21  28346150.96825  -6848265.48225      1919.48625        31.80025  28346161.16125  -4966457.32625      1419.74925        29.80025
R13  23677202.71425 126470532.03125     -3979.48425        30.40025
E27  26823943.97024  -4171292.49424      1493.22924        24.30024  26823915.49024  -5527125.28224      1108.87724        29.40024
R21  24033512.94524 128643847.36624      2032.83024        23.80024
E30  27386569.57223  -6448185.26323      -252.27323        22.00023                                                                
> 2025 10 05 08 42 08.0000076  0 35                      
G07  22400419.01307   -216850.23407      1907.85307        44.10007                                                                
G03  20700263.60607    120489.64707     -1967.78807        42.90007  20700270.80106  -3300361.30006     -1469.57206        40.50006
G06  22725990.32406    -91649.70806       685.82306        41.10006  22725997.22006    -76165.01906       512.33106        38.50006
G16  23013608.51016   -147868.24216       883.67116        37.80016                                                                
G04  21064168.48017     88062.67517     -1476.74517        43.90017  21064187.96625     57949.89825     -1094.81925        32.90025
G01  23349600.00826    328349.16426     -4115.49426        38.90026                                                                
G26  23949154.64524    115678.03124     -1805.28224        25.60024  23949099.18423  -5589349.98623     -1352.32623        19.00023
G30  25055887.37023  -1230582.99223      2796.83223        23.30023                                                                
G09  21046252.58307    -80609.10807       461.20407        43.80007  21046255.88026    -67804.33326       345.26626        35.60026
R15  21291480.11518 113810773.93418      3033.03618        48.70018
E29  23785822.31807  -1805433.77307      -825.14307        45.30007  23785827.71425  -1355911.85825      -611.45225        33.50025
R03  22888487.73007 122559489.80507     -2526.02507        44.00007
C21  22490437.99407    -42618.98707        28.91107        44.90007  22490443.39025   2050533.05125        22.33725        30.20025
E19  24829565.05006  -4813091.26606       669.04306        39.90006  24829569.24705  -4336619.43405       499.82205        32.80005
C05  37234145.93726  -8051557.21126      -609.67526        40.60026                                                                
C26  24182600.03426   -258366.13926      2505.44626        37.40026                                                                
R14  20442798.54526 109007092.36926      -438.86226        36.80026
R04  20517710.98426 109907045.23926      -947.49026        39.40026
E33  24033883.48925  -2424117.12825     -1040.72925        35.40025  24033907.47223  -5522241.84823      -770.16523        18.20023
E26  25233038.33125  -4374947.98925     -3297.24725        34.20025  25233027.53923  -3557199.38423     -2461.45923        22.40023
C22  23525580.28015    130125.34815     -1951.74915        34.60015                                                                
R20  21503687.90705 115025467.91305      -724.96805        34.00005
R19  21860926.59525 116976813.72225     -4009.11125        32.60025
C09  37879474.68525  -1777647.28725      -975.78825        32.50025                                                                
C34  24814003.12325  -3692881.56925     -2472.41725        31.20025                                                                
C06  38299371.79725      5369.68125     -1300.15625        30.60025                                                                
E07  25991536.63425  -7667673.30525     -2292.15625        30.60025  25991560.61724  -5055891.56924     -1730.41024        24.80024
R05  21359457.15624 114214112.85524      1015.58924        29.00024
C16  39689251.90324     81704.45624     -1391.31124        28.80024                                                                
C13  40109753.39624     58918.17624     -1250.07624        27.40024                                                                
E21  28345824.79425  -6850191.61525      1930.94225        31.00025  28345804.40824  -4967884.31824      1431.73224        29.10024
R13  23677994.46625 126474705.29925     -3964.40125        29.50025
E27  26823686.14824  -4172795.35524      1507.43824        24.20024                                                                
R21  24033124.11424 128641712.67324      2051.34224        23.70024
E30  27386602.55023  -6447940.69323      -239.97423        22.00023                                                                
> 2025 10 05 08 42 09.0000079  0 35                      
G06  22725836.83117    -92343.17917       700.01017        43.60017  22725843.72606    -76683.04706       522.75906        38.10006
G09  21046144.35707    -81077.34107       474.82707        43.80007  21046147.95515    -68154.00215       354.26915        35.40015
G03  20700619.75907    122449.96607     -1953.53007        42.90007  20700623.05707  -3298897.33707     -1458.87207        44.10007
G07  22400039.77507   -218766.81807      1924.12907        43.90007                                                                
G04  21064437.99307     89531.38807     -1461.55607        43.10007  21064442.19025     59037.42625     -1081.11025        31.70025
G16  23013413.94526   -148755.70026       892.85926        38.10026                                                                
G26  23949445.44424    117471.80624     -1783.92224        25.50024  23949415.46523  -5588009.72723     -1332.13123        19.00023
G01  23350364.47926    332451.23726     -4092.93126        37.90026  23350314.11424  -6304419.92524     -3059.83824        23.80024
G30  25055298.87823  -1233394.26323      2821.52823        23.20023                                                                
R15  21290893.12108 113807744.59808      3048.39908        48.70008
E29  23785954.82607  -1804616.19407      -810.67407        45.30007  23785962.92125  -1355306.18625      -599.66725        33.40025
R03  22888936.51907 122561999.00207     -2511.75907        44.90007
C21  22490413.11107    -42655.12807        43.09407        44.80007  22490413.71125   2050499.52225        41.33125        29.80025
E19  24829414.55406  -4813767.62006       683.05606        40.00006  24829421.44905  -4337124.44905       509.92005        32.90005
C05  37234239.47226  -8050963.52526      -585.69026        40.20026                                                                
C26  24182105.67726   -260877.05426      2518.20426        37.30026  24182010.34324  -6238617.26224      1881.86724        26.90024
E26  25233756.33425  -8452695.45225     -3279.57825        34.10025  25233631.32123  -3554750.81523     -2439.14923        22.00023
R14  20442852.80726 109007488.97526      -426.61426        36.60026
R04  20517857.28326 109907936.33126      -934.19126        38.80026
E33  24034066.36225  -2423080.75225     -1030.14125        35.30025  24034072.05823  -5521481.75523      -752.09723        18.00023
C22  23525929.23825    132073.79425     -1943.42325        34.40025  23525967.01224  -6012200.80424     -1475.13124        28.20024
R20  21503808.42315 115026220.03615      -713.23415        33.90015
R19  21861670.68025 116980901.70825     -3989.62725        32.50025
C09  37879648.86525  -1776672.35325      -970.38625        32.50025                                                                
C34  24814454.01125  -3690418.82825     -2455.18225        31.20025                                                                
C06  38299606.83425      6660.07225     -1282.04225        30.50025                                                                
E07  25991946.75025  -7665390.54425     -2274.95025        30.30025  25991974.63024  -5054182.20824     -1700.42724        24.50024
R05  21359190.64024 114212794.99224      1029.57124        28.90024
C16  39689512.12324     83088.66024     -1377.59624        28.60024                                                                
E21  28345411.38025  -6852133.42025      1949.64125        30.30025  28345416.17724  -4969329.03624      1453.58124        28.40024
C13  40109966.24824     60150.83224     -1220.51324        27.20024                                                                
R13  23678797.61024 126479100.14224     -3935.15324        28.60024
E27  26823372.86524  -4174316.07524      1529.64924        24.20024                                                                
R21  24032723.59224 128639676.74924      2065.19624        23.60024
E30  27386667.30523  -6447715.05323      -216.17423        21.90023                                                                
> 2025 10 05 08 42 10.0000082  0 35                      
G06  22725714.51507    -93048.64307       711.46007        44.40007  22725706.72126    -77211.58326       533.79026        37.30026
G03  20700987.60417    124397.69417     -1941.43217        43.40017  20700992.10107  -3297442.94807     -1449.60007        43.90007
G09  21046049.92307    -81558.05607       486.95707        43.70007  21046055.31905    -68513.85905       364.95105        35.30005
G07  22399675.82727   -220702.34127      1944.99227        43.60027                                                                
G04  21064704.80807     90985.20107     -1446.36307        42.60007  21064718.29925     60115.29625     -1073.04125        31.40025
G16  23013244.56226   -149655.02026       905.25226        38.10026                                                                
G26  23949771.31824    119251.52924     -1772.69624        25.70024  23949750.03323  -5586686.93423     -1314.05823        18.90023
G30  25054756.55323  -1236227.93323      2844.86823        23.10023                                                                
G01  23351134.04626    336541.26426     -4084.00426        37.20026  23351093.27524  -6301361.02624     -3058.89824        23.70024
R15  21290315.12208 113804664.02608      3068.45908        48.60008
E29  23786098.72707  -1803812.54507      -796.68407        45.30007  23786115.21525  -1354707.66625      -594.94325        33.30025
R03  22889402.39607 122564501.30307     -2502.65507        44.80007
C21  22490400.81907    -42704.44807        55.91007        44.70007  22490396.32325   2050442.81025        68.30325        29.60025
E19  24829302.73106  -4814456.79306       694.83206        40.20006  24829289.24125  -4337641.28825       522.75025        32.80025
C05  37234343.50026  -8050384.16326      -572.20126        39.90026                                                                
C26  24181612.21816   -263397.95316      2525.89016        37.20016  24181523.77924  -6240508.69224      1891.42924        26.40024
R14  20442951.43926 109008022.10326      -415.41126        36.50026
R04  20518044.95326 109908949.24126      -917.92226        38.20026
E26  25234401.18815  -8449420.47115     -3274.48015        34.50015  25234253.69023  -3552314.48123     -2430.21623        21.60023
E33  24034271.72015  -2422059.01815     -1014.41215        35.10015  24034296.30323  -5520718.13823      -765.38023        19.40023
R20  21503933.43705 115026896.40705      -701.94405        33.80005
C22  23526303.67925    134006.70725     -1925.14625        34.20025  23526288.38924  -6010745.60624     -1445.23124        26.90024
C09  37879815.25015  -1775710.13015      -955.86815        32.60015                                                                
R19  21862412.66725 116984878.70925     -3977.28725        32.60025
C34  24814901.30125  -3687966.36025     -2447.33125        31.10025                                                                
C06  38299852.06425      7940.21225     -1275.01325        30.30025                                                                
R05  21358967.89424 114211612.50424      1036.25724        28.80024
C16  39689772.94224     84457.67424     -1361.41824        28.50024                                                                
E21  28345046.83225  -6854094.59825      1970.86425        29.70025  28345035.44024  -4970792.34124      1472.59724        27.70024
C13  40110199.18724     61365.95724     -1206.36024        27.10024                                                                
R13  23679537.49724 126483059.47324     -3923.38324        27.90024
E27  26823098.55524  -4175855.87324      1549.33624        24.10024                                                                
R21  24032333.56224 128637596.41624      2080.91324        23.50024
E30  27386708.67623  -6447505.75223      -201.13223        21.90023                                                                
E07  25992396.13925  -7663123.66425     -2258.93825        30.10025  25992398.53724  -5052493.35424     -1678.59924        24.10024
> 2025 10 05 08 42 11.0000086  0 35                      
G03  20701364.44407    126330.62107     -1925.52607        43.60007  20701369.54007  -3295999.79407     -1437.53707        42.80007
G09  21045968.07907    -82053.19407       502.34807        43.60007  21045971.67725    -68881.79925       371.98225        35.10025
G06  22725593.99907    -93767.75407       725.93407        44.20007  22725580.80826    -77751.63226       545.80626        36.30026
G04  21064997.70617     92424.57917     -1432.15817        42.10017  21065003.40225     61189.71425     -1072.69225        31.40025
G07  22399360.74527   -222651.32227      1955.71027        42.10027                                                                
G01  23351864.94026    340613.65926     -4063.57626        36.50026                                                                
G26  23950107.98524    121020.34924     -1763.36824        26.00024  23950098.99123  -5585373.31123     -1309.03823        18.80023
G30  25054216.62723  -1239079.71723      2860.84023        23.00023                                                                
G16  23013075.77926   -150568.94226       921.22226        38.00026                                                                
R15  21289744.61608 113801562.84308      3082.98208        48.50008
E29  23786258.21607  -1803023.45207      -781.81507        45.20007  23786274.70525  -1354120.80225      -581.03525        33.20025
C21  22490401.71907    -42769.03707        72.22407        44.60007  22490397.82224   2050377.66024        69.37024        29.30024
R03  22889883.56307 122567024.28207     -2485.12607        44.70007
E19  24829186.11226  -4815157.79826       707.17026        40.10026  24829169.92325  -4338171.46825       536.85125        32.70025
C05  37234463.41726  -8049823.62126      -551.13126        39.60026                                                                
C26  24181147.24006   -265932.66806      2541.62206        37.20006  24181049.80824  -6242407.95324      1903.17624        26.00024
E26  25235023.85725  -8446159.07025     -3254.86025        35.20025  25234882.05523  -3549878.69823     -2435.50623        21.20023
R14  20443043.77526 109008462.93826      -398.77726        36.30026
R04  20518207.14126 109909765.24226      -903.31026        37.70026
C09  37880005.31825  -1774761.29825      -942.13525        33.30025                                                                
E33  24034485.77225  -2421051.08725     -1001.03025        34.80025  24034496.26424  -5519965.31924      -747.41924        29.30024
R20  21504096.82415 115027717.39015      -683.97115        33.60015
R19  21863163.64725 116988844.23225     -3962.92125        32.80025
C22  23526680.21815    135923.74115     -1909.09415        34.00015  23526667.62724  -6009304.89424     -1433.46824        25.90024
C34  24815378.27125  -3685526.08025     -2434.18425        31.10025                                                                
C06  38300121.87725      9203.97125     -1255.56925        30.30025                                                                
E07  25992803.25725  -7660870.43725     -2246.40125        30.00025  25992831.73724  -5050821.99524     -1662.61224        23.80024
R05  21358776.02724 114210534.79724      1064.66724        28.70024
C16  39690042.45524     85807.38424     -1340.05824        28.30024                                                                
E21  28344700.57224  -6856070.83224      1983.76024        29.10024  28344666.69624  -4972271.93024      1487.73024        27.00024
C13  40110448.91424     62569.53724     -1197.80624        26.90024                                                                
R13  23680326.25124 126487218.22524     -3919.49024        27.30024
R21  24031993.59723 128635725.11423      2097.54223        23.40023
E30  27386798.31423  -6447309.85023      -189.20223        21.90023                                                                
E27  26822920.77824  -4177410.19324      1561.58124        24.30024                                                                
> 2025 10 05 08 42 12.0000090  0 36                      
G03  20701733.78817    128248.81617     -1910.82817        43.60017  20701745.18007  -3294567.03407     -1427.56207        42.40007
G09  21045879.64107    -82561.85907       515.42807        43.60007  21045885.33725    -69262.02525       386.36825        34.80025
G06  22725452.79627    -94499.76227       738.45627        43.90027  22725453.99626    -78298.12826       549.71926        35.70026
G04  21065272.91527     93849.82227     -1418.17627        41.70027  21065285.80625     62253.84325     -1058.98525        31.90025
G07  22399002.49327   -224613.62927      1968.96827        41.50027                                                                
G01  23352708.85626    344673.25126     -4053.18926        35.80026                                                                
G26  23950455.74524    122776.01824     -1749.09324        26.50024  23950440.75523  -5584063.81323     -1307.43523        18.80023
G30  25053696.18723  -1241947.08723      2875.16323        22.90023                                                                
G16  23012914.79116   -151497.02616       935.16416        38.10016                                                                
R15  21289177.40908 113798476.94008      3096.81008        48.40008
E29  23786421.00307  -1802247.80607      -768.92307        45.10007  23786432.99525  -1353543.00325      -573.26725        33.10025
C21  22490391.22607    -42847.84407        85.91507        44.50007  22490396.92224   2050316.04124        59.85324        29.00024
C05  37234584.23416  -8049272.56916      -546.30816        39.30016                                                                
C26  24180639.09226   -268485.42426      2561.77526        37.10026  24180557.24924  -6244316.82424      1913.67424        25.50024
R04  20518390.31426 109910692.34626      -889.43626        37.40026
E26  25235640.82925  -8442911.99825     -3240.65525        35.20025  25235508.62123  -3547453.22423     -2420.31923        20.80023
R03  22890369.52727 122569571.77427     -2470.46027        43.60027
R14  20443098.93726 109008702.42326      -381.54426        36.10026
C09  37880185.49315  -1773826.46115      -927.84015        34.30015                                                                
C22  23527053.16015    137827.78215     -1897.54415        33.90015  23527037.27124  -6007873.56424     -1426.63824        25.80024
E33  24034694.42725  -2420057.87725      -985.84925        34.60025  24034694.72724  -5519220.29624      -741.12524        29.00024
E27  26822632.67825  -4178970.84225      1563.81325        33.20025                                                                
R19  21863895.74025 116992704.89625     -3943.19125        32.90025
R20  21504220.33825 115028323.37225      -670.71325        33.50025
E19  24829068.29416  -4815874.18216       724.07416        39.40016  24829044.01115  -4338706.61715       537.63415        32.40015
C34  24815832.15725  -3683099.04525     -2420.41325        31.00025                                                                
C06  38300346.42225     10455.46425     -1245.35925        30.20025                                                                
C16  39690308.67124     87146.90024     -1334.41824        28.30024                                                                
R05  21358560.47624 114209327.07524      1075.01224        28.60024
E21  28344277.56524  -6858057.03224      1991.18224        28.60024                                                                
C13  40110680.05424     63762.20924     -1187.21724        26.70024                                                                
R13  23681153.37924 126491581.74324     -3908.86824        26.80024
R21  24031615.55923 128633647.08323      2109.56223        23.40023
E30  27386845.68123  -6447126.23523      -177.47123        21.90023                                                                
E12  26846847.21423  -8507704.38823      1609.17623        20.70023                                                                
E07  25993248.14925  -7658631.06225     -2232.44825        30.00025  25993189.98924  -5049152.55324     -1668.48224        27.10024
> 2025 10 05 08 42 13.0000093  0 36                      
G03  20702094.43807    130155.21707     -1899.75407        43.70007  20702105.83007  -3293143.76707     -1418.52107        42.00007
G09  21045776.81207    -83083.44807       528.05107        43.50007  21045784.90625    -69650.79125       393.03525        34.50025
G06  22725313.39317    -95243.59017       749.73817        43.60017  22725308.59625    -78853.73325       560.15925        35.40025
G04  21065548.42416     95261.92416     -1405.53016        41.40016  21065552.62116     63308.32516     -1049.65716        37.00016
G07  22398644.84126   -226585.01026      1975.91826        41.10026                                                                
G16  23012733.41626   -152436.40126       945.02126        38.30026                                                                
G01  23353500.60825    348718.60425     -4038.23325        35.30025                                                                
G26  23950794.51024    124520.61524     -1739.06024        27.00024  23950773.52523  -5582764.04323     -1294.90623        18.80023
G30  25053143.96923  -1244826.62023      2885.61223        22.80023                                                                
R15  21288600.00908 113795401.74008      3109.52608        48.40008
E29  23786570.00007  -1801485.47607      -755.67107        44.90007  23786576.59625  -1352975.37125      -562.54725        33.10025
C21  22490376.83617    -42938.53017        96.62617        44.30017  22490379.83424   2050246.56824        73.40024        28.80024
C05  37234682.26606  -8048735.19006      -530.54106        39.20006                                                                
E27  26822529.84925  -8841300.81125      1584.53125        34.30025  26822549.93525  -6609397.40525      1176.77425        33.00025
C26  24180059.89316   -271053.39116      2575.57216        37.00016  24180070.68524  -6246239.19124      1929.11524        25.10024
R04  20518540.81026 109911507.58026      -877.99426        37.20026
E19  24828935.18626  -4816603.54826       735.85626        38.10026  24828904.00705  -4339251.73105       550.09705        32.00005
C09  37880354.27605  -1772905.06905      -914.67005        34.80005                                                                
R14  20443153.20016 109009000.63516      -373.97416        36.00016
E26  25236214.03325  -8439676.54125     -3229.40025        35.20025  25236122.29623  -3545037.27823     -2411.18123        20.50023
C22  23527412.01225    139719.18125     -1885.07825        33.90025  23527400.02024  -6006448.96024     -1421.24224        25.30024
R03  22890844.39827 122572122.32927     -2458.50727        42.20027
E33  24034871.30525  -2419076.72525      -975.12225        34.40025  24034880.89824  -5518484.27924      -731.51424        28.60024
R19  21864640.42425 116996698.73625     -3931.92725        32.90025
R20  21504350.44825 115029029.58425      -663.87925        33.40025
C34  24816293.83725  -3680685.90525     -2406.19125        30.90025                                                                
E07  25993640.27725  -7656406.03025     -2217.85825        29.90025  25993615.69414  -5047488.44314     -1661.44314        26.20014
C06  38300614.43625     11696.32425     -1235.54525        30.20025                                                                
C16  39690558.69824     88472.04124     -1317.95224        28.30024                                                                
R05  21358338.63024 114208151.47424      1087.79824        28.50024
E21  28343944.49624  -6860058.10524      2008.51024        28.20024                                                                
C13  40110937.57624     64939.43724     -1169.50624        26.50024                                                                
R13  23681883.07324 126495486.82624     -3897.78624        26.40024
R21  24031219.53323 128631538.42623      2118.20723        23.30023
E30  27386876.56023  -6446953.93123      -166.64923        22.00023                                                                
E12  26846542.32523  -8509322.40323      1618.01523        20.50023                                                                
> 2025 10 05 08 42 14.0000096  0 36                      
G03  20702437.40107    132053.34007     -1894.23307        43.70007  20702447.59407  -3291726.41807     -1414.39007        41.70007
G09  21045654.19707    -83612.89007       533.36807        43.40007  21045664.39025    -70046.24825       398.80325        33.80025
G04  21065792.45506     96666.30006     -1400.51206        41.20006  21065800.55006     64357.42906     -1046.41406        36.40006
G07  22398238.62226   -228565.26326      1984.68826        40.70026                                                                
G16  23012559.83626   -153383.55026       951.03526        38.30026                                                                
G01  23354304.95115    352753.85415     -4030.19715        34.90015                                                                
G30  25052567.16923  -1247709.48123      2884.52523        22.80023                                                                
G06  22725150.90507    -95995.80507       756.40807        43.30007  22725147.30825    -79415.34725       564.61825        35.20025
G26  23951100.89824    126256.27824     -1731.19624        27.30024  23951092.50423  -5581455.50523     -1312.92223        18.80023
R15  21287992.03008 113792259.25808      3114.83408        49.10008
E29  23786688.41807  -1800731.05807      -750.46307        44.80007  23786700.41025  -1352412.61825      -560.31425        33.00025
C21  22490337.56307    -43037.09607       102.50607        44.10007  22490339.66224   2050171.85824        77.32924        28.70024
C05  37234762.01116  -8048205.88116      -525.27416        39.00016                                                                
E19  24828791.28516  -4817340.81116       741.96216        37.90016  24828744.21805  -4339802.88805       554.17705        31.50005
C26  24179537.35506   -273630.04906      2581.00206        36.90006  24179557.74024  -6248170.04524      1935.09824        24.60024
R04  20518683.21126 109912376.45426      -868.04426        37.00026
R14  20443240.43906 109009571.14706      -370.45206        35.80006
C09  37880528.75615  -1771991.66415      -909.41115        34.90015                                                                
E26  25236770.14825  -8436451.99925     -3219.08325        35.10025  25236716.18523  -3542624.18423     -2411.66823        20.20023
C22  23527750.77725    141601.32925     -1877.52225        34.10025  23527741.18424  -6005030.89824     -1414.79024        25.20024
R03  22891292.88826 122574629.23226     -2456.05926        40.80026
E33  24035032.89325  -2418104.13225      -968.31325        34.20025  24035045.18424  -5517756.04424      -724.34424        28.50024
R19  21865406.39415 117000901.53315     -3930.85315        32.90015
R20  21504478.75925 115029820.73025      -651.59325        33.30025
E27  26822206.37325  -8842883.60225      1582.79025        34.00025  26822230.05725  -6610573.84325      1176.43725        32.90025
C34  24816738.13025  -3678283.78325     -2396.61225        30.90025                                                                
C06  38300820.69425     12929.85825     -1229.87025        30.10025                                                                
E07  25994083.97025  -7654187.46525     -2215.33225        29.90025  25994019.21524  -5045827.75224     -1658.98124        25.40024
C16  39690797.03324     89791.82924     -1317.11224        28.20024                                                                
R05  21358205.52224 114207544.93424      1094.57124        28.40024
C13  40111159.42224     66109.61024     -1166.64624        26.30024                                                                
R13  23682581.29024 126499321.61824     -3891.42424        26.00024
R21  24030735.96823 128629056.89223      2125.25623        23.20023
E30  27386902.04223  -6446785.85923      -165.95523        22.10023                                                                
E12  26846229.04223  -8510950.85423      1633.66723        20.40023                                                                
E21  28343495.10724  -6862067.19324      2013.09424        27.80024                                                                
> 2025 10 05 08 42 15.0000099  0 36                      
G03  20702798.05107    133948.68807     -1893.95907        43.70007  20702806.74506  -3290310.50606     -1415.19306        41.30006
G09  21045556.76407    -84145.04307       533.50907        43.30007  21045561.26125    -70445.45225       401.07825        33.50025
G06  22725003.10817    -96750.32017       755.66517        43.00017  22725002.80826    -79978.59726       564.06726        36.00026
G04  21066059.57006     98068.42806     -1401.00406        41.00006  21066064.96706     65404.49906     -1046.05306        37.60006
G01  23355062.22725    356785.76125     -4030.23525        34.60025                                                                
G16  23012375.46426   -154334.33626       952.60426        37.90026                                                                
G26  23951427.07224    127989.49324     -1731.99024        27.60024  23951421.07623  -5580156.90523     -1293.63023        18.80023
G30  25051998.76223  -1250593.38123      2884.41923        22.70023                                                                
G07  22397838.99916   -230550.58616      1987.85716        40.30016                                                                
R15  21287409.83308 113789157.29708      3113.82308        49.40008
E29  23786838.01507  -1799979.28607      -749.69807        44.60007  23786839.81325  -1351851.87425      -559.73925        33.00025
C21  22490313.58017    -43138.62117       103.00517        43.90017  22490315.97824   2050096.86324        75.13824        28.40024
C05  37234861.54216  -8047679.45716      -524.98016        38.90016                                                                
E19  24828640.79006  -4818081.33406       741.90206        37.80006  24828604.21515  -4340355.65415       553.57115        31.00015
R04  20518899.36226 109913543.37826      -866.72126        36.80026
C26  24179057.68726   -276205.95126      2575.52426        36.70026  24179060.38524  -6250110.33524      1945.00724        24.30024
C22  23528090.74225    143481.00925     -1878.44425        34.90025  23528100.93524  -6003613.71724     -1416.74024        26.30024
E26  25237395.21525  -8433232.15725     -3217.49025        35.10025  25237329.26123  -3540209.98923     -2414.74423        19.80023
R14  20443323.48206 109010023.43506      -370.30806        35.70006
C09  37880697.53915  -1771081.57815      -908.42715        34.90015                                                                
R03  22891749.47226 122577082.51726     -2447.31726        39.70026
R19  21866089.02215 117004562.42615     -3928.92715        32.80015
E33  24035203.77525  -2417130.74325      -973.78825        34.00025  24035226.85924  -5517023.24324      -735.08324        27.80024
R20  21504590.28225 115030426.71325      -656.78525        33.10025
E27  26821915.87425  -8844465.96825      1582.15325        33.60025  26821928.76525  -6611754.29325      1182.45625        32.80025
C34  24817189.61725  -3675880.00725     -2404.60225        30.80025                                                                
C06  38301060.82725     14157.21925     -1224.27525        30.10025                                                                
E07  25994450.01725  -7651974.41825     -2210.28825        29.90025  25994450.01724  -5044165.95624     -1662.34924        24.80024
C16  39691059.95124     91105.98524     -1311.33924        28.90024                                                                
R05  21358048.13124 114206712.76224      1095.61124        28.30024
E21  28343075.09724  -6864084.53124      2021.46324        27.40024                                                                
C13  40111355.78624     67277.33724     -1166.50324        26.10024                                                                
R13  23683269.31424 126503005.12624     -3888.44224        25.60024
R21  24030270.09023 128626572.30223      2121.29423        23.20023
E30  27386926.92523  -6446618.16323      -167.50823        22.10023                                                                
E12  26845937.94423  -8512576.23123      1623.84023        20.50023                                                                
