     4.01           OBSERVATION DATA    M                   RINEX VERSION / TYPE
GnssLogger          samsung 15          20251005 084850 UTC PGM / RUN BY / DATE
Google GnssLogger                                           MARKER NAME
Unknown                                                     MARKER NUMBER
Unknown             Unknown                                 OBSERVER / AGENCY
Unknown             GnssLogger          v3.1.1.1            REC # / TYPE / VERS
Unknown             Unknown                                 ANT # / TYPE
        0.0000        0.0000        0.0000                  ANTENNA: DELTA H/E/N
G    8 C1C L1C D1C S1C C5Q L5Q D5Q S5Q                      SYS / # / OBS TYPES
R    4 C1C L1C D1C S1C                                      SYS / # / OBS TYPES
C    8 C2I L2I D2I S2I C5P L5P D5P S5P                      SYS / # / OBS TYPES
E    8 C1C L1C D1C S1C C5Q L5Q D5Q S5Q                      SYS / # / OBS TYPES
  2025    10    05    08    48   50.0000000     GPS         TIME OF FIRST OBS
 9 R03  5 R04  6 R05  1 R13 -2 R14 -7 R15  0 R19  3 R20  2  GLONASS SLOT / FRQ #
   R21  4                                                   GLONASS SLOT / FRQ #
samsung SM-S711B (Android 15) HW Year: 2021 HW Model:       COMMENT
S.LSI,K040,SPOTNAV_4.6.2_7_E23                              COMMENT
                                                            END OF HEADER
> 2025 10 05 08 48 50.0000000  0 31                      
G04  21133153.72207    -27739.18707     -1765.16707        45.70007  21133163.31526    -28394.72326     -1318.67326        35.60026
G07  22213456.44427    -48771.66727      1540.93827        42.50027                                                                
G01  23619255.23026    -11136.48926     -4372.64826        35.80026  23619135.61325   2073647.30525     -3263.83525        32.70025
G06  22636797.27115    -40345.41415       208.84015        33.60015  22636806.56506   2052537.41506       156.48206        39.20006
G09  20967746.23125    -39939.76925       155.63625        33.10025  20967763.32024    -37429.14324       105.84624        28.10024
G03  20811734.83624   -218758.31324     -2381.27524        27.30024                                                                
G16  22908045.59025    -80063.95725       440.95725        30.80025                                                                
G30  24797073.54324   -168096.32324      2522.48824        26.10024                                                                
G26  24050232.37125   -347440.41425     -2272.08425        30.80025                                                                
C21  22444014.83207    -37072.73107      -251.61807        47.00007  22444021.72706   2054645.03706      -189.66106        40.70006
R03  23033685.31107 123303524.47507     -2806.91707        46.20007
R14  20443145.70527 108975863.55427     -1026.35827        45.00027
E29  23804185.20507    -51121.60107     -1091.72407        43.70007  23804183.70706   2029075.28406      -815.20506        41.20006
E33  24074992.52927   -183650.98027     -1467.26327        43.10027  24074990.13106   -144951.55806     -1096.25506        37.90006
C16  39751029.83506    -27662.25106     -1631.47906        41.30006                                                                
R04  20544695.00426 110018312.68126     -1241.61226        41.20026
R15  21023630.84306 112346307.39406      2621.07006        38.00006
R19  22120941.39116 118334521.87616     -4376.37416        37.70016
C22  23632546.22927    -24368.47827     -2241.83127        42.00027  23632537.23525   2056629.80225     -1691.01925        32.40025
C26  23946290.12806    -52012.79406      2193.41806        35.80006  23946214.58104   2036309.30304      1652.61804        27.60004
E19  24734129.71806    -50901.66606       392.41406        36.60006  24734133.61625   2037103.98525       292.16525        30.20025
C34  24962171.94826    -20246.64426     -2787.81226        35.70026  24962166.25226   2059092.67726     -2103.63726        35.80026
R05  21237539.05805 113529217.45205       763.16505        33.10005
C06  38354684.40525    -28109.60125     -1551.95725        34.70025                                                                
C13  40161394.44525    -38589.52025     -1521.36125        30.20025                                                                
C36  24852035.99325    -29224.51625     -3015.18125        29.80025  24851943.95724   2044954.62324     -2270.99424        26.50024
E26  25442363.91824    -25822.10324     -3604.16424        27.60024                                                                
E27  26664848.60924   -196638.38324      1204.65524        27.60024  26664792.24824   -218483.05824       897.77124        26.40024
E21  28149320.73124    -68865.82924      1763.23224        24.50024  28149130.06324   2016838.35124      1315.38024        24.90024
R21  23842587.12023 127588901.66323      1553.01923        21.70023
E07  26120277.70825    -32727.09125     -2511.47125        32.20025  26120303.79025   2042594.94525     -1874.68325        32.20025
> 2025 10 05 08 48 51.0000005  0 33                      
G04  21133472.40107    -25976.79807     -1758.54807        46.30007  21133487.39126    -27076.39226     -1316.44526        35.60026
G07  22213158.15117    -50312.56717      1543.76017        42.20017                                                                
G01  23620079.35916     -6766.30716     -4366.47916        35.70016  23619952.54715   2076910.70215     -3261.07915        31.90015
G09  20967718.05125    -40096.56825       159.92825        33.10025  20967722.84824    -37543.78724       119.25524        27.70024
G06  22636771.18925    -40557.57125       215.81625        33.50025  22636747.20606   2052378.52506       161.69306        38.70006
G16  22907971.84125    -80506.94525       446.80025        30.80025                                                                
G26  24050751.31125   -345169.29325     -2268.41025        30.60025                                                                
G03  20812180.32724   -216379.52424     -2375.62224        28.30024                                                                
G30  24796596.57324   -170623.46324      2530.44624        26.60024                                                                
C21  22444052.60607    -36823.79607      -245.17407        47.40007  22444054.70406   2054832.70706      -184.87206        40.30006
R03  23034186.26507 123306286.43207     -2800.71107        46.10007
E29  23804376.47307    -50032.65507     -1085.08807        44.40007  23804374.97406   2029888.60106      -810.53206        40.00006
C16  39751331.12606    -26033.66606     -1624.66606        41.20006                                                                
R04  20544880.87516 110019389.18916     -1230.43616        41.00016
R15  21023097.21306 112343535.72706      2627.36506        38.30006
C22  23632958.74326    -22126.74026     -2238.98626        41.30026  23632953.94625   2058321.60325     -1690.37525        31.50025
R14  20443346.26617 108977012.19417     -1025.25317        44.10017
C11  24443964.19626   -645263.46726     -1927.95526        36.50026                                                                
R19  22121765.82006 118339012.45406     -4364.55606        37.60006
C26  23945848.23406    -54208.60506      2199.42706        36.40006  23945769.98805   2034654.36605      1657.83405        30.50005
E19  24734028.08906    -51297.33306       399.70506        36.50006  24734039.78125   2036810.24625       295.97025        30.10025
C34  24962689.69016    -17460.38716     -2782.84916        35.70016  24962685.79226   2061192.26126     -2096.05226        36.60026
R05  21237350.48825 113528289.66925       772.71425        33.20025
C06  38354969.20725    -26559.83925     -1546.26425        34.40025                                                                
E33  24075268.93827   -182183.52527     -1465.13227        42.30027  24075251.55006   -143857.67706     -1090.96906        37.30006
C13  40161700.83325    -37072.04325     -1512.90925        30.40025                                                                
C36  24852623.88625    -26212.07925     -3009.15925        29.70025  24852507.56724   2047226.46024     -2270.37124        25.90024
E26  25443038.15124    -22217.55124     -3600.83224        27.60024                                                                
E27  26664541.02224   -197843.15424      1206.84624        27.50024  26664547.91824   -219384.43024       904.51224        26.00024
R13  23937594.34824 127827895.26324     -4366.51424        24.00024
E21  28148980.76624    -70630.38124      1766.53024        24.50024  28148775.70824   2015522.52024      1317.92324        24.80024
R21  23842254.05123 127587199.57223      1562.55823        21.70023
E07                                                                  26120767.86925   2044469.60125     -1872.54525        31.40025
> 2025 10 05 08 48 52.0000010  0 33                      
G04  21133808.46907    -24222.20107     -1750.70007        46.40007  21133826.45626    -25765.61026     -1307.00726        35.50026
G07  22212882.04207    -51860.64407      1551.66507        42.00007                                                                
G01  23621004.51926     -2407.41626     -4353.24526        35.50026  23620782.97205   2080168.18405     -3254.52305        31.00005
G06  22636755.00115    -40777.37715       223.63015        33.50015  22636706.73416   2052214.25316       166.96316        37.50016
G09  20967656.59325    -40262.72525       170.83725        33.10025  20967696.46624    -37667.74824       128.61924        27.20024
G16  22907913.08225    -80957.26525       453.98625        30.70025                                                                
G26  24051133.84725   -342905.70825     -2259.81725        30.30025                                                                
G03  20812651.00224   -214010.63024     -2363.94624        28.70024                                                                
G30  24796122.00224   -173159.79724      2540.92924        26.60024                                                                
C21  22444101.77208    -36582.51808      -237.44908        47.90008  22444106.56806   2055014.45306      -178.78306        40.10006
R03  23034724.39207 123309148.72907     -2792.44507        46.00007
E29  23804589.02607    -48951.41107     -1077.39307        44.80007  23804587.22706   2030695.91906      -804.31706        39.70006
C16  39751654.60207    -24412.87807     -1616.88907        41.90007                                                                
R04  20545103.02106 110020559.94706     -1221.88406        40.80006
R15  21022592.66206 112340822.94206      2634.59506        38.60006
C22  23633380.85126    -19891.98726     -2231.26026        40.80026  23633385.34825   2060004.63325     -1678.64225        30.60025
R14  20443559.41807 108978130.32707     -1015.59307        43.10007
C26  23945466.59806    -56412.20406      2207.49306        36.80006  23945352.67705   2032993.71305      1663.51005        30.40005
R19  22122587.55116 118343389.75916     -4355.53816        37.40016
E19  24733955.23926    -51700.20626       406.47626        36.30026  24733964.53325   2036509.29125       304.56425        29.90025
C34  24963209.23016    -14682.04416     -2774.38516        35.60016  24963222.42126   2063283.25726     -2086.70226        37.20026
C06  38355211.14015    -25019.28015     -1535.95715        34.20015                                                                
R05  21237271.34325 113527849.10925       786.75025        33.10025
C13  40161973.34425    -35564.67925     -1502.30725        30.50025                                                                
C11  24444344.93226   -643329.86426     -1933.60226        35.60026                                                                
C36  24853177.00425    -23209.27425     -2997.98825        29.60025  24853088.56524   2049490.24024     -2259.75124        25.20024
E26  25443701.29224    -18619.61224     -3594.63024        27.50024                                                                
E27  26664340.16124   -199058.10124      1220.03624        27.40024  26664312.28124   -220293.81924       913.39624        25.60024
E21  28148666.58424    -72402.39324      1775.74224        24.40024  28148437.24224   2014199.38224      1326.79224        24.60024
R21  23841802.26423 127584765.51223      1581.29123        21.90023
R13  23938426.57224 127832322.19424     -4356.38124        23.70024
E33  24075526.76026   -180726.73326     -1451.45926        40.90026  24075533.95506   -142769.10506     -1085.91706        37.00006
E07                                                                  26121249.03625   2046337.69425     -1864.81125        31.30025
> 2025 10 05 08 48 53.0000015  0 32                      
G04  21134143.03707    -22473.53507     -1745.70007        46.40007  21134160.72525    -24460.75325     -1301.89325        35.40025
G07  22212596.34007    -53414.58907      1556.87807        41.90007                                                                
G01  23621824.75125      1947.89925     -4353.52425        35.30025  23621616.69515   2083421.11715     -3250.65715        30.30015
G09  20967615.22225    -40435.25925       175.72225        33.10025  20967676.67924    -37750.44524        62.06524        26.70024
G16  22907770.38125    -81412.63125       457.88925        30.70025                                                                
G26  24051531.97125   -340648.75725     -2253.63225        30.20025                                                                
G03  20813131.56924   -211645.93324     -2362.59724        28.70024                                                                
G30  24795634.83924   -175706.75924      2552.27524        26.60024                                                                
G06  22636728.61905    -41003.01005       228.54605        33.50005  22636665.66206   2052045.77606       170.57906        36.60006
C21  22444150.03808    -36347.20908      -232.32508        48.50008  22444155.73406   2055191.69406      -174.99006        39.90006
R03  23035237.93707 123311880.81807     -2786.79507        45.90007
E29  23804796.78207    -47876.33607     -1071.99107        45.20007  23804795.58306   2031498.70406      -800.51906        39.50006
C16  39751962.48907    -22798.13807     -1611.71407        42.30007                                                                
R04  20545354.24706 110021888.54306     -1216.84106        40.50006
R15  21022099.50306 112338169.03106      2639.82606        38.60006
C22  23633822.44516    -17664.68916     -2223.56816        40.40016  23633818.24825   2061683.32825     -1676.52725        29.90025
C26  23945045.99006    -58621.69506      2212.43606        37.50006  23944933.26805   2031328.88505      1666.91505        30.00005
R14  20443732.09907 108979034.14107     -1012.14307        42.30007
R19  22123422.77306 118347840.54206     -4352.53806        37.10006
C34  24963753.05306    -11909.91206     -2769.02606        35.60006  24963757.85016   2065372.06116     -2087.70616        36.90016
E19  24733894.98116    -52110.22916       412.84816        36.10016  24733890.18425   2036204.64125       306.49725        29.70025
E26  25444264.60225   -891782.51425     -3590.83825        32.20025                                                                
C06  38355500.73905    -23484.79905     -1531.44105        34.10005                                                                
R05  21237093.56625 113526881.56025       780.24025        33.10025
E33  24075806.16626   -179278.75626     -1443.57026        39.50026  24075813.96106   -141684.87706     -1082.05606        36.70006
C11  24444702.28525   -641397.30925     -1932.03025        34.70025                                                                
C36  24853792.77725    -20210.75225     -2996.37925        29.50025  24853665.96524   2051748.88924     -2256.08124        24.60024
E27  26664172.57724   -200279.92924      1225.26724        27.30024  26664090.13524   -221206.24224       913.94124        25.20024
E21  28148323.62124    -74182.58924      1784.28624        24.40024  28148016.93324   2012869.61224      1333.08524        23.70024
R21  23841515.96223 127583215.79923      1583.64823        23.00023
R13  23939214.12723 127836509.21423     -4336.85223        23.40023
E07                                                                  26121727.20525   2048201.74825     -1862.03425        31.00025
> 2025 10 05 08 48 54.0000020  0 33                      
G04  21134477.90507    -20729.84407     -1741.20107        46.30007  21134488.69815    -23158.80915     -1300.48615        35.10015
G07  22212292.35007    -54973.65407      1561.62507        41.80007                                                                
G01  23622610.20715      6299.23415     -4349.34215        35.10015  23622448.31915   2086670.12415     -3247.04415        29.80015
G06  22636703.43605    -41231.84205       230.43205        33.80005  22636629.98706   2051874.41006       172.81006        36.40006
G09  20967647.60025    -40614.41825       182.47225        33.00025  20967670.68424    -37803.86724        38.78424        26.20024
G16  22907710.72225    -81871.58825       460.75225        30.60025                                                                
G26  24051968.46925   -338397.58025     -2248.29025        30.10025                                                                
G30  24795142.88024   -178256.04724      2550.45024        26.80024                                                                
G03  20813571.36424   -209284.61424     -2359.62824        28.80024                                                                
C21  22444198.60508    -36116.73108      -228.06208        48.70008  22444203.40106   2055365.29606      -171.78206        39.80006
E29  23804980.85507    -46806.24607     -1067.59707        45.50007  23805004.53806   2032297.81506      -797.27306        39.20006
R03  23035763.47307 123314674.18207     -2783.66307        45.80007
C16  39752279.66907    -21188.65507     -1606.85407        42.40007                                                                
R14  20443910.77507 108979966.93907     -1008.66907        41.80007
C26  23944636.17306    -60836.20306      2217.01506        38.00006  23944513.25805   2029659.96105      1670.97105        29.70005
R04  20545568.29906 110023015.62906     -1212.00706        40.20006
R15  21021656.41006 112335782.72706      2644.02006        38.60006
C22  23634260.44226    -15440.99626     -2221.89026        40.00026  23634247.25114   2063358.09714     -1672.80614        29.20014
E19  24733807.14206    -52524.63506       416.84806        36.00006  24733818.23425   2035896.17825       310.37025        29.70025
R19  22124186.34506 118351905.56606     -4348.68906        36.80006
C34  24964255.50626     -9141.98626     -2765.82126        35.50026  24964293.27906   2067457.89906     -2084.35506        36.60006
E07  26122238.05125  -1028102.10725     -2488.98625        33.20025  26122199.07825   2050061.36225     -1857.39225        30.00025
C06  38355803.83005    -21955.80805     -1526.24505        34.10005                                                                
E33  24076072.38216   -177832.55616     -1446.06016        38.40016  24076092.76806   -140604.02506     -1079.16306        36.50006
C11  24445063.83425   -639471.36225     -1922.64225        34.00025                                                                
R05  21236994.03525 113526330.09525       787.20925        32.70025
C36  24854338.10024    -17212.67824     -2997.84924        29.30024  24854244.86424   2054004.62124     -2254.27324        24.10024
E27  26664002.89524   -201507.92624      1231.08224        27.20024  26663860.79324   -222118.11824       911.60224        24.90024
E21  28148011.53724    -75968.35224      1788.54524        24.20024  28147676.96923   2011535.19123      1336.74523        23.00023
C13  40162554.04224    -32580.25824     -1490.90724        26.70024                                                                
R21  23841259.93923 127581826.11423      1582.10923        23.10023
R13  23939974.40123 127840551.06423     -4347.78023        23.20023
E26  25444998.79425   -888197.70325     -3584.80925        32.00025                                                                
> 2025 10 05 08 48 55.0000025  0 34                      
G04  21134816.07107    -18991.94707     -1734.99907        46.20007  21134825.96406    -21861.00106     -1295.74106        37.80006
G07  22212014.14307    -56537.46207      1566.17807        41.80007                                                                
G01  23623381.87305     10643.98505     -4341.45705        35.00005  23623274.54724   2089913.04424     -3239.87324        29.00024
G06  22636661.76525    -41466.26925       237.22325        33.80025  22636590.11516   2051698.67316       177.92316        36.10016
G09  20967620.31915    -40797.32115       184.77515        33.00015                                                                
G16  22907614.18925    -82336.79625       468.33525        30.60025                                                                
G26  24052374.98725   -336153.80025     -2240.07925        29.90025                                                                
G30  24794637.72924   -180809.00124      2554.78524        26.90024                                                                
G03  20813983.87924   -206927.24524     -2355.39324        28.80024                                                                
C21  22444248.37008    -35892.10708      -221.69608        48.90008  22444247.17107   2055534.62307      -167.19007        41.60007
E29  23805182.91507    -45742.02107     -1061.29107        45.40007  23805211.69506   2033092.62306      -792.65706        39.00006
R03  23036273.12007 123317385.59107     -2776.24107        45.70007
C16  39752590.85407    -19584.89407     -1600.90007        42.60007                                                                
E33  24076373.37406   -176390.58606     -1439.60506        38.10006  24076370.97506   -139527.06306     -1075.01606        36.40006
R14  20444099.34507 108980954.65107     -1002.55907        41.50007
R15  21021187.23506 112333258.79606      2650.42406        38.50006
R04  20545811.43106 110024299.78406     -1205.69006        39.90006
C26  23944196.37806    -63056.34506      2222.95806        38.30006  23944074.96204   2027986.94104      1675.06804        29.00004
C22  23634676.55416    -13223.12316     -2214.96116        39.60016  23634675.35504   2065028.51104     -1668.23504        28.40004
C34  24964829.00915     -6380.94715     -2757.59415        35.40015  24964827.21006   2069539.54106     -2079.54206        36.40006
E07  26122779.17625  -1025618.34925     -2481.44325        33.50025  26122677.84624   2051916.76924     -1853.30324        29.30024
E19  24733736.69006    -52944.51406       422.61506        35.90006  24733742.98625   2035582.43725       316.38025        29.90025
R19  22124998.18206 118356231.58906     -4340.37006        36.50006
C06  38356096.42715    -20432.38115     -1520.64515        34.30015                                                                
E26  25445694.31225   -884615.56425     -3580.80225        31.90025                                                                
C36  24854910.10425    -14224.20625     -2983.66925        29.80025  24854822.56424   2056256.23424     -2249.55324        23.70024
C11  24445424.48525   -637549.73025     -1919.47425        33.20025                                                                
R05  21236873.21925 113525665.43025       789.97425        32.20025
E12  26687880.16524  -1096858.24224      1198.92924        24.30024                                                                
E27  26663747.17224   -202738.85224      1232.38924        27.10024  26663629.05424   -223038.30524       924.34224        24.60024
C13  40162846.94024    -31090.49324     -1489.76424        26.10024                                                                
R21  23841025.80123 127580555.10523      1584.04023        23.10023
R13  23940807.52423 127844981.81823     -4347.25423        23.00023
E21                                                                  28147336.40423   2010189.08423      1351.95123        19.50023
> 2025 10 05 08 48 56.0000030  0 33                      
G04  21135135.05007    -17256.57707     -1734.10607        46.10007  21135141.04606    -20565.10206     -1294.94306        37.40006
G07  22211712.85107    -58104.05007      1567.97707        41.70007                                                                
G01  23624165.83005     14986.47605     -4341.36005        35.10005  23624086.38524   2093151.98824     -3236.95624        28.40024
G06  22636615.89725    -41704.59925       240.28225        33.70025  22636532.25506   2051521.42006       178.01106        35.70006
G09  20967557.66225    -40983.51925       187.84525        33.10025  20967549.86725   -861824.66125       137.97725        29.60025
G03  20814382.30324   -204571.49424     -2354.94224        28.80024                                                                
G30  24794127.78324   -183365.70024      2558.57124        26.90024                                                                
G16  22907483.77925    -82804.56625       469.04925        30.60025                                                                
C21  22444278.94908    -35670.20108      -220.54808        49.40008  22444277.15006   2055701.92406      -166.28706        41.30006
C16  39752881.65307    -17983.54207     -1600.14607        42.90007                                                                
R14  20444273.22406 108981961.42906     -1001.51106        41.40006
E33  24076629.99606   -174950.91606     -1438.52006        40.90006  24076630.29606   -138451.97706     -1074.14806        36.30006
C22  23635090.86706    -11008.82106     -2212.51506        39.40006  23635083.97214   2066697.35614     -1668.06014        27.80014
R04  20546015.58906 110025472.84006     -1205.16806        39.60006
C26  23943747.28906    -65278.72606      2223.49906        38.20006  23943633.06804   2026311.98604      1675.92004        28.20004
R15  21020623.32526 112330324.28226      2652.61126        38.40026
E07  26123246.55316  -1023136.99616     -2481.35116        36.30016  26123136.52914   2053769.79014     -1851.82514        29.20014
C34  24965353.04606     -3621.51806     -2758.62306        36.00006  24965342.55306   2071619.06406     -2078.46406        36.30006
R03  23036754.58707 123320041.85007     -2774.61107        44.10007
E19  24733640.15706    -53367.24106       424.15206        35.80006  24733648.25225   2035266.00925       317.77025        30.00025
R19  22125787.53606 118360533.88306     -4340.83406        36.30006
E29  23805362.49007    -44680.49407     -1060.17807        44.50007  23805396.36706   2033885.32306      -791.64406        38.80006
C06  38356370.73725    -18911.69525     -1519.31325        34.30025                                                                
C36  24855449.73025    -11239.41525     -2982.94925        31.30025  24855378.97914   2058506.38914     -2249.42414        25.40014
E21  28146983.84924  -1145918.78824      1803.95024        29.10024  28146977.85323   2008839.09923      1351.92323        19.40023
C11  24445783.63625   -635630.69425     -1917.73625        32.50025                                                                
R05  21236671.15825 113524665.75225       801.71825        31.70025
C13  40163120.95024    -29601.06624     -1489.25724        25.90024                                                                
R21  23840762.58423 127579226.66623      1589.19123        23.10023
E12  26687612.75024  -1098060.14524      1201.90224        24.10024  26687636.43424   -826941.45324       896.15224        23.80024
R13  23941586.38523 127849221.55423     -4345.57523        22.70023
E26  25446387.73225   -881037.03025     -3576.73125        31.80025                                                                
E27                                                                  26663379.32724   -223963.61424       927.87024        24.30024
> 2025 10 05 08 48 57.0000035  0 35                      
G04  21135466.32107    -15524.83507     -1729.92807        46.10007  21135474.41606    -19272.01806     -1291.67606        37.10006
G07  22211408.26207    -59673.88807      1571.46207        42.00007                                                                
G01  23625004.94906     19324.98706     -4336.51806        39.30006  23624921.30724   2096386.66224     -3232.53624        28.10024
G06  22636578.12325    -41940.92925       235.33025        33.60025  22636492.38225   2051342.49125       179.76725        35.40025
G16  22907418.12425    -83273.21625       469.09025        30.90025                                                                
G03  20814819.40024   -202218.01724     -2352.33824        28.70024  20814892.25023   -910355.60723     -1768.11523        22.90023
G30  24793671.19924   -185924.23524      2559.45124        27.10024                                                                
G26  24053231.19524   -331685.16924     -2235.45424        25.80024                                                                
G09  20967518.08925    -41171.33625       188.62625        33.10025  20967523.78525   -861963.07625       138.41525        30.50025
C21  22444321.81908    -35451.76908      -216.69608        49.80008  22444321.81907   2055866.44007      -163.12407        41.70007
C16  39753192.83707    -16386.08207     -1595.51407        43.00007                                                                
R14  20444479.18206 108983042.19506      -998.45706        41.30006
E33  24076915.39806   -173514.34506     -1435.02006        40.80006  24076906.40506   -137379.20606     -1071.61406        36.30006
C22  23635520.76906     -8798.17606     -2208.81506        39.30006  23635513.27504   2068363.01204     -1664.06104        27.10004
R15  21020138.26116 112327715.48016      2653.92616        38.30016
R04  20546254.52406 110026734.01206     -1200.67506        39.30006
C26  23943324.58106    -67504.97206      2228.17706        38.10006  23943209.16104   2024634.38104      1678.93104        27.80004
C34  24965894.77106      -865.41006     -2754.44606        36.80006  24965874.98406   2073696.06806     -2075.74206        36.20006
E07  26123700.73806  -1020659.63606     -2475.36206        37.10006  26123609.90104   2055619.74304     -1848.42004        29.00004
R03  23037259.13707 123322724.92007     -2770.67207        43.00007
E29  23805601.12507    -43622.77607     -1055.81307        43.10007  23805597.82806   2034675.22706      -788.50606        38.60006
E19  24733561.61206    -53793.46206       427.96706        35.70006  24733570.90515   2034947.55415       319.46915        30.10015
R19  22126630.25326 118365023.70126     -4336.12426        36.10026
C06  38356655.54025    -17393.35225     -1517.17225        34.20025                                                                
C36  24856016.63825     -8255.50425     -2983.47025        32.10025  24855955.78004   2060753.76204     -2245.98104        24.90004
E27  26663140.09225  -1241666.55525      1240.73625        30.00025  26663146.38824   -224886.12424       921.11024        24.00024
E26  25447116.82825   -877462.91025     -3571.91125        31.70025                                                                
E21  28146683.75625  -1147722.53125      1803.74325        30.30025                                                                
C11  24446153.58025   -633716.62025     -1911.59325        31.90025                                                                
R05  21236508.67125 113523780.04425       795.52025        31.00025
C13  40163424.04024    -28111.32624     -1489.89524        25.90024                                                                
R21  23840351.26823 127577007.76023      1594.90723        23.00023
R13  23942369.74223 127853387.18123     -4345.59123        22.40023
E30  27366005.30922   -851594.00922      -712.52822        15.90022                                                                
E12                                                                  26687408.89124   -827849.42524       907.97124        24.30024
> 2025 10 05 08 48 58.0000040  0 33                      
G04  21135793.99407    -13794.52607     -1729.59107        46.10007  21135806.28606    -17979.63206     -1292.03606        36.60006
G01  23625860.85706     23662.05306     -4336.34206        39.80006  23625745.13724   2099625.08524     -3240.29624        28.40024
G09  20967495.60515    -41361.27115       190.99515        33.10015  20967490.80825   -862104.76025       143.31825        30.00025
G06  22636476.19415    -42182.75715       244.57815        33.50015  22636444.41625   2051162.01725       181.24625        34.50025
G16  22907355.46825    -83745.55425       474.18225        31.20025                                                                
G26  24053657.79924   -329443.25724     -2241.91124        27.80024  24053748.03724   -908779.05224     -1663.38624        24.40024
G03  20815274.78524   -199869.26924     -2346.38224        28.60024                                                                
G30  24793191.53124   -188484.51124      2561.14524        27.50024                                                                
G07  22211116.86417    -61243.02317      1568.78317        42.00017                                                                
C21  22444361.39208    -35234.27608      -217.02208        49.80008  22444364.09007   2056030.41407      -163.70307        41.50007
C16  39753498.62607    -14790.59707     -1594.49607        43.00007                                                                
R14  20444657.25806 108983971.94606     -1001.45706        41.30006
E29  23805802.88607    -42565.69807     -1056.75807        42.50007  23805806.48306   2035464.30606      -788.66706        38.40006
E33  24077173.81916   -172078.12216     -1435.29916        40.50016  24077181.31406   -136306.82606     -1072.18306        35.90006
C22  23635945.57506     -6586.75506     -2211.80806        39.20006  23635941.67814   2070027.87214     -1664.46114        26.50014
R15  21019681.97706 112325258.07406      2653.71706        38.30006
C26  23942894.97906    -69732.36106      2227.95906        38.10006  23942802.94204   2022955.79304      1679.07804        27.60004
R04  20546486.26406 110027956.87306     -1200.32306        39.10006
R03  23037823.94607 123325729.68207     -2773.24007        42.10007
C34  24966423.60506      1890.31106     -2755.52706        37.10006  24966408.01506   2075772.14406     -2075.61206        36.10006
E19  24733483.96506    -54221.27206       428.60406        35.70006  24733492.06025   2034627.42125       320.97325        30.10025
R19  22127446.58726 118369371.92326     -4334.53626        35.80026
C06  38356941.24225    -15878.43425     -1513.20525        34.10025                                                                
C36  24856621.31925     -5273.51725     -2981.02325        32.90025  24856530.18214   2063000.10914     -2245.83314        24.70014
E26  25447758.38325   -873886.67625     -3577.28825        31.70025                                                                
E27  26662873.57725  -1242907.46425      1240.90925        29.90025  26662916.14724   -225809.84424       924.32424        23.80024
E21  28146402.55125  -1149524.48325      1801.05425        30.10025                                                                
C11  24446480.95325   -631801.02325     -1916.35825        31.30025                                                                
R05  21236375.86325 113523051.13125       794.23625        30.40025
C13  40163744.81824    -26623.20524     -1487.31224        25.80024                                                                
R21  23840088.05023 127575580.55723      1592.35923        22.90023
R13  23943228.04823 127857950.11623     -4344.64323        22.20023
E30  27366132.72122   -850887.42422      -706.58422        15.80022                                                                
> 2025 10 05 08 48 59.0000044  0 34                      
G04  21136134.85807    -12067.70907     -1725.06907        46.10007  21136142.35306    -16690.33506     -1287.75306        36.00006
G07  22210823.66707    -62816.06807      1575.00007        41.90007                                                                
G01  23626671.49606     27995.32606     -4331.37406        39.80006  23626575.86215   2102861.53015     -3235.45615        30.60015
G09  20967466.52505    -41553.26705       193.02505        33.50005  20967462.62824   -862252.24224       150.38024        29.10024
G06  22636445.31505    -42426.16805       244.20105        33.40005  22636412.33825   2050980.44425       182.12225        34.30025
G16  22907282.61825    -84221.08425       477.12625        31.60025                                                                
G26  24054084.10424   -327203.15724     -2239.19424        28.80024                                                                
G03  20815752.05524   -197519.04324     -2350.96524        28.60024                                                                
G30  24792713.06224   -191044.93924      2560.50424        27.80024                                                                
C21  22444414.15508    -35020.26608      -212.26908        49.80008  22444415.95406   2056191.75006      -160.01806        41.10006
E29  23806013.04007    -41512.48807     -1051.27507        43.00007  23806018.13706   2036250.99206      -785.48806        38.40006
C16  39753817.90507    -13198.86107     -1589.86107        43.00007                                                                
R14  20444858.41907 108984990.93207      -997.20007        41.60007
R03  23038371.96726 123328611.13026     -2767.14926        41.40026
E33  24077472.11306   -170644.81406     -1432.09906        40.20006  24077465.81706   -135236.69206     -1069.01006        35.90006
C22  23636384.77106     -4378.36206     -2206.87806        39.00006  23636374.57804   2071689.75104     -1660.38804        26.00004
R15  21019229.89006 112322789.19706      2657.56806        38.20006
R04  20546700.61506 110029051.01406     -1195.27306        38.90006
C26  23942482.76406    -71963.40106      2232.86606        38.00006  23942378.43604   2021274.41004      1682.78104        27.50004
C34  24966948.54106      4642.50406     -2750.42806        37.10006  24966946.14306   2077846.15706     -2072.98006        39.10006
E19  24733404.82026    -54651.11926       431.61526        35.60026  24733418.61125   2034304.85925       323.77525        30.50025
R19  22128319.88326 118373990.32826     -4335.87026        35.60026
C06  38357260.22125    -14367.49425     -1508.95125        34.10025                                                                
C36  24857227.79925     -2297.48325     -2973.05625        32.90025  24857112.67924   2065243.95624     -2242.59724        24.30024
E26  25448451.80325   -870315.17025     -3569.14125        31.70025                                                                
E21  28145996.03225  -1151333.32725      1812.29025        29.90025                                                                
C11  24446858.69225   -629891.27425     -1906.82425        30.80025                                                                
R05  21236256.24625 113522358.93225       807.13825        30.00025
C13  40164063.19824    -25138.70524     -1482.68924        25.70024                                                                
R20  21527405.68723 115119112.26623     -1270.32023        21.50023
R21  23839819.73623 127574091.33523      1590.70523        22.90023
R13  23944010.50623 127862075.24923     -4344.74823        21.90023
E12  26686961.60123  -1339197.69023      1214.13523        20.00023                                                                
E27  26662587.87525  -1244150.96425      1244.79525        29.80025  26662687.40624   -226739.16024       932.11324        23.50024
> 2025 10 05 08 49 00.0000049  0 35                      
G04  21136468.22807    -10339.79807     -1728.45807        46.40007  21136475.72206    -15399.97206     -1290.89406        35.80006
G07  22210516.37907    -64389.38507      1573.45207        41.80007                                                                
G01  23627519.60906     32329.46206     -4334.56606        39.80006  23627417.08024   2106100.04624     -3239.54924        29.40024
G06  22636386.85505    -42669.29205       242.98105        33.40005  22636368.56825   2050797.96025       182.94025        33.80025
G09  20967420.05725    -41746.29725       193.54825        33.50025  20967431.44924   -862404.29124       154.33324        29.00024
G16  22907209.46925    -84696.16225       474.85225        31.80025                                                                
G26  24054540.08824   -324962.01924     -2241.65524        29.10024                                                                
G30  24792248.68324   -193607.29824      2563.32324        28.00024                                                                
G03  20816228.42524   -195172.81824     -2344.22324        28.50024                                                                
C21  22444457.62508    -34804.88508      -216.06508        49.70008  22444461.22306   2056354.14206      -162.91906        40.80006
E29  23806220.49617    -40457.82517     -1055.38917        43.70017  23806220.79606   2037038.45606      -787.85406        39.00006
C16  39754133.28607    -11606.41707     -1592.79807        42.90007                                                                
R14  20445052.98407 108986011.45007     -1001.13807        41.60007
R03  23038948.76816 123331680.23216     -2770.30316        41.00016
R04  20546943.74706 110030335.94106     -1198.70706        38.70006
R15  21018751.72106 112320216.34106      2656.58306        38.10006
C22  23636817.07206     -2169.30406     -2209.39106        38.80006  23636801.48314   2073352.51014     -1663.19914        25.40014
E33  24077747.92206   -169210.65106     -1435.34006        39.80006  24077741.62606   -134165.57006     -1071.61706        35.70006
C26  23942034.27506    -74193.23006      2229.22206        37.90006  23941959.02704   2019593.79604      1680.22804        27.30004
C34  24967466.58316      7394.76216     -2752.28916        37.00016  24967478.27406   2079920.82906     -2075.00006        40.10006
E07  26125038.71225  -1546751.79225     -2479.33425        34.10025  26125047.40624  -1184691.12024     -1847.70024        29.40024
R19  22129095.14615 118378118.88215     -4334.77815        35.30015
C06  38357579.50015    -12854.72815     -1513.67815        34.00015                                                                
E19  24733326.27525  -1586944.17325       425.93825        34.80025  24733342.16425   2033983.13425       321.30625        30.50025
E26  25449097.55625   -866745.21025     -3569.18525        31.90025                                                                
C11  24447210.34825   -627981.36725     -1909.98525        30.40025                                                                
R05  21236136.92825 113521702.68325       797.06325        29.70025
E27  26662336.94825  -1245393.94525      1242.72125        29.50025  26662456.86523   -227673.58123       936.97323        23.20023
E21  28145674.65525  -1153148.22125      1817.91925        29.60025                                                                
C13  40164347.40124    -23656.92524     -1480.42024        25.70024                                                                
R21  23839535.83323 127572555.40723      1592.40723        23.20023
R20  21527615.24223 115120214.82023     -1269.22623        23.30023
E12  26686714.57223  -1340413.42723      1215.73723        21.60023                                                                
R13  23944860.71823 127866597.68823     -4338.65823        21.80023
C36                                                                  24857687.98124   2067489.19624     -2245.93424        23.90024
> 2025 10 05 08 49 01.0000053  0 35                      
G04  21136772.21707     -8611.83807     -1727.98307        46.60007  21136778.81306    -14109.53606     -1290.47306        35.70006
G07  22210191.10507    -65960.28307      1569.68807        41.70007                                                                
G01  23628304.16526     36664.46526     -4335.43526        39.70026  23628184.54824   2109346.79924     -3250.86924        28.50024
G06  22636311.90715    -42911.88815       242.33115        33.80015  22636301.41525   2050617.19825       179.90125        33.60025
G09  20967349.30625    -41936.61425       188.96025        33.50025  20967365.49524   -862553.02224       147.07124        28.90024
G16  22907077.86025    -85170.17825       473.48525        31.90025                                                                
G30  24791732.74124   -196168.03724      2559.92924        28.30024                                                                
G03  20816634.64424   -192825.20124     -2348.31224        28.50024                                                                
G26  24054988.57824   -322720.15924     -2242.22124        29.20024                                                                
C21  22444471.71608    -34589.55608      -215.30308        49.60008  22444476.81206   2056516.53906      -162.40006        40.60006
E29  23806376.68807    -39402.29207     -1055.21807        43.70007  23806394.67606   2037825.94006      -787.49306        38.80006
C16  39754396.80407    -10014.24707     -1592.03307        42.80007                                                                
R14  20445225.06517 108987068.57117     -1001.98517        41.60017
R03  23039474.60426 123334636.74026     -2767.08626        40.60026
R04  20547128.41906 110031466.09206     -1198.26706        38.60006
C22  23637200.20706        41.53906     -2211.73406        38.70006  23637197.50924   2075014.83924     -1662.11324        24.90024
R15  21018223.18706 112317533.37906      2650.81806        38.10006
E33  24077959.87526   -167775.06226     -1436.05126        39.50026  24077988.35605   -133093.97005     -1071.83705        35.40005
C26  23941564.80016    -76423.22616      2230.07816        37.80016  23941501.54314   2017913.20014      1680.58614        26.70014
C34  24967974.73106     10147.82106     -2753.45906        36.90006  24967980.12706   2081995.42906     -2074.56406        39.70006
E07  26125477.00925  -1544274.09225     -2477.70025        34.70025  26125489.00024  -1182843.66324     -1847.45624        29.20024
R19  22129843.12825 118382261.21125     -4338.82125        35.10025
C06  38357818.13515    -11342.43915     -1512.05115        33.90015                                                                
E26  25449750.20515   -863171.80215     -3575.13115        31.90015                                                                
E19  24733223.74525  -1587371.37225       427.19925        34.10025  24733230.34125   2033661.12125       322.15825        29.90025
C36  24858316.64524      3651.68524     -2977.43924        28.70024  24858232.40424   2069730.97924     -2240.05424        23.60024
R05  21235937.26724 113520776.43724       795.24724        29.40024
C11  24447568.90025   -626069.16425     -1913.35025        30.00025                                                                
E27  26662036.85624  -1246634.95224      1240.01824        29.20024                                                                
E21  28145282.22724  -1154959.32024      1809.20124        29.30024  28145339.48724  -1151639.38824      1352.81624        24.90024
C13  40164599.22724    -22174.47224     -1482.78924        25.60024                                                                
R21  23839200.36523 127570901.56523      1589.54223        23.30023
R20  21527883.55623 115121790.99123     -1275.86523        23.20023
E12  26686465.14523  -1341629.42723      1216.13123        21.70023                                                                
R13  23945585.01623 127870606.68323     -4336.82723        21.60023
> 2025 10 05 08 49 02.0000058  0 34                      
G04  21137103.78807     -6886.19207     -1724.48807        46.60007  21137110.68306    -12820.91706     -1287.70906        35.50006
G07  22209887.11507    -67533.50307      1574.38007        41.60007                                                                
G01  23629157.37526     40995.84426     -4329.56426        39.50026  23629033.86024   2112588.05324     -3238.50324        28.10024
G16  22906993.31915    -85645.68015       476.24515        33.50015                                                                
G06  22636281.02905    -43154.93205       243.26805        34.10005  22636254.94725   2050433.43625       185.26225        33.20025
G30  24791248.87624   -198729.30524      2561.53124        28.60024  24791285.75023   -874743.68623      1916.05623        19.50023
G03  20817092.72724   -190480.43024     -2343.34724        28.50024                                                                
G09  20967316.62925    -42130.07125       195.02725        33.70025  20967331.61824   -862701.95124       149.02924        28.80024
G26  24055407.98824   -320482.07524     -2236.19424        29.20024                                                                
C21  22444516.08508    -34376.35608      -212.13608        49.40008  22444521.78116   2056676.97416      -159.45416        40.40016
E29  23806585.94307    -38350.07107     -1050.81307        43.70007  23806599.13406   2038611.66106      -784.83906        38.70006
C16  39754701.09317     -8424.59417     -1588.39217        42.70017                                                                
R14  20445403.44217 108988002.13317      -999.92417        41.50017
R03  23039928.19016 123337046.37116     -2769.53516        40.30016
R04  20547359.55906 110032685.88906     -1194.83006        38.50006
C22  23637625.61226      2248.40326     -2204.87326        38.60026  23637624.11324   2076676.35324     -1661.10624        24.40024
E33  24078293.24416   -166340.42216     -1433.41516        39.20016  24078263.86505   -132023.57705     -1069.78905        35.40005
R15  21017686.25906 112314646.26906      2659.62806        38.00006
C34  24968501.76606     12899.51506     -2751.01006        36.90006  24968512.25906   2084069.06306     -2073.15006        39.30006
C26  23941155.28326    -78653.57826      2230.52926        37.60026  23941061.74824   2016231.30824      1682.54024        26.10024
E07  26125955.77725  -1541799.44125     -2473.12425        35.10025  26125959.07524  -1180996.71524     -1846.69324        29.00024
C06  38358116.42925     -9833.69925     -1506.96425        33.80025                                                                
R19  22130700.83525 118386832.16125     -4334.95025        34.80025
C36  24858855.97225      6628.81025     -2977.12325        30.60025  24858807.40623   2071968.45923     -2235.32723        23.20023
E26  25450370.47525   -859601.49225     -3568.75925        31.90025                                                                
E19  24733164.38725  -1587799.74825       428.96425        33.40025  24733154.79325   2033338.68925       322.64125        29.90025
R05  21235748.39724 113519749.99224       801.82224        29.20024
C11  24447893.87525   -624157.95725     -1910.70925        29.60025                                                                
E21  28144944.06124  -1156773.58624      1815.84824        28.90024                                                                
C13  40164875.33524    -20691.96324     -1482.53624        25.60024                                                                
R21  23838985.71423 127569734.68923      1589.73623        23.40023
R20  21528133.28323 115123107.78123     -1281.54723        23.20023
E12  26686219.31523  -1342843.60923      1213.27223        21.80023                                                                
R13  23946430.73123 127875106.20223     -4340.49723        21.40023
> 2025 10 05 08 49 03.0000063  0 35                      
G04  21137433.25907     -5164.85507     -1719.18107        46.60007  21137441.95315    -11535.70215     -1283.51315        35.30015
G07  22209599.91407    -69109.40907      1577.24907        41.50007                                                                
G16  22906904.28006    -86125.18906       481.51106        38.10006                                                                
G01  23629996.19416     45323.20316     -4325.34716        39.30016  23629874.47824   2115828.49924     -3240.04124        27.70024
G09  20967299.84025    -42326.28525       197.59225        33.90025  20967299.24124   -862844.97724       140.07524        29.40024
G06  22636249.25115    -43399.52315       245.36415        34.10015  22636213.57525   2050249.61025       183.85825        32.90025
G30  24790769.50724   -201294.31424      2566.87924        29.00024  24790791.69223   -876653.76423      1910.07723        19.60023
G26  24055811.20824   -318245.97824     -2235.10224        29.20024                                                                
G03  20817533.72124   -188136.83724     -2343.00324        28.60024                                                                
C21  22444560.75408    -34167.17108      -207.17708        49.20008  22444568.24906   2056835.65906      -157.80906        40.10006
E29  23806793.40017    -37300.97917     -1047.52817        43.70017  23806801.19406   2039394.32306      -781.13206        38.70006
C16  39755019.77307     -6839.51207     -1582.79707        42.50007                                                                
R14  20445598.60726 108989024.92926      -995.05926        41.40026
R03  23040420.44926 123339665.10326     -2762.60926        40.00026
C22  23638056.41416      4454.00316     -2204.96716        38.50016  23638052.81724   2078334.90424     -1657.06924        24.00024
R04  20547584.70306 110033873.50306     -1188.98606        38.50006
E33  24078609.52526   -164908.71326     -1430.49426        38.90026  24078539.97415   -130956.03815     -1066.11215        35.40015
R15  21017155.32616 112311791.26916      2659.99316        37.90016
C34  24969033.29816     15646.99616     -2745.37216        37.10016  24969042.89106   2086139.58606     -2068.96606        39.30006
C26  23940723.88226    -80890.04726      2239.52726        37.50026  23940655.52924   2014545.72624      1687.42524        26.00024
E07  26126429.44916  -1539327.73716     -2470.22916        36.00016  26126436.64424  -1179150.58424     -1845.72124        29.30024
C06  38358400.03225     -8327.03225     -1505.63025        33.80025                                                                
R19  22131517.16925 118391181.91225     -4325.28825        34.60025
E26  25451048.90525   -856034.46925     -3565.37725        31.90025                                                                
E19  24733066.95425  -1588234.11825       437.36725        32.70025  24733077.14725   2033012.72225       327.73525        29.80025
R05  21235623.98324 113519066.20524       810.78724        29.00024
C11  24448254.52624   -622251.71024     -1903.76624        29.20024                                                                
E21  28144616.98724  -1158588.67224      1815.49524        28.60024                                                                
E27  26661703.48724  -1819070.49424      1254.23124        26.10024                                                                
C13  40165230.58924    -19213.37324     -1476.63024        25.60024                                                                
R20  21528338.34124 115124187.37924     -1272.06724        23.50024
R21  23838643.35123 127567885.59923      1593.51123        23.40023
E12  26685987.87523  -1344060.67723      1218.51123        21.80023                                                                
R13  23947281.24223 127879630.16923     -4329.23723        21.20023
C36  24859429.47525      9600.53025     -2969.01725        32.50025  24859382.40823   2074204.42223     -2235.20223        22.90023
> 2025 10 05 08 49 04.0000068  0 36                      
G04  21137760.03307     -3451.16807     -1709.86307        46.50007  21137770.82615    -10255.75415     -1277.31415        35.20015
G07  22209304.01927    -70691.90827      1585.79427        41.50027                                                                
G01  23630813.12826     49645.88026     -4320.33326        39.20026  23630704.60424   2119060.00124     -3227.02824        27.20024
G16  22906807.74706    -86612.80706       491.67206        38.40006                                                                
G30  24790289.24025   -203866.63425      2575.97425        30.20025  24790305.72823   -878574.84823      1926.58623        20.00023
G06  22636180.59815    -43652.19415       256.71015        34.10015  22636168.30725   2050057.91825       195.62525        32.70025
G26  24056235.71524   -316018.48224     -2223.19524        29.20024                                                                
G03  20817982.51124   -185796.15224     -2339.23024        28.60024                                                                
G09  20967266.26425    -42528.25425       204.84725        34.30025  20967260.26825   -862992.84025       150.28125        31.50025
C21  22444603.02508    -33964.77908      -198.99608        48.90008  22444603.92406   2056987.84306      -148.93406        39.10006
E29  23806997.85807    -36260.82607     -1035.68207        43.70007  23807002.35506   2040171.19406      -773.97606        38.40006
C16  39755324.36207     -5262.78207     -1572.55207        42.30007                                                                
R03  23040924.70016 123342345.87416     -2756.66616        39.80016
C22  23638484.81706      6651.81806     -2193.92106        38.70006  23638477.62224   2079986.28124     -1647.78824        23.60024
R04  20547806.25016 110035042.72816     -1182.85116        38.50016
E33  24078938.69816   -163484.05116     -1421.13716        38.70016  24078814.58405   -129893.74205     -1059.67405        35.30005
C34  24969565.43006     18386.79006     -2735.94906        37.30006  24969572.92406   2088204.35006     -2061.88306        38.60006
R15  21016665.46526 112309155.70726      2669.80426        37.80026
C26  23940316.76426    -83133.52626      2246.98226        37.40026  23940225.62724   2012854.06024      1694.70724        25.70024
E07  26126895.62716  -1536863.13316     -2460.30316        36.10016  26126906.71925  -1177307.64625     -1841.34125        30.70025
C06  38358694.72825     -6826.85725     -1496.92825        33.80025                                                                
R19  22132340.40025 118395567.63525     -4316.18725        34.40025
C36  24859995.18325     12562.43525     -2956.99725        33.20025  24859955.31123   2076435.06623     -2227.98523        22.50023
E19  24732985.11125  -1588676.82625       446.87825        32.20025  24732996.80325   2032679.37425       337.03825        29.70025
E27  26661489.73524  -1820329.16124      1258.66624        28.70024  26661487.33624  -1366505.40924       933.95624        26.00024
R14  20445798.86826 108990074.41526      -986.13526        40.30026
R05  21235463.59424 113518191.20324       814.82924        28.90024
C11  24448618.47424   -620354.96324     -1891.99524        28.90024                                                                
E21  28144271.02724  -1160410.25324      1824.82824        28.30024                                                                
C13  40165566.95724    -17747.16324     -1460.01924        26.10024                                                                
R20  21528615.94924 115125653.36824     -1261.79724        23.70024
R21  23838362.74523 127566365.74523      1606.52923        23.40023
E30  27366785.36923  -1806799.44223      -578.23223        20.60023                                                                
E12  26685778.62023  -1345283.31423      1225.42123        21.70023                                                                
R13  23948155.13723 127884277.91323     -4317.22623        21.10023
E26  25451746.82225   -852471.18925     -3561.40825        31.90025                                                                
> 2025 10 05 08 49 05.0000073  0 34                      
G04  21138090.10507     -1746.35107     -1700.38107        46.50007  21138098.79925     -8983.48425     -1268.42925        35.10025
G07  22208997.33126    -72283.43726      1596.04326        41.40026                                                                
G30  24789807.77316   -206448.22516      2586.22616        37.40016  24789817.36723   -880501.99723      1930.18023        20.20023
G16  22906710.91406    -87108.35406       499.51106        38.30006                                                                
G09  20967223.69326    -42739.86826       216.43626        37.20026  20967222.49426   -863153.34126       166.82026        35.50026
G06  22636131.73225    -43914.49725       267.11925        34.10025  22636122.73825   2049865.03425       193.48025        32.50025
G01  23631636.35926     53960.35026     -4310.36526        38.40026  23631540.42524   2122297.86624     -3241.04424        26.70024
G03  20818448.38824   -183467.02224     -2323.35224        28.50024  20818496.05523  -1065457.09423     -1744.71523        18.60023
G26  24056636.53724   -313797.33524     -2217.97324        29.40024                                                                
C21  22444645.59518    -33771.24318      -189.10818        48.70018  22444646.19516   2057133.24016      -142.00316        38.70016
E29  23807194.22207    -35229.16707     -1027.41207        43.70007  23807202.61706   2040941.68906      -767.30606        38.20006
C16  39755644.84007     -3694.47607     -1564.09307        42.10007                                                                
R03  23041465.52506 123345221.19206     -2742.52106        39.70006
C22  23638903.32826      8841.94626     -2186.28526        38.90026  23638900.63023   2081631.31323     -1641.86023        23.40023
R04  20548043.38626 110036292.40326     -1169.43826        38.40026
E33  24079160.24406   -162067.05006     -1413.17006        38.50006  24079086.49505   -128837.45605     -1053.27905        35.10005
C26  23939907.54726    -85387.25326      2258.85126        37.30026  23939799.32224   2011155.49124      1702.02024        25.50024
C34  24970076.27606     21119.57906     -2729.28606        37.20006  24970101.15906   2090263.03606     -2055.64606        38.30006
C06  38358973.83525     -5340.65125     -1479.22125        34.90025                                                                
R14  20446003.02716 108991143.74216      -978.13116        39.50016
R19  22133119.86025 118399718.38325     -4307.74725        34.20025
C36  24860568.38725     15518.95025     -2953.81725        33.20025  24860529.11423   2078660.51723     -2222.85223        22.10023
R15  21016169.60926 112306487.26726      2677.21726        36.70026
E27  26661233.11224  -1821595.28924      1269.85824        29.30024  26661251.10024  -1367445.64724       940.23724        27.90024
R05  21235288.81524 113517238.18524       826.94724        28.80024
C11  24448974.92724   -618465.48124     -1885.84924        28.60024                                                                
C13  40165870.94624    -16287.67724     -1456.12424        26.50024                                                                
E21  28143951.44824  -1162246.41424      1843.45024        28.00024                                                                
R20  21528860.28024 115126941.08024     -1250.51624        23.80024
R21  23838039.56923 127564616.96023      1612.59523        23.40023
E30  27366956.25023  -1806225.79923      -573.64223        21.90023                                                                
R13  23949043.12223 127889001.29823     -4310.17423        21.10023
E12                                                                  26685448.84823  -1076425.98623       832.94823        19.00023
E19                                                                  24732912.26124   2032343.13924       337.67824        28.70024
> 2025 10 05 08 49 06.0000077  0 35                      
G04  21138405.18707       -47.59107     -1695.73007        46.50007  21138413.88125     -7716.92225     -1263.70825        35.00025
G07  22208696.04026    -73879.48926      1598.31226        41.30026                                                                
G30  24789302.32306   -209035.32606      2589.85506        38.50006  24789317.91223   -882433.17223      1933.18823        21.30023
G01  23632472.18026     58263.84826     -4298.01026        37.80026  23632345.36824   2125523.82524     -3220.00524        26.10024
G06  22636080.76725    -44181.99325       270.09225        34.20025  22636063.37925   2049666.99925       200.61025        32.30025
G16  22906594.29526    -87607.78926       501.37926        37.90026                                                                
G26  24057046.95325   -311577.68225     -2218.90425        29.50025  24057049.35123  -1137850.04623     -1753.11223        19.70023
G03  20818889.08324   -181148.61924     -2313.03824        28.50024  20818918.46323  -1063715.94823     -1739.36123        18.60023
G09  20967171.22926    -42957.81626       221.11426        38.50026  20967178.12525   -863317.05525       165.32025        34.80025
C21  22444666.58108    -33583.92508      -184.20908        48.30008  22444675.27526   2057272.79326      -136.63126        37.30026
E29  23807381.59307    -34203.50307     -1022.66507        43.90007  23807389.68706   2041707.43706      -763.37406        38.10006
C16  39755940.43507     -2132.30507     -1559.10407        41.80007                                                                
C22  23639314.34316     11026.06116     -2181.10716        39.50016  23639312.24523   2083272.14423     -1638.72923        23.20023
R03  23042012.64726 123348195.31326     -2741.22926        39.60026
E33  24079396.18116   -160655.00516     -1410.31516        38.20016  24079347.31505   -127785.73605     -1049.43705        35.10005
C26  23939448.56526    -87643.12326      2256.94026        37.20026  23939355.32924   2009451.89824      1706.10424        25.40024
C06  38359239.75116     -3857.82216     -1481.13916        35.80016                                                                
C34  24970620.69926     23848.36026     -2726.77626        36.20026  24970615.60316   2092317.36916     -2052.15616        36.80016
R15  21015670.15426 112303863.17026      2685.35326        36.10026
R19  22134005.44725 118404500.58125     -4303.99325        34.10025
R14  20446165.21426 108992053.65126      -976.65026        38.60026
C36  24861128.39915     18469.51315     -2947.58715        33.10015  24861088.82623   2080882.42723     -2220.13923        21.80023
E27  26660977.09025  -1822868.38925      1276.58625        30.70025  26660998.67524  -1368396.08824       955.54224        28.40024
R04  20548257.43726 110037483.84926     -1170.22426        37.40026
E19  24732814.22924  -2106775.09024       456.27824        29.10024  24732811.23124   2031995.06224       353.99824        27.90024
R05  21235100.84624 113516279.04624       830.17124        28.80024
C11  24449316.39024   -616583.83924     -1877.72124        28.50024                                                                
C13  40166137.16224    -14832.85924     -1452.48424        26.80024                                                                
E21  28143603.08924  -1164091.27224      1849.20624        27.80024                                                                
R20  21529102.51224 115128282.35124     -1239.36324        23.80024
E30  27367053.08323  -1805657.93523      -564.97523        22.50023                                                                
R21  23837707.09923 127562882.71623      1613.52123        23.30023
R13  23949801.89723 127893097.39323     -4306.65123        21.20023
E26  25453098.28724  -2112895.16424     -3541.77624        28.60024  25453117.17424  -1585799.44724     -2652.76124        27.60024
E12                                                                  26685250.68523  -1077211.91323       739.43923        18.40023
> 2025 10 05 08 49 07.0000082  0 35                      
G04  21138731.06107      1647.97407     -1693.96707        46.50007  21138740.95415     -6451.32815     -1265.10915        35.40015
G07  22208393.84916    -75478.81716      1600.96616        41.20016                                                                
G30  24788813.96106   -211625.52306      2591.74406        38.70006  24788829.25123   -884365.59523      1933.04523        22.30023
G01  23633270.52726     62566.43026     -4302.12126        37.30026  23633162.30224   2128736.98124     -3206.75324        26.00024
G06  22636014.21325    -44452.96925       272.71625        34.20025  22636017.51125   2049467.65725       199.99525        32.20025
G16  22906509.15426    -88109.88526       503.42626        37.00026                                                                
G26  24057464.26425   -309363.54325     -2211.38125        29.70025  24057505.93523  -1136076.60223     -1811.67423        19.70023
G03  20819360.65724   -178835.85924     -2309.93724        28.50024  20819361.25623  -1061989.53123     -1719.05023        18.60023
G09  20967116.06826    -43179.49726       223.54926        38.40026  20967141.25025   -863481.32325       164.54525        34.30025
C21  22444722.64218    -33398.87018      -183.92318        47.90018  22444709.45126   2057410.25426      -136.41526        35.90026
E29  23807585.45207    -33181.71707     -1019.84807        43.90007  23807586.65106   2042470.38306      -761.54406        37.20006
C22  23639737.05106     13206.99706     -2179.34606        40.00006  23639735.25223   2084909.53023     -1635.66323        23.20023
C16  39756237.52927      -571.68627     -1559.84227        41.50027                                                                
R03  23042586.44926 123351249.86226     -2733.51626        39.40026
C06  38359518.55806     -2379.54806     -1475.99706        36.90006                                                                
E33  24079620.42606   -159248.16506     -1403.23806        38.00006  24079618.32705   -126736.54605     -1047.92505        35.10005
C26  23938964.70026    -89902.94826      2261.80126        37.00026  23938927.52524   2007746.81024      1705.83524        25.20024
R15  21015168.60226 112301164.91526      2682.45626        35.70026
R19  22134777.41225 118408612.29425     -4307.78025        33.90025
C36  24861684.51415     21417.58115     -2946.81915        33.10015  24861659.63123   2083103.41123     -2220.52023        21.50023
R14  20446362.47816 108993087.12916      -970.82316        37.70016
E26  25453779.71525  -2109354.82225     -3540.34125        30.40025  25453761.12824  -1583149.35024     -2650.09524        27.00024
E27  26660735.45725  -1824145.68825      1279.39725        31.40025  26660759.14124  -1369350.43524       956.30024        28.30024
C34  24971204.39526     26571.05726     -2719.65326        35.50026  24971142.33816   2094372.40916     -2055.39316        36.50016
R04  20548500.26926 110038766.47426     -1170.84026        36.30026
C11  24449670.74524   -614704.03624     -1878.88224        28.50024                                                                
R05  21234950.35024 113515456.05524       835.46524        28.70024
E19  24732735.98324  -2107234.97024       459.87924        28.80024  24732728.78824   2031638.55624       360.72124        27.80024
C13  40166388.38824    -13383.25824     -1446.99124        27.00024                                                                
E21  28143274.21724  -1165937.64024      1847.12124        27.50024                                                                
R20  21529227.52624 115128932.71424     -1244.31424        23.80024
E30  27367174.79923  -1805088.81623      -569.74523        23.40023                                                                
R21  23837381.22423 127561121.67723      1627.03523        23.30023
R13  23950642.21523 127897567.11323     -4302.49723        21.30023
E12                                                                  26685054.92123  -1077987.88223       770.98823        17.90023
> 2025 10 05 08 49 08.0000086  0 35                      
G04  21139043.44507      3337.89707     -1687.10207        46.40007  21139054.83706     -5189.24806     -1260.32306        36.00006
G07  22208086.56216    -77083.28416      1607.03616        41.10016                                                                
G30  24788310.31006   -214220.50806      2597.37706        38.70006  24788328.89724   -886301.46524      1937.59324        23.90024
G09  20967053.11126    -43407.56226       231.25626        38.30026  20967087.28825   -863649.67425       170.39125        33.70025
G06  22635983.93425    -44725.32625       273.04725        34.10025  22635961.15025   2049266.60425       201.90925        32.10025
G16  22906428.51026    -88618.35126       511.65126        36.10026                                                                
G26  24057902.86025   -307155.42925     -2205.10125        29.90025  24057972.41223  -1134284.91023     -1800.81523        19.60023
G03  20819751.88624   -176521.84324     -2314.64424        28.50024  20819788.46023  -1060267.19823     -1720.29123        19.00023
G01  23634062.87916     66861.76216     -4291.70516        37.00016  23633981.03524   2131942.27324     -3201.35924        25.70024
E29  23807773.72127    -32165.73827     -1013.07427        43.80027  23807773.12226   2043228.67426      -755.96426        37.10026
C21  22444742.12817    -33219.42417      -176.64217        47.10017  22444738.23125   2057547.65725      -137.37425        35.10025
C22  23640143.86906     15382.81206     -2173.25306        40.00006  23640146.56723   2086543.50223     -1632.26323        23.10023
C06  38359790.76906      -906.57906     -1470.31606        38.00006                                                                
R03  23043150.05926 123354310.53326     -2723.46926        39.30026
E33  24079861.45906   -157847.98606     -1397.09806        37.90006  24079876.14906   -125690.95106     -1043.79706        36.50006
C26  23938546.48926    -92168.88026      2268.98526        36.80026  23938485.93124   2006043.40724      1702.55924        25.20024
R15  21014675.14325 112298571.40025      2694.02325        35.30025
C36  24862249.92305     24359.12205     -2938.27705        33.10005  24862284.39924   2085325.92324     -2223.27524        27.60024
R19  22135554.17515 118412811.25915     -4294.78415        33.80015
R14  20446537.55706 108994063.39706      -967.94606        36.90006
C16  39756534.32426       986.57826     -1557.08526        40.10026                                                                
E27  26660482.73225  -1825424.85925      1280.10725        31.40025  26660507.91424  -1370306.66224       957.16524        28.00024
E26  25454485.72625  -2105816.22725     -3537.72025        31.30025  25454461.14324  -1580502.88824     -2644.64424        27.10024
R04  20548675.94825 110039751.03925     -1155.81125        35.40025
C34  24971743.12225     29288.69525     -2715.10725        34.80025  24971655.88216   2096420.51416     -2044.63616        36.20016
C11  24450024.80024   -612824.86024     -1878.86224        28.60024                                                                
R05  21234777.96924 113514578.75524       846.05524        28.70024
E19  24732639.45024  -2107698.95024       466.03024        28.50024  24732632.25524   2031280.13424       359.37924        27.60024
C13  40166700.47224    -11937.17924     -1444.31824        27.00024                                                                
E21  28142900.07624  -1167784.22324      1846.69124        27.30024                                                                
E30  27367275.52924  -1804517.38124      -572.59324        23.50024                                                                
R20  21529469.45824 115130269.39424     -1245.61824        23.70024
R21  23837052.05223 127559402.74823      1629.04723        23.20023
R13  23951442.66123 127901884.78323     -4299.87123        21.40023
E12                                                                  26684832.17522  -1078751.04822       756.76622        14.90022
> 2025 10 05 08 49 09.0000091  0 34                      
G04  21139369.91907      5025.89507     -1687.03307        46.40007  21139379.21206     -3929.13906     -1259.12306        40.20006
G07  22207774.77706    -78688.09206      1604.97606        41.00006                                                                
G30  24787817.75106   -216817.39306      2597.83506        38.70006  24787839.03624   -888239.84124      1939.62824        24.60024
G09  20967049.21426    -43637.35426       230.65426        38.00026  20967050.11325   -863817.94125       168.22625        32.50025
G01  23634882.21226     71157.48326     -4295.91326        36.80026  23634810.86124   2135152.05424     -3212.02324        25.40024
G06  22635923.97625    -45001.98425       278.80925        34.10025  22635913.18325   2049057.02925       213.83525        32.00025
G16  22906314.58826    -89127.92826       510.13226        35.70026                                                                
G03  20820214.76524   -174211.14924     -2309.03124        28.60024  20820218.96223  -1058553.71023     -1709.06523        19.00023
G26  24058296.78825   -304950.16825     -2203.83325        29.90025  24058452.08022  -1132437.12322     -1875.83222        16.60022
E29  23807963.49017    -31151.05317     -1014.78817        43.70017  23807967.98726   2043981.69826      -750.39026        36.30026
C21  22444772.10827    -33043.99827      -173.41527        46.40027  22444774.20625   2057681.59525      -132.20525        34.10025
C06  38360085.46506       563.95006     -1469.30806        38.90006                                                                
C22  23640593.25826     17555.38326     -2170.94826        39.90026  23640567.77523   2088174.77123     -1629.91723        22.90023
R03  23043691.78416 123357192.74716     -2725.94516        39.10016
E33  24080138.76706   -156449.89206     -1397.05006        37.80006  24080145.36206   -124646.86606     -1043.32906        38.00006
C26  23938081.81126    -94438.22826      2271.05526        36.60026  23938056.92824   2004333.69424      1712.86824        26.00024
C36  24862824.62525     27300.18525     -2940.82125        33.90025  24862839.91424   2087544.64624     -2216.82924        27.00024
R15  21014161.29925 112295807.39525      2689.92325        35.00025
R14  20446742.31526 108995138.06026      -966.00326        36.20026
R19  22136344.72725 118417021.70925     -4297.23925        33.60025
R04  20548892.09825 110040890.38525     -1154.03525        34.80025
C16  39756821.82526      2535.33326     -1544.00126        38.90026                                                                
E26  25455139.27425  -2102283.28025     -3530.12125        31.20025  25455133.27824  -1577858.61324     -2643.17924        28.30024
C34  24972291.44225     31999.24225     -2707.00125        34.00025  24972182.91816   2098466.46316     -2044.87016        35.80016
R05  21234614.58224 113513686.92724       842.18524        28.70024
C11  24450377.65624   -610951.48524     -1870.47424        28.60024                                                                
C13  40166990.07124    -10492.58824     -1443.84524        27.00024                                                                
E12  26684579.75023  -2396469.93723      1251.45923        22.60023  26684664.29122  -1079476.08922       705.97722        14.80022
E30  27367366.06724  -1803946.98324      -569.87924        23.50024                                                                
R20  21529758.15924 115131795.06524     -1244.22124        23.70024
R21  23836726.17823 127557642.47823      1634.45923        23.20023
R13  23952249.40323 127906175.71523     -4298.91323        21.40023
E27  26660243.49725  -1826707.43525      1284.27825        31.50025  26660273.47724  -1371252.58224       940.76724        27.70024
E21                                                                  28142555.91423  -1374063.30123      1372.03023        17.50023
> 2025 10 05 08 49 10.0000096  0 35                      
G04  21139691.59607      6709.05407     -1680.74007        46.30007  21139702.08906     -2672.35106     -1255.12706        40.10006
G07  22207482.78026    -80299.25926      1614.34726        40.80026                                                                
G30  24787325.79106   -219418.89406      2603.80706        38.60006  24787345.57824   -890181.57224      1943.40824        25.60024
G09  20967011.44026    -43871.64026       236.53426        37.80026  20967007.84325   -863990.16925       174.20825        31.60025
G01  23635696.74826     75453.39426     -4296.00426        36.70026  23635635.89024   2138364.84624     -3214.29724        25.10024
G06  22635892.79725    -45281.52025       280.97425        34.10025  22635865.81625   2048845.84825       211.98425        31.90025
G16  22906211.76025    -89640.84325       514.58525        35.30025                                                                
G26  24058749.77425   -302747.41325     -2201.50125        29.80025  24058924.55322  -1130518.84922     -1953.51722        13.60022
G03  20820655.76024   -171905.33524     -2303.37324        28.80024                                                                
E29  23808157.45607    -30140.60607     -1008.07807        43.60007  23808163.45126   2044735.55926      -754.28026        35.70026
C21  22444810.78117    -32871.21817      -171.45717        45.80017  22444811.38025   2057811.34525      -127.65525        33.60025
C06  38360368.76906      2030.14206     -1464.02406        39.60006                                                                
E33  24080406.48106   -155055.35106     -1392.76506        38.10006  24080413.67706   -123605.62206     -1039.82406        37.80006
R03  23044223.01606 123360018.28006     -2720.51606        39.00006
R04  20549114.84416 110042066.50716     -1149.40516        35.60016
C26  23937627.32526    -96707.51426      2269.25426        36.40026  23937624.62724   2002624.89124      1708.34624        26.10024
C36  24863388.23425     30235.62225     -2932.62325        34.00025  24863418.21424   2089761.60424     -2216.07324        26.80024
R15  21013656.74825 112293094.60825      2693.97625        34.70025
R14  20446908.99926 108996008.31526      -960.67626        35.60026
R19  22137129.88425 118421203.83825     -4295.17725        33.40025
C16  39757163.58826      4081.61826     -1545.04926        37.90026                                                                
E27  26660013.25725  -1827994.22625      1288.89925        31.60025  26660022.25124  -1372191.99024       936.15024        27.10024
E26  25455797.61825  -2098751.74525     -3530.82825        31.10025  25455814.70624  -1575213.09124     -2646.14524        28.20024
R05  21234491.66724 113513011.55524       851.45824        29.20024
C34  24972800.19025     34709.08725     -2709.49125        33.30025  24972705.75615   2100510.26315     -2042.72415        35.30015
C22  23640994.98026     19723.85026     -2166.41526        38.20026  23640989.28423   2089809.91423     -1637.08023        22.60023
C11  24450750.59824   -609081.79224     -1867.85024        28.60024                                                                
C13  40167246.39424     -9053.63824     -1436.12924        27.90024                                                                
E30  27367499.47424  -1803382.75524      -561.14324        23.50024                                                                
R20  21529981.20424 115132970.30424     -1242.21024        23.60024
R21  23836480.34823 127556307.91823      1636.04723        23.20023
R13  23953005.77923 127910196.93623     -4301.40123        21.70023
E19  24732560.00524  -2472717.07124       469.22524        25.10024                                                                
E12  26684360.90123  -2397726.02023      1256.08223        22.60023  26684498.80622  -1080167.51122       674.61222        14.70022
E21                                                                  28142201.55923  -1375441.60723      1381.44423        17.90023
> 2025 10 05 08 49 11.0000101  0 35                      
G04  21140033.95907      8389.69507     -1679.38107        46.20007  21140044.15206     -1417.59506     -1253.73906        39.70006
G07  22207200.67526    -81910.75326      1611.65526        40.70026                                                                
G30  24786851.52006   -222022.56006      2604.74806        38.60006  24786870.10724   -892125.81824      1945.50224        25.40024
G09  20966984.45926    -44106.33926       234.90526        37.50026  20966983.85925   -864170.23425       183.98325        30.80025
G06  22635851.72625    -45562.07425       281.06325        34.10025  22635827.14325   2048631.92625       215.29225        31.60025
G16  22906139.21025    -90159.01725       520.80325        35.00025                                                                
G26  24059191.06925   -300546.75725     -2199.60625        29.90025                                                                
G03  20821142.62324   -169604.59124     -2298.20824        28.80024                                                                
G01  23636557.75226     79741.75026     -4284.57726        36.50026  23636458.52024   2141578.00024     -3213.33324        25.10024
E29  23808372.40727    -29132.60327     -1006.77927        43.50027  23808377.20326   2045487.60226      -751.13326        35.60026
C21  22444865.34317    -32700.88517      -169.11017        45.20017  22444866.84225   2057938.79225      -126.29625        32.90025
C06  38360673.05906      3493.42206     -1461.82306        40.10006                                                                
E33  24080693.08306   -153663.69506     -1390.21306        38.60006  24080700.87806   -122566.24106     -1038.44806        37.50006
R03  23044741.95726 123362678.36926     -2717.78226        38.80026
R04  20549351.38026 110043215.04526     -1149.45726        36.20026
C26  23937294.55626    -98983.40326      2279.18926        36.10026  23937210.31424   2000917.71524      1706.36224        26.10024
C36  24863978.82625     33169.87825     -2933.66425        34.00025  24863999.51124   2091975.40224     -2212.21824        28.70024
R15  21013185.47425 112290459.04525      2699.49625        34.50025
R14  20447115.25725 108996992.21825      -965.82625        35.20025
R19  22137968.10425 118425571.19125     -4290.95925        33.20025
E27  26659778.22025  -1829285.04425      1292.83025        31.60025  26659801.00424  -1373144.66524       959.30924        26.70024
C16  39757461.88226      5630.60526     -1550.33726        36.90026                                                                
E26  25456492.53725  -2095221.58425     -3529.47225        31.10025  25456471.85124  -1572574.39524     -2635.28124        27.00024
R05  21234380.14525 113512298.70225       845.34925        29.70025
C13  40167563.87424     -7616.73024     -1435.88724        27.90024                                                                
C11  24451131.03424   -607212.99724     -1868.34624        28.50024                                                                
C22  23641489.03826     21890.85526     -2166.27226        36.70026  23641424.58223   2091439.82423     -1627.29223        22.40023
E19  24732442.18724  -2473188.16324       471.09224        24.90024                                                                
E30  27367622.68924  -1802824.16324      -555.77424        23.50024  27367650.57023  -1353736.77923      -426.09023        19.00023
R20  21530225.53524 115134160.84324     -1225.77624        23.60024
R21  23836215.33123 127554773.51723      1641.48323        23.10023
E12  26684151.04723  -2398987.99223      1264.91623        23.00023  26684345.01222  -1080872.09922       711.17122        14.90022
R13  23953833.20623 127914497.79823     -4298.28823        21.70023
C34  24973379.68925     37417.80925     -2708.16025        32.60025  24973246.28115   2102551.51915     -2039.98415        34.70015
E21                                                                  28141870.28923  -1376828.58523      1391.31323        17.60023
> 2025 10 05 08 49 12.0000105  0 34                      
G04  21140351.13907     10068.21107     -1677.45407        46.10007  21140355.03716      -163.05316     -1254.43616        39.40016
G09  20966928.99726    -44345.93526       242.04526        37.20026  20966930.19625   -864354.06325       185.70925        30.60025
G01  23637352.50126     84024.95726     -4280.63126        36.30026  23637278.75224   2144784.25624     -3202.80724        24.80024
G06  22635770.78215    -45847.29215       287.55115        34.10015  22635765.38625   2048420.94825       209.50625        31.30025
G07  22206878.09826    -83526.14926      1617.34726        39.80026                                                                
G16  22906025.28925    -90677.80325       519.09125        34.80025                                                                
G26  24059594.28925   -298346.78725     -2199.62525        30.00025  24059878.19324  -2010423.83924     -1635.56324        27.60024
G03  20821554.23824   -167305.94324     -2297.59824        28.80024                                                                
G30  24786341.27306   -224628.32006      2606.80506        38.70006  24786365.25624   -894071.73324      1946.75024        25.20024
E29  23808557.97817    -28127.68017     -1003.38417        43.50017  23808559.17725   2046237.85125      -749.35225        35.10025
C21  22444888.42727    -32533.17727      -166.39627        44.70027  22444890.52625   2058065.00325      -125.59425        32.80025
C06  38360948.56806      4954.85906     -1460.51506        40.30006                                                                
E33  24080959.29906   -152273.22006     -1389.88306        38.90006  24080957.50006   -121527.96506     -1037.72406        37.30006
R03  23045204.23726 123365199.05926     -2718.27226        38.70026
R04  20549558.23716 110044368.18116     -1145.87216        36.60016
C26  23936842.76926   -101259.93326      2276.85026        36.00026  23936770.21924   1999207.71524      1711.41124        25.90024
C36  24864541.53625     36100.51025     -2928.81825        33.90025  24864555.02724   2094187.12524     -2210.68524        28.70024
R15  21012675.52725 112287779.13725      2700.69425        34.30025
R14  20447324.51225 108998152.29825      -960.22225        34.80025
R19  22138775.74425 118429937.01325     -4287.44625        33.00025
E26  25457153.87925  -2091691.77025     -3529.63925        31.10025  25457119.70324  -1569940.08024     -2632.12424        25.70024
E27  26659529.09225  -1830578.94025      1295.43325        31.60025  26659558.77224  -1374103.26124       961.55624        26.40024
C16  39757764.67226      7176.28226     -1544.02226        36.10026                                                                
R05  21234196.97125 113511364.80325       853.43325        29.90025
C22  23641959.71225     24048.49725     -2152.95925        35.30025  23641830.50123   2093065.01123     -1622.82523        22.10023
C34  24973898.93025     40123.06425     -2703.51925        32.10025  24973757.12825   2104591.53225     -2039.39125        34.20025
C13  40167837.28524     -6186.31824     -1427.16324        27.90024                                                                
E19  24732306.68024  -2473663.45324       477.38824        24.90024                                                                
E30  27367733.31224  -1802270.02624      -551.90824        23.60024  27367744.70523  -1353327.05523      -401.54123        19.00023
R20  21530488.15324 115135609.99924     -1226.18924        23.50024
R21  23835901.14923 127553137.28523      1635.35523        23.10023
E21  28141476.36123  -2600229.29423      1867.07323        22.70023                                                                
R13  23954565.30023 127918451.77823     -4291.53623        21.70023
E12  26683905.81623  -2400250.63623      1262.98023        23.00023                                                                
> 2025 10 05 08 49 13.0000110  0 34                      
G04  21140668.91907     11745.02407     -1676.71007        46.30007  21140677.91316      1089.39716     -1251.40216        39.00016
G30  24785841.21906   -227235.74306      2608.25406        38.70006  24785875.39624   -896022.11524      1952.61424        25.00024
G09  20966897.21926    -44586.67826       241.31626        37.00026  20966889.72425   -864532.43525       175.64525        30.40025
G06  22635712.32215    -46132.98015       285.92215        34.20015  22635713.22225   2048209.74225       211.32025        31.00025
G07  22206559.41926    -85142.75026      1617.20326        38.90026                                                                
G16  22905903.87325    -91196.71925       518.98025        34.60025                                                                
G03  20822008.12424   -165006.09524     -2300.44824        28.80024                                                                
G26  24060004.10625   -296148.30225     -2197.74225        30.00025  24060294.00524  -2008794.00024     -1629.83824        27.30024
G01  23638203.61226     88312.08526     -4289.08626        36.10026  23638098.08524   2147988.75924     -3203.62524        24.50024
E29  23808750.74507    -27124.05707     -1002.97207        43.50007  23808754.64225   2046986.42525      -747.73625        35.10025
C21  22444921.70417    -32366.94717      -165.49017        44.30017  22444922.30425   2058190.32125      -124.87125        32.30025
E33  24081221.61706   -150883.27506     -1389.68006        39.40006  24081224.91516   -120490.10616     -1037.64816        37.20016
C06  38361245.96206      6415.15006     -1459.71706        40.30006                                                                
R04  20549764.79406 110045456.95706     -1146.13306        37.50006
R03  23045728.57426 123367988.59426     -2713.60026        38.50026
C26  23936422.16016   -103539.12416      2280.52016        36.00016  23936340.31614   1997491.18614      1719.79314        26.10014
C36  24865100.94925     39029.88225     -2928.74125        33.90025  24865059.57724   2096401.52524     -2215.73824        27.20024
R15  21012189.26425 112285163.45925      2704.74525        34.10025
R14  20447465.11425 108998882.98325      -959.95125        34.50025
E26  25457836.20725  -2088163.24925     -3527.87325        31.70025  25457793.03724  -1567302.96024     -2638.52224        24.60024
E27  26659298.55225  -1831872.96825      1294.09425        31.70025  26659299.75124  -1375068.99124       969.29524        25.70024
R19  22139550.70825 118434064.80125     -4282.36425        32.80025
C22  23642405.80325     26203.18525     -2153.21025        34.60025  23642245.71423   2094689.79823     -1624.58623        21.80023
C16  39758056.37025      8721.19725     -1544.53325        35.30025                                                                
R05  21234037.78225 113510495.92225       852.32325        29.90025
C34  24974426.86425     42823.60225     -2698.17825        31.60025  24974280.26625   2106630.83325     -2038.94425        33.50025
C13  40168089.41024     -4756.07724     -1430.15424        27.90024                                                                
E30  27367811.55824  -1801718.10124      -550.81924        23.80024  27367854.42923  -1352920.49123      -404.98323        19.70023
R20  21530689.91424 115136671.23724     -1233.11424        23.50024
E12  26683667.18223  -2401510.82323      1258.95823        23.30023                                                                
R21  23835636.13223 127551701.65923      1639.39323        23.10023
E21  28141104.61923  -2602100.61823      1871.32323        22.70023                                                                
R13  23955288.39923 127922296.50223     -4288.86623        21.70023
E19  24732229.63424  -2474140.66724       478.17524        25.00024                                                                
> 2025 10 05 08 49 14.0000114  0 34                      
G04  21140976.20707     13420.63607     -1674.76207        46.40007  21140987.59906      2340.41406     -1250.30006        38.70006
G07  22206243.73726    -86760.95326      1619.00326        38.20026                                                                
G06  22635655.36225    -46420.66925       288.69125        34.60025  22635659.55925   2048000.64125       208.04925        30.90025
G01  23638980.37426     92596.88426     -4283.63426        35.90026  23638905.12724   2151192.14624     -3202.82724        24.20024
G16  22905798.04625    -91716.58625       520.34225        34.40025                                                                
G26  24060459.19125   -293951.57725     -2195.84325        29.90025  24060708.61824  -2007163.45324     -1630.90024        27.00024
G09  20966830.06626    -44822.10926       232.77426        35.90026  20966838.16025   -864710.88925       178.49625        30.20025
G03  20822459.61124   -162701.76024     -2306.57724        28.70024                                                                
G30  24785329.17426   -229848.08726      2614.80326        37.40026                                                                
E29  23808935.11707    -26122.35207     -1000.74507        43.60007  23808936.61625   2047734.67625      -748.08925        34.60025
C21  22444945.08807    -32202.13807      -164.09807        44.00007  22444948.98525   2058313.57525      -122.22225        32.10025
E33  24081463.55006   -149494.97206     -1388.23106        40.40006  24081480.63806   -119453.38406     -1036.15406        37.20006
C22  23642815.32016     28357.41416     -2153.99916        38.70016  23642652.53223   2096313.53423     -1623.21023        21.50023
C06  38361524.76926      7874.63926     -1459.08826        40.20026                                                                
R04  20549965.95526 110046576.37926     -1150.26726        37.50026
R03  23046219.03526 123370657.10926     -2709.88826        38.30026
C26  23935988.36006   -105820.76906      2282.87206        36.30006  23935895.42404   1995772.02304      1720.47904        25.80004
R14  20447646.78915 108999895.86515      -961.13515        34.30015
R15  21011680.81625 112282488.90725      2704.69725        33.90025
E26  25458499.34825  -2084636.91125     -3525.24525        32.00025  25458472.36624  -1564667.32624     -2634.89024        23.80024
R19  22140382.33225 118438556.14825     -4290.67425        32.60025
C16  39758367.55525     10266.27525     -1545.15825        34.60025                                                                
R05  21233821.03225 113509380.75125       848.38925        29.90025
C34  24974917.92425     45523.30725     -2699.28825        31.20025  24974793.51025   2108671.27625     -2041.01325        32.90025
C13  40168315.75424     -3321.32224     -1437.01324        27.80024                                                                
E19  24732174.17224  -2915086.58024       477.58124        24.90024                                                                
C36  24865634.28025     41962.87425     -2934.80025        33.10025  24865680.44824   2098616.73924     -2215.61924        28.40024
R20  21530945.93624 115138082.90124     -1235.75724        24.20024
E30  27367876.31324  -1801165.32624      -553.20024        23.80024  27367942.86723  -1352519.59723      -398.06023        19.70023
R21  23835236.50923 127549606.02523      1633.23123        23.10023
E21  28140773.34823  -2603973.00723      1872.92123        22.60023                                                                
R13  23956126.61923 127926815.88323     -4283.98623        21.70023
E27  26659027.53915  -1833167.52815      1295.57415        32.00015  26659060.81624  -1376039.06624       972.24724        25.40024
E12  26683421.35223  -2402772.19823      1261.96823        23.40023  26683361.09424  -2078246.43624       939.45524        23.80024
> 2025 10 05 08 49 15.0000119  0 33                      
G04  21141301.78107     15094.99007     -1673.72307        46.50007  21141310.17616      3590.88116     -1250.19116        38.50016
G01  23639777.82226     96876.83326     -4277.52126        35.80026  23639714.26625   2154388.74925     -3193.21025        30.20025
G07  22205945.74426    -88376.13126      1613.66526        37.70026                                                                
G06  22635616.08925    -46708.51525       287.92325        35.00025  22635607.69525   2047788.50825       213.64825        30.90025
G16  22905724.29715    -92236.80615       520.39815        34.30015                                                                
G09  20966799.48725    -45060.98425       240.59825        34.80025  20966789.29424   -864890.15524       179.67124        29.40024
G03  20822871.82624   -160398.87524     -2302.15924        28.70024                                                                
G26  24060892.09125   -291762.75725     -2184.86825        29.80025  24061122.33224  -2005526.21024     -1640.59124        28.30024
E29  23809121.58807    -25121.81607      -999.95207        44.00007  23809131.48125   2048481.69325      -746.39925        34.60025
C21  22444976.86627    -32039.85727      -161.01827        43.70027  22444983.76125   2058436.55825      -122.84725        31.60025
E33  24081772.93606   -148106.87906     -1387.73806        41.00006  24081748.95206   -118417.18906     -1035.93106        37.10006
R14  20447831.16116 109000860.70116      -959.91316        35.80016
C13  40168507.32125     -1885.16925     -1436.85225        30.30025                                                                
R04  20550179.70726 110047704.23426     -1141.23426        37.60026
C22  23643207.14826     30510.90226     -2153.11626        38.70026  23643071.34223   2097937.66323     -1624.32523        21.10023
R03  23046744.87126 123373454.30326     -2709.67926        38.10026
C26  23935549.46426   -108101.84526      2280.78926        36.60026  23935461.92514   1994051.99014      1720.46814        25.70014
R15  21011181.36225 112279802.88625      2707.16825        33.80025
E27  26658787.70525  -1834465.36325      1299.22325        32.00025  26658814.68724  -1377014.82124       978.59524        25.00024
E26  25459166.38625  -2081112.00825     -3524.18325        32.00025  25459181.07624  -1562033.03624     -2633.61624        28.50024
R19  22141195.96925 118442890.59225     -4285.87225        32.40025
C16  39758661.35125     11803.55025     -1533.37325        34.00025                                                                
R05  21233672.33525 113508568.46825       861.51525        29.90025
C06  38361789.78626      9332.60126     -1457.19726        39.50026                                                                
C36  24866220.97325     44891.34325     -2926.20625        32.20025  24866240.16024   2100822.79124     -2201.47024        27.90024
E19  24732068.64524  -2915565.34324       478.76224        26.20024                                                                
E12  26683177.62124  -2404029.49924      1255.26424        24.20024  26683010.93624  -2079185.33724       938.90024        23.90024
R20  21531164.18524 115139232.89324     -1237.50824        24.20024
E30  27367990.83424  -1800611.66524      -554.10324        23.80024  27368051.09223  -1352118.62123      -401.01623        20.00023
R21  23834929.52223 127547946.05823      1636.46523        23.10023
E21  28140417.79423  -2605841.59523      1866.68723        22.70023                                                                
R13  23956935.75823 127931119.04023     -4282.04923        21.60023
C34  24975447.35825     48225.72025     -2703.76625        30.90025  24975316.94825   2110715.77025     -2046.51925        32.20025
> 2025 10 05 08 49 16.0000123  0 34                      
G04  21141611.46707     16768.35407     -1672.87007        46.80007  21141619.86126      4842.53626     -1252.24926        38.40026
G06  22635542.04016    -46998.78616       291.48416        35.80016  22635542.64025   2047579.16325       207.95025        33.70025
G07  22205633.95926    -89994.94326      1620.62826        37.30026                                                                
G16  22905631.66105    -92758.85505       522.96205        34.20005                                                                
G09  20966727.53725    -45304.05725       245.17125        34.00025  20966729.33524   -865073.43024       185.27924        29.20024
G26  24061315.39825   -289575.95725     -2185.78825        29.70025  24061525.25324  -2003892.79024     -1631.50824        27.40024
G03  20823296.93224   -158098.98424     -2298.39424        28.70024                                                                
G01  23640592.95816    101153.71716     -4275.35116        35.80016  23640519.80924   2157582.10524     -3191.73324        29.30024
G30  24784285.89625   -235076.13625      2615.87925        33.90025                                                                
E29  23809307.45907    -24122.37607      -998.89207        44.00007  23809312.25625   2049228.32125      -746.43325        35.20025
R14  20448010.13707 109001859.85207      -957.52207        42.80007
C21  22445008.64417    -31878.32417      -161.15917        43.50017  22445005.04625   2058558.60325      -121.57625        32.90025
E33  24081999.87816   -146718.27716     -1388.10616        41.00016  24082002.27706   -117381.28806     -1035.75406        37.10006
C13  40168774.43626      -450.62126     -1433.74526        39.00026                                                                
R04  20550398.55516 110048920.96216     -1141.25716        37.90016
C26  23935106.37116   -110384.69416      2283.73516        37.10016  23935009.83724   1992331.30424      1721.01124        25.60024
C22  23643598.67726     32665.42326     -2155.03726        38.40026  23643475.76223   2099559.42623     -1620.57923        20.70023
R15  21010661.52225 112277069.45925      2703.00325        33.70025
E26  25459827.42825  -2077588.36225     -3523.01725        32.00025  25459808.24224  -1559396.47624     -2637.69524        27.00024
E27  26658529.88425  -1835762.53225      1296.83525        32.00025  26658554.76724  -1377994.07624       981.00524        24.70024
R03  23047266.21026 123376289.79226     -2722.21326        37.40026
C06  38362074.88826     10790.27526     -1457.53026        38.30026                                                                
R19  22142006.60825 118447272.48825     -4288.72425        32.20025
C16  39758949.15225     13338.05125     -1533.11425        33.50025                                                                
R05  21233569.80625 113508065.18825       856.67225        29.80025
C34  24975965.69925     50929.11825     -2703.88825        30.60025                                                                
C36  24866760.90025     47818.65725     -2926.73625        31.50025  24866799.87324   2103027.90324     -2204.64024        27.60024
E19  24731953.82524  -2916047.63524       484.05824        26.20024                                                                
R20  21531364.74624 115140349.98024     -1233.40524        24.30024
E12  26682912.90424  -2405284.90424      1254.45624        24.60024  26682942.28324  -2080122.05024       935.61924        26.60024
E30  27368070.27924  -1800057.83224      -553.91924        23.80024  27368140.43123  -1351716.80223      -402.24223        19.90023
R21  23834683.09223 127546671.98523      1636.01623        23.10023
E21  28140068.53623  -2607707.33923      1864.32023        22.80023                                                                
R13  23957654.66123 127935001.96423     -4282.51423        21.60023
> 2025 10 05 08 49 17.0000127  0 34                      
G04  21141919.35407     18441.54707     -1673.10507        46.80007  21141928.94726      6093.00226     -1249.87126        38.30026
G06  22635474.88707    -47288.45207       289.36407        41.70007  22635479.98325   2047366.22025       214.74225        34.70025
G01  23641413.79026    105433.25726     -4280.86626        35.90026  23641326.55014   2160775.84914     -3193.93614        28.40014
G07  22205326.67226    -91616.79826      1623.37626        37.00026                                                                
G16  22905539.02515    -93280.14615       520.91215        34.10015                                                                
G09  20966689.16325    -45551.86025       250.16825        33.30025  20966676.57224   -865257.53624       184.52324        29.10024
G26  24061721.61725   -287384.63525     -2193.58225        29.60025  24061945.56224  -2002259.37524     -1633.41224        27.00024
G03  20823717.24124   -155802.54624     -2294.70924        28.70024                                                                
G30  24783781.64525   -237692.34625      2616.20925        32.40025                                                                
E29  23809482.23807    -23123.40007      -998.74307        44.10007  23809493.63125   2049974.98625      -746.68425        35.20025
C21  22445024.83307    -31717.21807      -160.89207        43.40007  22445027.53125   2058679.76325      -120.71725        33.90025
R14  20448188.81307 109002854.42907      -957.52007        42.70007
E33  24082271.79006   -145330.53706     -1387.55806        41.00006  24082259.19906   -116345.41606     -1035.85706        37.00006
C13  40169043.65016       983.93216     -1434.55516        38.90016                                                                
R04  20550604.81206 110050069.50106     -1142.13406        38.00006
C26  23934661.17906   -112668.67406      2284.54506        37.40006  23934561.34824   1990615.03824      1714.05624        25.50024
C22  23643982.41226     34819.10426     -2153.26026        38.10026  23643964.42424   2101177.44924     -1616.15324        27.20024
R15  21010141.98125 112274336.80025      2704.50325        33.60025
R03  23047773.45826 123379048.68726     -2708.00826        36.50026
E26  25460500.16325  -2074069.54425     -3516.40325        32.00025  25460507.65724  -1556764.09024     -2630.29724        28.50024
E27  26658277.15925  -1837061.26325      1299.51225        31.90025  26658214.80224  -1378965.72624       967.84624        23.90024
C16  39759265.73325     14871.13725     -1532.37725        33.10025                                                                
R19  22142805.55525 118451589.32425     -4284.31625        32.00025
C36  24867323.01125     50748.20025     -2930.65625        31.20025  24867356.58724   2105241.78924     -2218.27324        27.30024
C06  38362344.70126     12245.26626     -1453.64926        37.10026                                                                
R05  21233402.52125 113507214.66125       858.92625        29.80025
C34  24976460.35625     53630.31025     -2700.08825        30.40025                                                                
R20  21531595.58724 115141626.98224     -1229.76324        25.40024
E19  24731873.48024  -2916532.71424       486.47224        26.20024                                                                
E12  26682675.76824  -2406545.39424      1263.03324        24.70024  26682629.00024  -2081059.10024       937.21924        26.20024
E30  27368176.70624  -1799504.45924      -553.14424        23.90024                                                                
R21  23834423.47223 127545325.93723      1638.03923        23.30023
E21  28139694.09523  -2609573.07223      1865.72723        22.80023                                                                
R13  23958556.43723 127939860.58623     -4287.25723        21.60023
> 2025 10 05 08 49 18.0000132  0 35                      
G04  21142239.23207     20113.86307     -1671.87807        46.80007  21142250.02526      7342.02626     -1248.30126        38.30026
G06  22635426.32007    -47577.32407       288.47407        42.60007  22635428.41915   2047153.65215       212.38115        34.80015
G01  23642211.83726    109714.19026     -4281.62626        35.90026  23642141.68604   2163968.65304     -3192.33304        27.70004
G07  22205002.29726    -93236.22726      1618.21526        36.60026                                                                
G09  20966634.90125    -45798.56025       246.14925        32.80025  20966610.31824   -865441.99724       184.63824        28.10024
G26  24062146.72224   -285194.46424     -2189.59624        29.40024                                                                
G03  20824145.94424   -153505.58124     -2297.22824        28.70024                                                                
G30  24783261.50525   -240311.69525      2620.91625        31.00025                                                                
G11  25329275.00822  -2783273.70822      2107.45522        17.10022                                                                
G16  22905431.70005    -93801.93205       522.03205        34.10005                                                                
E29  23809671.10807    -22125.46407      -997.41507        44.10007  23809688.19625   2050720.30025      -744.63725        35.10025
C21  22445058.11007    -31557.10107      -159.62307        43.20007  22445062.00725   2058800.34225      -120.28825        33.60025
E33  24082565.58726   -143942.35626     -1388.40026        40.90026  24082526.31426   -115308.87126     -1036.88126        36.80026
R04  20550821.56206 110051211.91206     -1141.55806        38.30006
C13  40169319.45906      2417.77806     -1433.49206        38.80006                                                                
C22  23644433.89916     36971.21916     -2151.33116        38.00016  23644383.23415   2102799.92615     -1624.70215        29.90015
C26  23934229.17816   -114953.76916      2285.65116        37.60016  23934129.94724   1988894.80824      1722.21224        25.40024
R14  20448375.88427 109003834.51827      -953.44127        42.10027
R15  21009639.52925 112271634.71925      2701.78825        33.60025
E26  25461174.09625  -2070547.08725     -3524.27525        32.00025  25461182.19024  -1554131.95724     -2632.00524        28.50024
R03  23048254.02626 123381602.31426     -2709.63126        35.80026
E27  26658047.21825  -1838358.54025      1296.54925        31.80025  26657985.16114  -1379929.80514       960.29514        26.70014
C36  24867891.41725     53676.09925     -2927.07625        31.10025  24867912.10324   2107454.02824     -2211.41524        27.20024
R19  22143617.69225 118455915.34925     -4278.08525        31.80025
C16  39759595.80525     16405.93825     -1535.65825        32.80025                                                                
C06  38362657.98526     13702.21226     -1457.92426        35.90026                                                                
R05  21233189.96825 113506060.48525       857.40325        29.80025
C34  24976993.98725     56331.25625     -2700.82125        30.20025                                                                
R20  21531835.12124 115142890.97624     -1230.42824        25.50024
E12  26682454.22124  -2407809.91624      1266.53724        24.70024  26682278.84324  -2081995.37924       935.89224        25.20024
E30  27368269.34124  -1798950.23024      -554.65624        24.10024                                                                
R21  23834148.86223 127543838.24623      1641.13223        23.30023
E21  28139352.03223  -2611441.68023      1870.04523        23.00023                                                                
R13  23959445.62123 127944591.61323     -4290.26023        21.50023
E19  24731782.04424  -2917019.44924       487.56224        26.80024  24731794.03524  -2185813.37824       364.52524        27.90024
> 2025 10 05 08 49 19.0000137  0 35                      
G04  21142579.19707     21786.08807     -1672.17807        46.70007  21142591.48816      8591.60016     -1249.84816        38.20016
G06  22635409.53207    -47864.03707       285.63307        42.50007  22635396.34105   2046941.30105       212.24305        33.70005
G01  23643072.24216    113990.29016     -4273.68216        35.80016  23642975.70904   2167161.99504     -3193.60904        26.90004
G16  22905370.24215    -94322.10715       519.37015        34.00015                                                                
G09  20966619.61125    -46045.37425       246.87125        32.50025  20966588.43324   -865630.90724       191.13324        28.70024
G03  20824602.82724   -151208.64524     -2296.92024        28.70024  20824615.71923  -1917466.63123     -1714.92223        19.00023
G26  24062603.60624   -283005.52424     -2188.32324        29.30024                                                                
G30  24782766.84825   -242932.12625      2620.97125        29.80025                                                                
G11  25328889.17522  -2785383.33222      2109.62222        17.30022                                                                
G07  22204724.38926    -94855.77326      1619.60326        36.30026                                                                
E29  23809892.95407    -21127.40507      -998.12007        44.10007  23809898.35015   2051465.47315      -745.10315        35.10015
C21  22445113.57107    -31396.79607      -160.39907        43.20007  22445112.37225   2058920.59925      -120.09725        33.40025
E33  24082830.90326   -142557.36826     -1383.39226        40.80026  24082805.12126   -114275.70926     -1031.46926        36.50026
R04  20551060.49706 110052375.01006     -1143.97006        38.60006
C22  23644895.87926     39123.52526     -2152.40126        37.90026  23644818.53306   2104424.46306     -1625.56706        36.10006
C26  23933794.47926   -117236.54726      2281.61826        37.50026  23933711.43624   1987169.89124      1727.25924        25.20024
R14  20448564.75316 109004726.13116      -956.21916        41.20016
C13  40169628.54526      3851.93226     -1434.30726        38.50026                                                                
R15  21009145.47125 112268879.12425      2708.12625        33.60025
E26  25461846.83025  -2067027.01825     -3518.87225        31.90025  25461875.01124  -1551503.19924     -2627.06924        28.30024
C36  24868468.21825     56604.88125     -2929.22125        31.30025  24868494.30024   2109662.94624     -2207.25524        27.20024
R03  23048779.86225 123384302.99925     -2708.93725        35.10025
R19  22144408.84525 118460032.41825     -4280.54225        31.60025
C16  39759865.31825     17944.26925     -1540.09525        32.40025                                                                
C06  38362979.06225     15160.59125     -1459.09525        35.00025                                                                
R05  21233018.18725 113505027.15425       861.76325        29.70025
R20  21532076.45424 115144065.45124     -1229.72924        28.30024
C34  24977574.08525     59029.64625     -2697.11225        30.00025                                                                
E12  26682238.07124  -2409076.09924      1267.01324        24.60024  26682056.09724  -2082934.20424       940.09824        24.30024
E30  27368398.55224  -1798398.82724      -549.99024        24.10024                                                                
E21  28139008.47023  -2613311.61923      1870.60323        23.10023  28139174.85523  -2093040.07523      1377.52923        19.70023
R21  23833852.36723 127542136.92823      1644.70423        23.30023
R13  23960275.44623 127948906.99323     -4298.50623        21.40023
E19  24731722.38524  -2917503.87124       483.26624        28.20024  24731726.88224  -2186174.37224       360.99424        27.40024
E27                                                                  26657830.16824  -1380891.23124       960.09824        26.30024
> 2025 10 05 08 49 20.0000141  0 35                      
G04  21142866.39807     23457.51507     -1671.02707        46.60007  21142882.28716      9841.11416     -1249.48316        38.20016
G01  23643843.30826    118265.69326     -4275.05426        36.20026  23643763.56324   2170351.99424     -3188.32624        26.20024
G06  22635330.68727    -48150.36327       286.13227        41.50027  22635304.00505   2046730.15605       210.54105        32.80005
G16  22905275.50825    -94845.73525       525.35425        33.90025                                                                
G26  24062960.35924   -280813.06024     -2194.22524        29.10024                                                                
G30  24782184.95024   -245552.33524      2620.09824        28.90024                                                                
G11  25328453.27723  -2787496.52823      2114.98323        17.70023                                                                
G07  22204432.09216    -96476.84516      1621.83516        36.00016                                                                
G03  20825002.45124   -148913.42224     -2294.36524        28.80024  20825026.73423  -1915751.40423     -1715.37923        19.50023
G09  20966535.07025    -46292.41325       247.15225        32.20025  20966520.68024   -865819.26024       188.07524        28.70024
E29  23810051.54407    -20129.74507      -997.46007        44.00007  23810062.63705   2052210.44705      -744.87505        35.10005
C21  22445112.97207    -31237.25807      -159.15407        43.20007  22445117.76825   2059041.87325      -121.78225        33.60025
E33  24083067.43926   -141170.65226     -1387.57926        40.80026  24083043.75626   -113239.41726     -1037.85726        36.10026
R04  20551252.36406 110053545.77006     -1143.25406        38.90006
C22  23645265.52326     41277.99526     -2155.55126        37.80026  23645207.36406   2106049.44006     -1625.19606        35.50006
R14  20448734.73606 109005774.10106      -956.95006        40.50006
R15  21008562.97415 112265908.67715      2698.69015        33.80015
E19  24731586.57925  -2917985.04525       479.54925        34.80025  24731603.66724  -2186536.26024       362.33324        26.80024
C36  24868996.45225     59538.08825     -2935.41925        31.50025  24869031.52814   2111870.04914     -2206.19514        28.90014
E26  25462509.67125  -2063504.00125     -3524.49025        31.90025  25462512.66924  -1548879.29424     -2621.47824        28.00024
R03  23049245.43925 123386937.04925     -2715.20025        34.50025
R19  22145180.51125 118464304.09925     -4276.66625        31.50025
R20  21532276.41525 115145277.41925     -1231.37325        30.30025
C16  39760110.84825     19483.25925     -1539.31925        32.10025                                                                
C13  40169858.18626      5284.75226     -1432.15326        37.30026                                                                
C06  38363194.91325     16618.11225     -1457.09125        34.20025                                                                
C26  23933328.00226   -119516.24926      2278.16326        36.80026  23933240.46224   1985437.73824      1735.76924        24.90024
R05  21232824.82125 113504136.09225       860.82625        29.70025
C34  24978057.65125     61727.28225     -2697.25825        29.80025                                                                
E12  26681986.54524  -2410342.98024      1267.22924        24.50024  26681791.98023  -2083868.92923       932.67423        23.40023
E30  27368474.99924  -1797850.70824      -546.47824        24.10024                                                                
E21  28138610.64523  -2615182.82423      1871.83823        23.30023                                                                
R21  23833523.79523 127540520.60623      1645.24223        23.20023
E27  26657530.37624  -1840951.44124      1294.61924        27.80024                                                                
R13  23961119.96223 127953560.08623     -4296.77623        21.30023
> 2025 10 05 08 49 21.0000146  0 36                      
G04  21143208.16227     25127.96227     -1669.95727        46.50027  21143220.45316     11089.13716     -1247.27816        38.10016
G01  23644699.51526    122540.44326     -4274.42026        36.20026  23644598.78524   2173540.21724     -3187.33424        25.50024
G16  22905235.93525    -95366.48125       519.30625        33.80025                                                                
G06  22635305.80426    -48435.52426       284.57926        40.10026  22635278.52315   2046518.90815       211.29915        32.30015
G09  20966501.49325    -46540.27725       248.27625        32.10025  20966498.49524   -866006.51424       186.70524        28.50024
G03  20825466.53024   -146615.05724     -2299.93524        28.90024  20825483.61823  -1914044.10123     -1703.33923        19.70023
G26  24063424.73824   -278617.74224     -2196.74524        29.00024                                                                
G30  24781728.66624   -248173.91824      2622.26824        28.10024                                                                
G11  25328038.66423  -2789614.95423      2121.03923        17.70023                                                                
G07  22204140.69306    -98100.04906      1624.26906        35.80006                                                                
E29  23810267.09507    -19133.74507      -995.16907        43.90007  23810272.79125   2052956.08425      -745.96825        34.90025
C21  22445170.83227    -31075.85327      -162.33827        43.10027  22445171.13125   2059162.98425      -121.02825        33.30025
E33  24083336.65317   -139785.24117     -1384.75717        41.70017  24083333.05526   -112202.43826     -1037.32226        35.70026
R04  20551485.30306 110054675.92006     -1141.54906        38.90006
R14  20448928.40106 109006689.35306      -954.79306        40.00006
R15  21008077.31125 112263195.88925      2702.27325        34.20025
C05  37239192.94325   -334278.38225      -745.30725        33.90025                                                                
E19  24731524.82225  -2918469.33825       485.85225        34.50025  24731527.82024  -2186897.89424       361.50824        26.60024
C36  24869593.93825     62469.71625     -2930.83625        31.90025  24869617.62205   2114075.67705     -2204.89005        30.50005
E26  25463185.10425  -2059983.87025     -3518.68625        31.80025  25463196.19624  -1546279.62624     -2587.54824        27.70024
R03  23049765.87925 123389606.33025     -2707.22925        34.00025
R20  21532522.84525 115146478.67125     -1229.04525        30.90025
C26  23932929.27826   -121803.33626      2290.77926        35.90026  23932816.85624   1983699.52224      1741.24724        24.60024
R19  22145992.64825 118468530.62025     -4281.16125        31.40025
C22  23645661.54926     43433.20926     -2155.58426        36.60026  23645640.56415   2107673.86115     -1624.14315        35.30015
C06  38363492.60725     18075.58725     -1457.45125        33.60025                                                                
C16  39760433.72525     21017.65625     -1532.10025        31.80025                                                                
C13  40170190.35626      6715.01426     -1428.98126        36.20026                                                                
R05  21232739.08125 113503560.91425       854.91025        29.70025
C34  24978587.98325     64426.42225     -2699.89025        29.70025                                                                
E12  26681767.09724  -2411613.19224      1271.87724        24.40024  26681576.72923  -2084805.43523       937.39623        22.70023
E30  27368604.80924  -1797307.54724      -540.68124        24.00024                                                                
E21  28138295.86324  -2617051.89724      1868.00624        23.50024                                                                
E27  26657308.23024  -1842245.07624      1293.63524        27.00024                                                                
R21  23833279.46423 127539097.22823      1640.50123        23.20023
R13  23961978.56723 127958027.51223     -4295.55023        21.20023
> 2025 10 05 08 49 22.0000150  0 36                      
G04  21143510.95227     26794.93727     -1665.23927        45.90027  21143529.53906     12335.61606     -1245.70606        37.70006
G09  20966451.12825    -46792.35525       254.18425        32.40025  20966437.93724   -866194.67024       188.60724        28.40024
G01  23645504.75826    126809.12926     -4265.65326        36.20026  23645405.22724   2176729.86224     -3190.35524        24.90024
G16  22905080.04325    -95888.03425       521.95525        33.70025                                                                
G06  22635241.64826    -48725.95326       293.06326        38.70026  22635216.16625   2046306.40725       213.12825        31.60025
G03  20825922.51424   -144317.75024     -2296.77724        28.90024  20825907.22423  -1912347.11623     -1691.82523        19.70023
G26  24063825.56024   -276427.38924     -2187.86924        28.80024                                                                
G30  24781203.43024   -250794.78424      2620.50724        27.50024                                                                
G11  25327658.22723  -2791738.42123      2125.98723        17.70023                                                                
G07  22203832.50706    -99723.24506      1623.19106        35.60006                                                                
E29  23810451.46707    -18139.38307      -992.79407        43.80007  23810455.36525   2053701.69025      -745.59025        34.90025
C21  22445188.51917    -30919.93817      -153.17017        43.00017  22445190.31825   2059280.83525      -116.22225        33.00025
E33  24083608.86507   -138401.96107     -1382.96407        42.40007  24083587.87925   -111167.27225     -1034.25925        35.20025
R04  20551684.96506 110055789.97606     -1137.77206        38.90006
R14  20449100.48206 109007652.66006      -953.65206        39.70006
C05  37239319.45626   -333542.90526      -735.47726        37.60026                                                                
R15  21007543.68025 112260389.82225      2707.08725        34.60025
C22  23646064.47026     45585.17326     -2150.34026        35.90026  23646047.38215   2109297.11715     -1622.67315        34.90015
C36  24870132.96525     65399.91625     -2929.48625        31.90025  24870168.34125   2116278.23725     -2201.02425        30.20025
E19  24731420.79425  -2918957.36825       489.89825        34.10025  24731433.98524  -2187262.09324       365.48024        27.60024
R03  23050285.71925 123392434.15925     -2706.67125        33.60025
E26  25463889.61625  -2056469.64925     -3511.26525        31.70025                                                                
C26  23932482.28725   -124090.21425      2286.77125        35.10025  23932358.17324   1981966.58124      1730.30324        24.20024
C06  38363745.93125     19529.72225     -1452.46525        33.10025                                                                
R20  21532764.77725 115147816.88125     -1225.24225        30.90025
R19  22146763.71525 118472700.49925     -4277.96625        31.20025
C16  39760721.22525     22552.60325     -1535.22125        31.60025                                                                
C13  40170436.18625      8140.12825     -1422.53925        35.30025                                                                
R05  21232540.01825 113502541.35125       869.54625        29.60025
C34  24979102.42725     67123.45925     -2695.98625        29.60025                                                                
E27  26657062.10024  -1843545.62324      1304.00124        26.50024  26657072.29324  -2660301.97124       969.31524        26.60024
E21  28137903.13524  -2618923.23624      1872.47224        23.50024                                                                
E12  26681501.78124  -2412885.31124      1273.07224        24.30024  26681446.91923  -2085746.61623       943.51823        22.50023
E30  27368705.83924  -1796767.38524      -538.66224        23.90024                                                                
R21  23833033.93423 127537826.98323      1644.39523        23.10023
R13  23962817.08723 127962550.71323     -4294.56923        21.10023
> 2025 10 05 08 49 23.0000155  0 37                      
G04  21143838.32517     28460.10817     -1664.26717        45.30017  21143846.72016     13578.37216     -1240.89516        37.40016
G09  20966391.16926    -47047.96326       257.37326        36.20026  20966388.77125   -866388.31625       196.39125        30.20025
G07  22203527.31826   -101351.30226      1630.48626        35.50026                                                                
G16  22904976.91425    -96414.63225       529.12125        33.60025                                                                
G06  22635181.99026    -49018.57426       293.71826        37.60026  22635161.60425   2046094.42025       211.73025        31.50025
G03  20826368.90524   -142027.27924     -2287.05224        28.90024  20826351.51723  -1910641.90123     -1709.33023        19.60023
G26  24064211.69324   -274242.60924     -2181.99224        28.60024                                                                
G30  24780693.78324   -253415.54924      2620.71324        27.00024                                                                
G11  25327257.40523  -2793866.93623      2131.03723        17.70023                                                                
G01  23646312.99826    131080.11226     -4272.12926        36.10026  23646219.76324   2179919.07024     -3188.98824        24.20024
E29  23810644.83407    -17149.31507      -988.92007        43.80007  23810646.93225   2054441.66125      -737.15425        35.10025
E33  24083871.18317   -137020.01117     -1380.28517        42.40017  24083854.69425   -110134.79125     -1031.13825        34.60025
C21  22445221.49627    -30766.75127      -151.82327        42.90027  22445224.49425   2059397.39525      -115.91525        32.80025
R14  20449278.85926 109008584.69926      -951.50426        39.70026
R04  20551899.01616 110056919.36416     -1134.93716        38.90016
C05  37239468.15326   -332810.10426      -731.46326        38.60026                                                                
R15  21007042.72725 112257694.62825      2708.29125        35.10025
C22  23646465.89225     47730.16825     -2141.50825        35.40025  23646469.19015   2110917.98515     -1619.67315        34.50015
C36  24870715.76225     68324.46925     -2921.72725        31.90025  24870736.14825   2118479.95825     -2201.30125        30.00025
C26  23932031.69925   -126381.37525      2293.30225        34.50025  23931919.57724   1980240.17124      1723.14424        23.90024
C06  38364020.84125     20980.69125     -1449.38625        32.80025                                                                
R03  23050813.05425 123395239.77925     -2705.23225        33.20025
E19  24731328.45825  -2919453.41625       500.05725        33.70025  24731347.04524  -2187627.98124       366.73224        27.30024
E26  25464540.46525  -2052958.40725     -3509.75025        31.60025  25464665.77924  -2800232.28024     -2624.04424        27.60024
R19  22147604.03325 118477177.30725     -4268.22925        31.10025
C16  39761038.40625     24081.90225     -1526.47425        31.30025                                                                
R20  21532997.71625 115149045.68125     -1220.45925        30.80025
C13  40170695.80625      9564.30925     -1423.71425        34.50025                                                                
R05  21232369.43725 113501612.04425       867.35125        29.50025
C34  24979597.68425     69816.51025     -2691.05525        29.50025  24979664.83823  -2357276.60823     -2047.52423        22.00023
E27  26656817.16924  -1844850.47424      1307.00324        26.20024  26656825.86324  -2661272.49024       970.51924        26.20024
E12  26681285.93024  -2414156.98524      1271.45124        24.20024  26681207.68423  -2086686.17423       938.74623        22.40023
E21  28137536.78924  -2620797.35024      1875.50024        23.50024                                                                
R21  23832767.71823 127536385.23223      1643.14423        23.10023
R13  23963640.01723 127966926.45423     -4287.06423        21.10023
C11  24455353.61123  -2978043.81223     -1848.63423        19.60023                                                                
E30  27368795.77724  -1796228.06024      -538.90624        23.70024                                                                
> 2025 10 05 08 49 24.0000159  0 37                      
G04  21144151.90807     30121.28007     -1659.17207        44.80007  21144152.50806     14818.32306     -1238.54806        36.90006
G09  20966331.51126    -47303.39226       255.34126        36.60026  20966334.20925   -866582.00225       193.70525        29.90025
G01  23647121.23926    135342.98226     -4258.81326        36.00026  23647020.80814   2183104.64114     -3183.75114        23.60014
G07  22203210.13725   -102980.98425      1630.49425        35.30025                                                                
G06  22635117.23426    -49312.65926       294.81526        36.70026  22635103.14425   2045872.35325       227.10725        30.50025
G03  20826782.61824   -139741.35124     -2283.65624        28.90024  20826784.11723  -1908931.21223     -1713.42523        19.70023
G16  22904854.59925    -96940.00825       524.76325        32.70025                                                                
G26  24064624.20724   -272062.65524     -2177.54024        28.50024                                                                
G30  24780170.94524   -256036.04624      2620.36224        26.70024                                                                
G11  25326827.50223  -2796001.31223      2137.30623        17.70023                                                                
C22  23646868.81326     49872.28126     -2140.67226        35.60026  23646878.10725   2112537.81525     -1619.31125        34.10025
E29  23810826.50827    -16162.38827      -984.35627        43.60027  23810825.00925   2055184.08625      -743.65125        34.60025
E33  24084134.40117   -135641.90617     -1376.43217        42.40017  24084109.51825   -109106.16825     -1026.69325        34.10025
C21  22445239.78427    -30616.35027      -149.00827        42.70027  22445244.88025   2059508.95525      -109.06025        32.40025
R15  21006555.56427 112255134.74827      2714.27327        42.10027
R14  20449459.03426 109009588.42126      -950.04526        39.80026
C05  37239604.55826   -332081.63626      -726.30126        38.80026                                                                
R04  20552107.97226 110058081.68826     -1133.03526        38.90026
C26  23931568.22025   -128675.86425      2296.15225        34.10025  23931471.98724   1978513.75224      1726.42324        23.50024
C36  24871266.48025     71249.08525     -2924.64525        31.80025  24871284.76825   2120678.19425     -2196.49125        29.70025
C06  38364289.75525     22426.59125     -1443.36325        32.60025                                                                
R03  23051317.60525 123397983.35425     -2695.24325        32.90025
R19  22148408.97625 118481527.05525     -4269.25925        31.00025
E19  24731219.93325  -2919952.98425       501.32825        33.30025  24731231.92424  -2187993.05324       364.66524        26.70024
C13  40170975.51225     10985.36325     -1419.49125        33.80025                                                                
C16  39761309.71825     25604.68425     -1519.52225        31.10025                                                                
R20  21533230.95425 115150336.45425     -1224.50425        30.70025
R05  21232177.56925 113500629.96025       869.47125        29.50025
C34  24980075.25424     72505.54924     -2687.03224        29.30024                                                                
E27  26656555.75024  -1846159.72424      1311.44824        26.10024  26656565.94324  -2662240.62324       966.94024        25.70024
E21  28137180.33524  -2622675.84524      1880.68524        23.70024                                                                
R21  23832453.23623 127534745.93223      1647.08523        23.10023
R13  23964412.88223 127971096.66323     -4283.66423        21.00023
C11  24455684.88223  -2976197.54123     -1846.27023        19.60023                                                                
E30  27368905.20124  -1795693.60624      -532.01924        23.60024                                                                
E26  25465173.92725  -2049453.26225     -3502.09525        31.50025  25465285.75024  -2797609.91224     -2622.36824        27.40024
E12                                                                  26680956.15823  -2087626.79923       941.15923        22.20023
> 2025 10 05 08 49 25.0000164  0 37                      
G04  21144464.59207     31774.93407     -1649.89407        44.40007  21144469.98806     16053.35406     -1232.56906        36.50006
G01  23647945.66826    139600.15926     -4254.32826        35.90026  23647834.74523   2186284.92823     -3177.64423        23.00023
G07  22202921.43725   -104625.49525      1651.92525        35.10025                                                                
G06  22635051.28026    -49614.66926       305.97326        35.90026  22635016.50424   2045647.39024       226.41124        29.40024
G03  20827208.02424   -137462.42424     -2275.42624        28.90024  20827220.61523  -1907225.01623     -1703.94823        20.00023
G26  24065051.41224   -269886.79824     -2173.80724        28.30024                                                                
G30  24779713.46124   -258664.43224      2632.32824        26.40024                                                                
G09  20966285.64216    -47569.71816       271.77416        37.00016  20966285.34325   -866783.23925       205.01225        32.80025
G11  25326474.34723  -2798142.64523      2144.81123        17.60023                                                                
G16  22904749.97225    -97475.02525       539.83825        32.00025                                                                
R15  21006051.91327 112252426.55527      2723.70627        42.80027
E29  23811009.98127    -15182.78327      -976.19227        43.50027  23811015.07725   2055915.55325      -725.98925        34.30025
E33  24084406.31217   -134269.45517     -1369.62317        42.30017  24084376.03325   -108081.49825     -1022.69425        33.40025
C21  22445273.36127    -30474.48027      -137.60527        42.50027  22445274.26025   2059614.74225      -102.90025        32.10025
C22  23647280.42826     52006.09426     -2129.66226        41.10026  23647290.32225   2114148.13925     -1605.57025        33.70025
R14  20449628.11716 109010472.40716      -938.94116        39.80016
C05  37239741.26426   -331360.07026      -718.11626        38.80026                                                                
R04  20552319.32526 110059194.98226     -1119.24826        38.80026
C26  23931149.41025   -130977.14725      2304.67925        33.80025  23931032.49123   1976780.18823      1737.13523        23.10023
C06  38364573.35925     23865.14325     -1434.87825        32.40025                                                                
C36  24871816.30025     74157.30825     -2900.02525        31.80025  24871849.57725   2122871.82225     -2191.32325        29.60025
R03  23051856.63225 123400851.78025     -2686.73625        32.60025
E26  25465847.56125  -2045952.92725     -3497.92925        31.40025  25465954.88625  -2794994.35325     -2612.15225        31.80025
R19  22149189.63525 118485684.69325     -4256.64325        31.00025
C16  39761610.11025     27121.37725     -1513.64925        31.00025                                                                
C13  40171256.71825     12397.34325     -1407.44225        33.20025                                                                
R20  21533427.01925 115151366.31925     -1216.55725        30.50025
R05  21232056.15324 113499962.23524       883.82424        29.40024
C34  24980586.99924     75186.43724     -2676.81124        29.20024                                                                
E27  26656298.52924  -1847477.11824      1321.46724        26.10024  26656323.11224  -2663211.17824       971.76524        25.30024
E21  28136852.66224  -2624560.99424      1888.47524        23.70024                                                                
R21  23832128.56123 127532991.01923      1654.16523        23.00023
E30  27369027.51723  -1795164.79823      -525.98323        23.40023                                                                
R13  23965174.65523 127975146.91723     -4279.97023        20.90023
C11  24456030.84223  -2974359.01123     -1834.65823        19.80023                                                                
E19  24731126.99725  -2920456.97725       506.20525        32.90025  24731125.49824  -2188366.27124       377.29024        27.70024
E12                                                                  26680715.72523  -2088570.46123       945.18023        22.00023
> 2025 10 05 08 49 26.0000168  0 37                      
G04  21144769.78007     33425.72807     -1649.36307        44.00007  21144778.17526     17291.30826     -1239.41726        36.60026
G09  20966219.68816    -47836.82016       267.49016        37.40016  20966214.89125   -866985.65025       202.99925        33.90025
G01  23648714.63616    143854.31416     -4252.64216        35.80016  23648634.59123   2189458.33823     -3169.97023        22.40023
G06  22634979.63025    -49922.35925       310.52925        35.30025  22634936.75924   2045419.35324       229.57324        28.90024
G03  20827623.83624   -135185.52824     -2275.87924        28.90024  20827646.62023  -1905525.40423     -1696.32123        20.00023
G16  22904616.56425    -98015.81625       543.67725        31.40025                                                                
G26  24065488.50924   -267715.37424     -2169.20724        28.20024                                                                
G30  24779212.50824   -261300.85324      2640.43924        26.10024                                                                
G11  25326057.63523  -2800294.53623      2157.16923        17.60023                                                                
G07  22202564.38525   -106267.68425      1641.02825        35.00025                                                                
R15  21005557.55527 112249828.45527      2726.54027        42.90027
E29  23811181.76227    -14206.52727      -974.58127        43.30027  23811193.15425   2056645.86125      -729.72725        34.10025
E33  24084676.72527   -132898.57027     -1370.85227        42.20027  24084629.95825   -107056.41925     -1025.28225        32.70025
C21  22445295.84527    -30335.67227      -137.27627        42.30027  22445291.94825   2059719.43225      -104.14125        31.80025
R14  20449787.90626 109011368.59026      -942.45126        39.70026
C05  37239875.87026   -330640.93626      -717.91726        38.70026                                                                
R04  20552517.18826 110060300.61126     -1119.82126        38.70026
C22  23647695.34116     54140.56116     -2134.79216        40.70016  23647685.74825   2115756.78725     -1607.80925        32.90025
C26  23930676.03825   -133280.58525      2304.51525        33.50025  23930580.40423   1975040.76823      1742.34723        22.70023
E19  24731015.47425  -2920966.05425       511.61925        32.60025  24731021.77024  -2188743.76124       379.62624        27.60024
C06  38364860.26025     25305.75425     -1441.64025        32.20025                                                                
R03  23052323.40925 123403395.44725     -2688.21325        32.40025
C36  24872371.21625     77062.63225     -2903.87425        31.70025  24872400.29624   2125061.80224     -2188.15624        28.80024
R19  22149963.99925 118489872.94325     -4266.52625        30.90025
E26  25466425.86025  -2042454.64525     -3497.25325        31.20025  25466607.53415  -2792384.56515     -2606.90215        34.90015
C16  39761904.80625     28634.72725     -1511.67725        30.80025                                                                
C13  40171533.12625     13808.55725     -1410.83125        32.70025                                                                
R20  21533656.95925 115152641.79025     -1216.23825        30.30025
R05  21231906.85724 113499208.84324       882.71524        29.30024
C34  24981076.26124     77862.32624     -2673.38924        29.10024                                                                
E27  26656029.61524  -1848795.46224      1318.81824        26.20024  26656059.89424  -2664191.79124       985.64124        24.80024
R21  23831816.47723 127531366.26823      1661.23023        23.00023
E30  27369126.74823  -1794643.87223      -516.98623        23.30023                                                                
C11  24456394.79023  -2972522.81223     -1835.03223        20.30023                                                                
R13  23966047.95023 127979855.01923     -4276.18123        20.90023
E21  28136480.92024  -2626455.70624      1899.49324        23.70024                                                                
E12                                                                  26680290.91923  -2089522.17823       955.74423        23.30023
> 2025 10 05 08 49 27.0000173  0 36                      
G04  21145100.15207     35068.80907     -1639.22507        43.70007  21145110.34526     18521.14026     -1225.76926        36.30026
G09  20966187.31106    -48111.41306       278.33806        38.20006  20966182.81426   -867190.65926       206.30726        39.50026
G07  22202248.10325   -107914.34625      1648.89825        34.90025                                                                
G06  22634959.24425    -50234.69325       314.65625        34.70025  22634904.38224   2045181.60024       242.61224        28.40024
G16  22904538.01825    -98561.74825       548.50225        31.10025                                                                
G03  20828086.41624   -132912.17924     -2271.57624        28.90024  20828095.11024  -1903833.87624     -1687.48324        25.10024
G26  24065920.51024   -265543.50524     -2172.09024        28.00024                                                                
G30  24778702.56124   -263949.56124      2654.85024        25.80024                                                                
G11  25325674.50023  -2802458.41523      2169.87123        17.50023                                                                
G01  23649542.06326    148107.34526     -4252.46726        35.70026  23649468.31423   2192628.19223     -3168.07323        21.90023
R15  21005024.82427 112246865.65227      2731.33127        42.90027
E29  23811386.22027    -13237.39727      -965.56727        43.20027  23811398.21225   2057369.09825      -719.70225        33.90025
C21  22445342.91227    -30205.40527      -125.99727        42.10027  22445339.01525   2059814.36425       -90.05425        31.70025
R14  20449997.76126 109012370.79126      -927.68626        39.60026
C05  37240033.26116   -329928.81816      -708.61016        38.60016                                                                
C22  23648109.95426     56264.65126     -2118.90026        40.30026  23648121.34625   2117360.95025     -1601.92025        32.60025
E26  25467285.36526  -4203970.32126     -3482.86426        36.30026  25467294.35905  -2789780.33205     -2601.45405        34.80005
R04  20552733.03926 110061338.04626     -1108.16726        38.50026
R19  22150774.93825 118494094.10525     -4245.55425        33.80025
E33  24084951.93516   -131535.41516     -1359.03916        41.20016  24084911.46325   -106036.46125     -1017.39825        32.00025
C26  23930294.40225   -135591.99625      2315.39625        33.40025  23930164.29223   1973296.64823      1746.46923        22.20023
E19  24730948.02125  -2921480.63425       517.33225        32.40025  24730944.72324  -2189128.46124       388.30424        28.30024
R03  23052846.84625 123406080.04525     -2675.81825        32.30025
C36  24872971.70025     79965.17025     -2901.14425        31.60025  24872979.49524   2127247.71124     -2183.87224        28.60024
C06  38365177.74025     26740.00325     -1431.06725        32.10025                                                                
C16  39762213.29325     30140.59025     -1502.11925        30.70025                                                                
C13  40171830.82025     15210.56125     -1397.39825        32.20025                                                                
R20  21533933.36825 115154002.18825     -1205.95625        30.10025
R05  21231742.87024 113498216.04924       898.10724        29.20024
C34  24981619.18524     80532.03424     -2666.61624        29.00024                                                                
E27  26655820.36024  -1850119.66724      1327.13524        26.40024  26655831.75224  -2665180.28024       992.42724        24.60024
R21  23831409.65823 127529072.32323      1665.64223        23.00023
E30  27369205.29323  -1794125.61223      -516.92623        23.10023                                                                
E12  26680314.90223  -4119374.38823      1292.67723        19.90023                                                                
C11  24456745.84723  -2970687.61223     -1834.70023        21.40023                                                                
R13  23966863.68623 127984094.75723     -4271.26723        20.70023
> 2025 10 05 08 49 28.0000177  0 36                      
G04  21145409.83707     36703.39507     -1630.33807        43.40007  21145413.73526     19742.12626     -1216.56326        36.20026
G09  20966117.45906    -48394.45306       287.26406        39.20006  20966121.65626   -867401.92626       214.39726        38.60026
G07  22201934.52125   -109570.81825      1661.37525        34.80025                                                                
G06  22634897.78625    -50550.61425       317.71525        34.30025  22634825.53624   2044936.99124       248.03624        28.00024
G16  22904421.09925    -99115.56525       557.76025        30.90025                                                                
G03  20828521.41524   -130645.42224     -2263.45924        28.90024  20828517.51724  -1902143.19324     -1690.26124        26.70024
G26  24066311.73924   -263377.05924     -2163.73424        27.80024                                                                
G30  24778174.92624   -266611.85424      2669.08424        25.60024                                                                
G11  25325261.98622  -2804634.50722      2182.19922        17.40022                                                                
G01  23650326.32026    152345.77626     -4231.12826        35.60026  23650266.66123   2195783.67523     -3148.29723        21.40023
R15  21004500.18717 112244106.21717      2736.50217        42.80017
E29  23811560.70017    -12276.89617      -956.93517        43.00017  23811574.19025   2058089.07425      -718.34425        34.20025
C21  22445362.39917    -30082.15417      -119.74217        41.80017  22445354.90425   2059906.88225       -91.31125        31.70025
C05  37240162.17216   -329225.93916      -698.25916        38.50016                                                                
R04  20552936.59816 110062474.32016     -1097.16816        38.40016
C22  23648511.37626     58381.75726     -2113.61426        39.90026  23648511.07615   2118958.55715     -1594.32915        32.50015
R19  22151573.58526 118498410.17426     -4241.15926        35.90026
E26  25467951.20426  -4200493.93026     -3470.50826        36.20026  25467881.35305  -2787182.51405     -2594.61005        32.70005
R14  20450152.75426 109013242.56226      -922.31626        39.10026
E33  24085204.06026   -130182.39426     -1347.20226        40.10026  24085159.69125   -105022.22125     -1011.38125        31.30025
C26  23929808.13925   -137913.65325      2326.78025        33.30025  23929707.40823   1971545.71923      1754.33423        21.80023
R03  23053366.08725 123408904.04425     -2669.11125        32.10025
C36  24873517.02225     82859.79325     -2890.66425        31.60025  24873523.61824   2129431.91324     -2183.34824        28.60024
E19  24730829.00325  -2922001.82325       524.49225        32.30025  24730840.09624  -2189520.42024       395.58924        28.10024
C06  38365443.35625     28158.54925     -1410.69325        31.90025                                                                
C16  39762479.80825     31635.96525     -1490.13125        30.60025                                                                
R20  21534122.23725 115155056.53525     -1198.25825        30.00025
C13  40172088.04225     16602.99525     -1387.64825        31.70025                                                                
R05  21231554.30124 113497252.32024       908.72224        29.10024
E27  26655575.42924  -1851449.33824      1332.40224        26.40024  26655566.73524  -2666178.39824      1002.93324        24.30024
R21  23831041.21323 127527145.13123      1673.77223        23.10023
C11  24457079.81623  -2968858.34123     -1826.30623        22.20023                                                                
E30  27369308.72223  -1793610.29623      -513.84423        23.00023                                                                
E12  26680061.57823  -4120672.45123      1298.06223        21.70023                                                                
R13  23967573.89423 127987932.60223     -4265.55623        20.60023
C34  24982138.12624     83191.02724     -2653.63524        28.90024  24982236.45824  -2938426.39824     -2012.39724        25.10024
> 2025 10 05 08 49 29.0000181  0 35                      
G04  21145724.32007     38325.37307     -1615.67207        43.20007  21145732.41426     20953.58226     -1206.69126        36.60026
G09  20966073.09006    -48690.97306       303.26006        39.60006  20966074.88816   -867622.84516       225.74516        38.00016
G01  23651156.44526    156569.43026     -4216.26526        35.70026  23651088.09223   2198945.20523     -3164.55123        21.10023
G07  22201618.24025   -111242.50725      1679.29725        34.70025                                                                
G06  22634818.64125    -50879.95425       336.04925        33.90025  22634776.07125   2044686.05325       254.10325        30.00025
G16  22904338.95625    -99682.28225       573.16725        30.80025                                                                
G03  20828934.52924   -128398.80524     -2236.54724        28.90024  20828957.01324  -1900469.88124     -1664.62624        26.00024
G26  24066734.14724   -261222.50724     -2148.60424        27.60024                                                                
G30  24777676.07224   -269282.73824      2675.17824        25.40024                                                                
G11  25324856.96622  -2806822.05422      2193.27322        17.40022                                                                
R15  21003989.34107 112241322.32007      2751.99107        42.80007
E29  23811755.86407    -11329.26907      -940.94007        42.80007  23811763.65916   2058796.48716      -701.13216        36.00016
C21  22445390.57927    -29970.73127      -105.50927        41.60027  22445386.38225   2059989.59925       -77.81525        31.60025
C22  23648916.09626     60484.97226     -2096.26826        39.50026  23648929.88725   2120547.52525     -1584.64825        32.30025
C05  37240295.28026   -328543.42526      -672.33226        38.40026                                                                
R04  20553156.94626 110063598.33726     -1085.41126        38.10026
R19  22152376.42926 118502650.47426     -4222.60026        35.90026
E26  25468612.24726  -4197028.54126     -3465.38826        35.90026  25468548.39115  -2784594.04115     -2583.80015        30.80015
C11  24457443.76425  -2967041.31025     -1810.91025        32.30025                                                                
R14  20450367.70526 109014333.23826      -908.38326        38.30026
C26  23929398.62225   -140245.68125      2337.21225        33.20025  23929269.11213   1969786.92113      1762.73113        21.40013
E19  24730743.86225  -2922536.85325       541.95125        32.20025  24730747.46024  -2189920.98524       404.86824        27.80024
E33  24085464.88026   -128842.19826     -1334.03426        38.90026  24085427.70525   -104012.51725     -1007.43425        30.50025
R03  23053833.46325 123411351.97225     -2653.26625        32.00025
C36  24874070.43925     85740.07625     -2873.11125        31.60025  24874088.72724   2131602.23224     -2163.37724        28.40024
C16  39762794.29025     33118.92825     -1476.75725        30.40025                                                                
R05  21231431.98524 113496544.06024       913.13424        29.10024
R20  21534350.97925 115156224.88925     -1188.13825        29.80025
C13  40172369.24725     17985.52625     -1377.57925        31.30025                                                                
C34  24982648.97224     85841.37924     -2646.03024        28.80024                                                                
E27  26655346.68724  -1852792.41524      1349.78024        26.40024  26655322.70424  -2667184.84324      1010.60724        24.20024
R21  23830739.32223 127525475.20523      1684.15623        23.10023
E30  27369383.67023  -1793102.50223      -504.03323        22.90023                                                                
E12  26679816.94723  -4121982.17323      1315.55023        21.70023                                                                
R13  23968378.53723 127992174.63423     -4253.62023        20.40023
> 2025 10 05 08 49 30.0000184  0 36                      
G04  21146009.42207     39937.90807     -1607.81307        43.10007  21146019.01616     22157.71016     -1200.46316        36.70016
G01  23651947.59716    160783.99916     -4210.02516        39.70016  23651872.05023   2202098.77823     -3149.59423        20.80023
G09  20965992.44506    -48996.31106       309.74706        40.00006  20965996.94206   -867850.97206       231.73106        37.70006
G07  22201245.89725   -112918.48525      1678.12325        35.00025                                                                
G16  22904168.67425   -100257.58125       579.58925        30.80025                                                                
G03  20829358.43524   -126162.99924     -2230.40024        29.00024  20829362.93224  -1898810.80424     -1651.95924        25.50024
G26  24067116.98224   -259085.52824     -2128.19224        27.40024                                                                
G30  24777141.24224   -271964.02924      2686.49324        25.20024                                                                
G11  25324420.46922  -2809023.46822      2208.34722        17.30022                                                                
G06  22634748.78925    -51220.35625       345.93325        33.70025  22634691.52925   2044430.75225       257.48325        34.00025
R15  21003451.81307 112238556.77307      2760.69607        42.90007
E29  23811919.25107    -10391.53307      -932.79107        42.70007  23811922.24906   2059496.79206      -696.75106        35.80006
C21  22445378.28826    -29869.71826       -95.80926        41.30026  22445385.78325   2060065.90525       -73.10125        31.40025
C22  23649301.62916     62579.14216     -2089.64716        39.30016  23649302.22925   2122130.57625     -1580.09325        32.20025
C05  37240407.40226   -327878.18826      -656.59826        38.30026                                                                
R04  20553357.80626 110064782.88826     -1075.48226        37.80026
R19  22153130.70726 118506793.56826     -4215.30926        35.80026
E26  25469234.61626  -4193572.34126     -3451.60526        35.60026  25469184.25114  -2782001.46414     -2594.62814        29.30014
R14  20450483.12526 109015056.28626      -902.74826        37.50026
C26  23928897.66915   -142588.97015      2348.92015        33.10015  23928800.83623   1968022.26423      1767.58623        21.00023
E19  24730619.74825  -2923079.49925       546.45425        32.30025  24730625.14424  -2190327.22724       409.08024        27.50024
C11  24457769.03925  -2965236.04325     -1799.38525        33.10025                                                                
R03  23054305.63625 123413986.02225     -2647.63325        31.90025
E33  24085741.28826   -127512.81626     -1323.97526        37.80026  24085664.24225   -103009.66625      -999.42525        29.80025
C16  39763040.12025     34594.09725     -1471.27225        30.30025                                                                
R05  21231244.91524 113495651.46424       923.38224        29.00024
R20  21534542.54625 115157357.28025     -1173.89025        29.70025
C34  24983143.92924     88479.71124     -2632.32124        28.80024                                                                
C13  40172586.59725     19358.95825     -1368.88225        30.90025                                                                
C06  38365994.67524     30952.11024     -1387.89124        28.20024                                                                
E27  26655039.40024  -1854147.32124      1360.82124        26.30024  26655045.99624  -2668196.66524      1014.51224        24.30024
R21  23830393.36223 127523731.01523      1691.29123        23.10023
E30  27369455.02123  -1792606.02823      -490.81523        22.70023                                                                
E12  26679533.34323  -4123303.63323      1327.33023        21.80023                                                                
R13  23969246.73623 127996917.88523     -4240.48423        20.30023
C36  24874600.47225     88611.09125     -2866.38025        31.50025  24874616.96124   2133764.87224     -2158.80124        27.80024
> 2025 10 05 08 49 31.0000188  0 35                      
G04  21146307.71607     41540.32907     -1596.61407        43.00007  21146315.81006     23353.99606     -1192.36506        37.00006
G07  22200915.82616   -114604.27916      1690.70016        38.30016                                                                
G06  22634671.14316    -51570.30516       354.72216        39.90016  22634615.68226   2044169.86926       263.67326        38.20026
G09  20965925.59206    -49312.46206       321.55706        40.10006  20965928.29006   -868086.82106       239.70906        37.60006
G01  23652737.25126    164989.20426     -4200.52126        39.60026  23652661.10323   2205251.23223     -3151.89423        20.60023
G16  22904070.04225   -100839.78125       585.65125        31.20025                                                                
G03  20829768.25224   -123932.80424     -2227.38824        29.10024  20829773.64824  -1897144.35524     -1670.13424        25.10024
G26  24067524.69924   -256959.38324     -2120.72724        27.20024                                                                
G11  25323966.28322  -2811238.46222      2221.78322        17.30022                                                                
G30  24776619.00424   -274653.66424      2693.80624        25.00024                                                                
R15  21002924.77807 112235786.63507      2771.27607        43.10007
E29  23812083.53807     -9464.10007      -922.28007        42.50007  23812089.23406   2060189.30006      -688.60806        35.50006
E19  24730507.62616  -2923633.13516       559.13216        40.10016  24730513.02224  -2190738.44424       413.70524        27.40024
C22  23649697.65506     64662.94206     -2078.61506        39.60006  23649691.65925   2123702.04625     -1565.67825        34.20025
C21  22445396.87526    -29779.28126       -85.14926        41.00026  22445395.37625   2060133.73825       -63.59625        31.00025
R04  20553534.68426 110065773.58226     -1068.18026        37.40026
R19  22153907.16926 118510991.00326     -4208.08926        35.60026
C26  23928437.48705   -144941.86705      2357.69805        33.20005  23928338.85613   1966250.35113      1775.54113        20.50013
R14  20450665.39926 109016072.21226      -892.93726        36.80026
E26  25469931.33325  -4190125.89725     -3441.56525        35.20025  25469833.00224  -2779413.91124     -2585.04124        28.00024
R03  23054812.28625 123416744.15025     -2632.88525        31.80025
E33  24086024.59226   -126189.97526     -1319.56926        36.80026  24085906.17424   -102021.54024      -980.76324        29.00024
C36  24875131.10525     91476.32325     -2862.34025        31.50025  24875158.38624   2135920.87824     -2152.68724        28.50024
C11  24458082.62225  -2963441.16225     -1789.68725        32.80025                                                                
C16  39763331.21925     36059.39025     -1460.35425        30.10025                                                                
R20  21534761.39525 115158573.06925     -1161.39925        29.50025
C34  24983639.18624     91108.54724     -2624.08824        28.80024                                                                
R05  21231105.21224 113494949.31724       942.67224        29.00024
C13  40172851.31425     20724.00925     -1360.86025        30.50025                                                                
C06  38366244.70124     32339.54824     -1387.43824        28.00024                                                                
E27  26654756.69624  -1855510.14924      1366.78824        26.20024  26654778.88124  -2669216.90824      1024.45124        25.20024
R21  23830029.71423 127521830.61723      1700.75623        23.10023
E12  26679285.11523  -4124631.72923      1331.41223        22.00023                                                                
E30  27369550.65423  -1792120.30723      -480.34423        22.60023                                                                
R13  23969995.31823 128000959.73223     -4227.40023        20.20023
> 2025 10 05 08 49 32.0000193  0 35                      
G04  21146630.29207     43134.41007     -1590.16107        43.00007  21146641.38506     24544.37506     -1187.42406        37.10006
G06  22634615.98127    -51927.71327       361.13727        41.50027  22634569.81316   2043902.26416       270.96616        37.30016
G07  22200614.83426   -116296.71026      1695.74926        41.00026                                                                
G09  20965884.22006    -49636.06906       327.33606        40.30006  20965888.41706   -868328.30206       244.29706        37.50006
G01  23653605.15026    169187.81226     -4195.30826        39.20026  23653481.03623   2208392.45323     -3135.60123        20.40023
G16  22903987.89925   -101432.48325       597.95425        31.40025                                                                
G03  20830222.13724   -121708.23624     -2221.75324        29.20024  20830217.64024  -1895477.99124     -1666.32024        24.80024
G26  24067929.11924   -254841.96724     -2113.04924        27.00024                                                                
G11  25323558.86522  -2813464.85622      2232.09422        17.20022                                                                
G30  24776148.62924   -277349.41324      2698.80424        24.90024                                                                
R15  21002430.72017 112233028.73217      2779.09817        43.10017
E29  23812277.50307     -8544.57107      -914.82807        42.40007  23812287.39605   2060876.04305      -683.86105        35.40005
C22  23650146.14506     66739.15706     -2072.42106        39.70006  23650112.26825   2125264.47025     -1557.90125        33.70025
E19  24730434.77626  -2924193.95726       564.41426        40.00026  24730429.38024  -2191156.07124       420.83224        27.40024
C21  22445440.64516    -29693.62316       -83.26816        40.70016  22445432.85025   2060195.77525       -59.14025        31.00025
R04  20553741.84116 110066766.57816     -1055.29316        37.30016
C26  23928004.28705   -147302.21405      2364.07205        33.60005  23927977.00603   1964473.00103      1780.06603        20.80003
R19  22154675.23725 118514983.31225     -4203.67725        35.40025
R14  20450861.46326 109017000.42926      -882.94126        36.20026
E26  25470639.44325  -4186689.91025     -3430.75725        34.80025  25470513.23124  -2776837.61924     -2570.66024        26.80024
R03  23055323.73225 123419364.41125     -2628.14125        31.80025
C36  24875710.30425     94334.69225     -2854.93625        31.40025  24875731.58924   2138071.35024     -2147.70424        28.30024
E33  24086244.04026   -124870.87826     -1317.22526        35.80026  24086181.38424   -101038.66824      -980.24424        28.30024
C16  39763622.61725     37514.17125     -1449.52525        29.90025                                                                
R05  21230959.21324 113494052.89724       938.86324        28.90024
R20  21535014.12024 115159807.22324     -1164.51724        29.30024
C13  40173140.91325     22080.30625     -1351.92025        30.10025                                                                
C06  38366531.90324     33717.96424     -1373.90324        27.90024                                                                
C11  24458436.07725  -2961654.69825     -1782.25525        31.80025                                                                
E27  26654525.55624  -1856882.15224      1376.58924        26.20024  26654539.04724  -2670242.19024      1027.80224        27.70024
R21  23829713.43323 127520019.80723      1719.71423        23.30023
E12  26679048.87923  -4125968.63323      1341.30723        22.30023                                                                
E30  27369654.38323  -1791640.93623      -476.19623        22.50023                                                                
R13  23970833.53723 128005318.66223     -4218.24723        20.10023
C34  24984180.61224     93731.27924     -2619.67724        28.70024                                                                
> 2025 10 05 08 49 33.0000196  0 35                      
G04  21146912.69707     44720.03107     -1581.39007        43.20007  21146922.89006     25728.29506     -1180.69206        37.30006
G07  22200269.77317   -117998.74617      1706.83817        42.20017                                                                
G06  22634511.65427    -52294.31727       371.20227        42.20027  22634479.87606   2043628.67006       276.58806        36.80006
G09  20965793.68306    -49968.36506       336.63906        40.60006  20965805.67506   -868576.22606       251.14506        37.80006
G01  23654368.72126    173381.99426     -4191.96826        38.60026  23654259.89713   2211521.99613     -3123.70413        20.30013
G16  22903857.19025   -102032.72425       604.00925        31.70025                                                                
G11  25323104.97922  -2815700.93222      2240.91522        17.20022                                                                
G03  20830619.96225   -119490.91425     -2213.69825        29.50025  20830606.47124  -1893815.29424     -1660.86424        25.00024
G26  24068332.64024   -252733.36524     -2104.19624        26.80024                                                                
R15  21001888.69517 112230240.25117      2785.54817        43.10017
E29  23812433.09607     -7633.80507      -906.63307        42.30007  23812440.59005   2061556.11905      -676.74305        35.20005
C22  23650513.69026     68807.22526     -2063.99526        39.60026  23650486.10925   2126818.75425     -1550.21425        33.20025
C21  22445425.95526    -29619.11526       -68.93226        40.40026  22445427.45425   2060256.15425       -59.54925        31.00025
E19  24730303.16726  -2924761.85826       571.43926        39.80026  24730301.06924  -2191580.22224       427.41224        27.30024
R04  20553914.22106 110067797.12006     -1049.81206        37.10006
C26  23927545.90525   -149669.71125      2371.07125        34.00025  23927499.43723   1962688.15123      1788.60023        20.80023
R19  22155499.96725 118519502.21525     -4190.93525        34.80025
R14  20451023.35126 109017971.35926      -877.11626        35.80026
E26  25471237.52925  -4183259.62125     -3427.43925        34.40025  25471148.19114  -2774272.22014     -2559.95314        25.80014
R03  23055844.47125 123422258.87925     -2621.01225        31.70025
C36  24876239.73825     97185.19525     -2846.56925        31.30025  24876256.82624   2140215.62024     -2141.16924        28.00024
R05  21230787.13224 113493239.84924       947.38324        28.90024
C16  39763896.02825     38962.46925     -1445.05525        29.70025                                                                
C34  24984639.59424     96347.61624     -2613.13924        28.70024                                                                
R20  21535167.91324 115160737.62124     -1156.61724        29.10024
C13  40173369.95525     23429.33025     -1345.38625        29.80025                                                                
C11  24458717.88225  -2959874.39125     -1777.22925        31.20025                                                                
C06  38366763.04324     35089.14624     -1367.56524        27.80024                                                                
E27  26654211.97324  -1858264.18424      1387.04724        26.20024  26654258.44124  -2671271.11124      1030.74024        27.30024
E33  24086454.49525   -123555.89325     -1312.92725        34.30025  24086412.52424   -100059.91024      -976.70224        27.60024
R21  23829390.25624 127518398.88624      1721.63724        23.50024
E12  26678782.66323  -4127314.41823      1350.22623        22.30023                                                                
E30  27369696.65323  -1791166.05123      -472.64323        22.50023                                                                
R13  23971583.01823 128009427.74823     -4206.83023        20.10023
E21  28134004.03423  -4499492.15323      1954.42423        18.60023                                                                
> 2025 10 05 08 49 34.0000201  0 35                      
G07  22199975.07727   -119709.07327      1714.47327        43.70027                                                                
G04  21147233.17527     46295.35027     -1570.91727        43.50027  21147244.56706     26905.68506     -1174.12406        37.30006
G06  22634434.60727    -52670.82827       381.46527        42.30027  22634429.51106   2043349.39406       282.11706        40.00006
G01  23655144.88416    177563.31516     -4174.88816        38.10016  23655080.42923   2214641.57223     -3114.59123        20.10023
G16  22903763.95425   -102639.91825       610.67025        31.70025                                                                
G03  20831062.45625   -117287.10125     -2197.05725        29.90025  20831062.45624  -1892156.46424     -1656.89524        24.60024
G26  24068731.96424   -250630.43524     -2100.09324        26.70024                                                                
G11  25322686.16922  -2817946.71922      2250.64122        17.20022                                                                
G09  20965758.30806    -50308.69806       344.35306        40.80006  20965762.20516   -868830.13816       256.90616        37.80016
R15  21001392.53827 112227470.88127      2796.89327        43.10027
E29  23812620.16607     -6731.94507      -898.15707        42.10007  23812633.95725   2062229.84025      -670.54225        35.00025
C21  22445463.12926    -29553.09926       -61.77026        40.10026  22445459.83125   2060304.17625       -41.84425        31.00025
C22  23650915.11226     70866.16726     -2054.37726        39.50026  23650901.92125   2128373.50725     -1554.98525        32.70025
E19  24730192.54426  -2925339.87926       583.08126        39.50026  24730213.82924  -2192012.23924       435.95024        27.30024
R04  20554123.47606 110068800.07706     -1037.89606        37.10006
C26  23927109.10725   -152045.97625      2380.64725        34.00025  23927095.91624   1960898.00924      1792.78724        25.20024
R14  20451213.12025 109018866.01425      -865.34225        35.30025
R19  22156304.60925 118523688.93525     -4182.37525        34.60025
E26  25471921.35625  -4179833.91825     -3423.40825        34.00025  25471822.12424  -2771715.92224     -2551.74524        24.90024
R03  23056298.65725 123424572.76625     -2610.92925        31.70025
C36  24876809.64325    100023.90025     -2832.80425        31.20025  24876824.33324   2142351.49124     -2131.67024        27.70024
R05  21230618.04924 113492219.52024       957.39224        29.30024
C16  39764177.53325     40402.92325     -1436.53325        29.60025                                                                
R20  21535394.55724 115161831.75524     -1139.06124        29.00024
C13  40173660.45424     24767.09124     -1332.12924        29.40024                                                                
C06  38367053.24224     36451.43424     -1357.83924        27.70024                                                                
C11  24459051.25125  -2958104.28125     -1765.01025        30.60025                                                                
E33  24086703.92225   -122255.52125     -1293.06625        33.20025  24086681.43724    -99095.53224      -957.18724        26.90024
E27  26653977.83524  -1859655.48824      1395.93824        26.10024  26654018.90724  -2672288.83224      1012.12024        26.80024
R21  23829038.00024 127516396.65824      1732.43424        23.70024
E12  26678537.73323  -4128668.23223      1357.82823        22.40023                                                                
E30  27369845.35023  -1790698.15123      -464.40623        22.40023                                                                
R13  23972320.80823 128013251.07623     -4199.37923        20.00023
C34  24985156.13624     98952.39324     -2598.99724        28.60024                                                                
E21  28133669.46623  -4501456.71123      1964.55723        19.90023                                                                
> 2025 10 05 08 49 35.0000204  0 36                      
G04  21147513.18117     47863.58017     -1564.43617        43.60017  21147523.67406     28076.88206     -1168.09906        37.40006
G07  22199617.42527   -121425.91627      1720.10027        43.60027                                                                
G06  22634342.87017    -53057.06817       391.10517        42.30017  22634337.47406   2043064.41006       287.83906        39.40006
G09  20965668.67027    -50657.15327       352.51627        41.60027  20965676.16426   -869088.59926       260.73626        37.70026
G16  22903648.83425   -103258.96425       624.97225        31.70025                                                                
G26  24069122.29324   -248533.73024     -2093.59124        26.50024                                                                
G11  25322216.09522  -2820201.76622      2259.67722        17.10022                                                                
G01  23655909.95426    181734.24026     -4165.72526        37.60026  23655933.63824   2217757.69924     -3114.40124        24.00024
G03  20831452.48625   -115088.29625     -2196.30225        30.00025  20831453.38524  -1890512.48724     -1636.55124        24.40024
R15  21000852.01317 112224690.80617      2803.96617        43.00017
E29  23812777.25717     -5838.95917      -888.29817        41.90017  23812784.45225   2062899.75225      -668.00825        34.40025
C22  23651282.65816     72916.92716     -2046.66916        39.30016  23651274.56325   2129920.77125     -1543.52025        32.30025
C21  22445453.83626    -29493.73626       -56.03626        39.80026  22445452.33725   2060345.52725       -38.01525        31.00025
R04  20554303.65206 110069873.52806     -1031.20306        37.40006
E19  24730042.34826  -2925926.89826       592.26926        39.10026  24730043.84724  -2192448.69724       438.67824        28.20024
C26  23926684.90125   -154428.69425      2385.94525        33.90025  23926621.34524   1959102.37624      1798.37824        29.30024
R20  21535578.32925 115162921.30025     -1135.47725        30.80025
R14  20451348.02625 109019691.26925      -864.67825        35.00025
R19  22157028.00925 118527666.70325     -4176.77725        34.20025
R03  23056731.85725 123427000.01425     -2605.13725        31.70025
C36  24877349.26925    102856.34925     -2829.32125        31.10025                                                                
R05  21230419.28724 113491264.21024       967.09024        29.40024
E21  28133092.06624  -4946972.11924      1973.60724        26.90024                                                                
C16  39764415.56825     41835.59525     -1428.78025        29.50025                                                                
C34  24985641.50024    101549.10824     -2592.68224        28.60024                                                                
C13  40173870.00924     26097.39524     -1326.57624        29.10024                                                                
C06  38367306.26724     37802.29524     -1345.14824        27.70024                                                                
C11  24459379.22425  -2956339.49825     -1762.11925        30.10025                                                                
C09  37920454.81524  -4900881.32324     -1039.82624        26.20024                                                                
E27  26653734.70324  -1861058.10024      1408.26724        26.10024  26653728.10824  -2673323.28224      1042.81424        26.40024
E26  25472534.43125  -4176421.09925     -3406.37625        32.60025  25472454.68724  -2769165.70424     -2547.17924        24.20024
R21  23828708.82824 127514742.04824      1738.75224        24.00024
E12  26678249.33223  -4130030.12223      1365.92823        22.40023                                                                
E30  27369929.29223  -1790237.60923      -456.86323        22.30023                                                                
R13  23973144.93723 128017758.99923     -4187.79023        20.00023
E33  24086929.66625   -120965.03725     -1285.54025        32.30025  24086901.18524    -98137.00824      -955.59624        26.20024
> 2025 10 05 08 49 36.0000208  0 34                      
G04  21147818.07007     49423.76107     -1556.15507        43.70007  21147829.76206     29241.99406     -1162.07006        37.50006
G07  22199303.84227   -123152.33827      1731.21027        43.50027                                                                
G09  20965613.20827    -51015.01927       362.57027        42.30027  20965618.60426   -869353.15726       267.60726        37.70026
G06  22634276.61607    -53451.16407       398.02307        42.30007  22634272.41906   2042773.30106       294.17106        39.40006
G01  23656711.89926    185896.71326     -4158.24526        37.10026  23656657.33723   2220867.45323     -3106.56723        23.20023
G16  22903529.81625   -103881.58925       624.41425        31.70025                                                                
G03  20831866.79925   -112892.32825     -2194.54725        30.30025  20831874.59324  -1888877.22724     -1630.90124        26.50024
G26  24069521.91724   -246441.22824     -2090.40024        26.30024                                                                
G11  25321787.99122  -2822465.15322      2267.55622        17.10022                                                                
E29  23812964.32827     -4951.32527      -884.20827        41.80027  23812962.52925   2063559.74125      -655.02925        34.20025
C21  22445476.02026    -29442.92126       -46.54226        39.60026  22445473.32225   2060381.42925       -33.17925        31.00025
C22  23651698.17026     74960.00526     -2039.23626        39.20026  23651682.88125   2131461.08025     -1536.83025        31.80025
R04  20554496.71826 110070853.49826     -1022.90326        37.80026
E19  24729927.82726  -2926520.13126       596.08926        38.70026  24729928.12725  -2192893.36325       448.77025        33.00025
R20  21535802.27425 115164066.70125     -1126.77025        33.40025
C26  23926236.11125   -156820.92825      2396.99025        33.80025  23926120.69124   1957304.97224      1798.28924        27.60024
R14  20451525.20425 109020584.40125      -851.75525        34.70025
R19  22157834.15125 118531925.37225     -4165.71125        33.90025
R03  23057278.67825 123429873.80125     -2595.69525        31.60025
C36  24877909.58225    105678.28425     -2816.67525        30.90025                                                                
R05  21230242.10924 113490264.53324       975.24824        29.40024
C16  39764704.26824     43263.69224     -1425.80924        29.40024                                                                
C11  24459697.60425  -2954579.20525     -1758.04725        29.70025                                                                
C34  24986158.64224    104139.01024     -2586.49424        28.50024                                                                
E33  24087168.30025   -119683.82325     -1276.57925        31.70025  24087153.31124    -97180.14824      -956.02924        25.50024
C13  40174113.44024     27418.63324     -1316.70424        28.90024                                                                
C06  38367564.08824     39147.33624     -1342.13024        27.60024                                                                
E21  28132739.21024  -4948952.30724      1980.18624        26.90024  28132754.49924  -3702644.56624      1480.14224        28.20024
E27  26653459.79424  -1862471.92224      1419.42624        26.00024  26653475.38324  -2674368.59124      1050.73824        26.00024
E26  25473180.18425  -4173015.65925     -3401.75025        31.40025  25473113.33124  -2766621.33124     -2541.44924        23.60024
R21  23828265.43524 127512316.40924      1745.47524        24.50024
E12  26678002.30323  -4131399.65123      1373.34823        22.50023                                                                
R13  23973970.26623 128022113.34823     -4171.94723        20.00023
E30  27370036.31823  -1789787.56823      -444.79123        22.20023                                                                
> 2025 10 05 08 49 37.0000212  0 35                      
G04  21148126.25707     50974.21507     -1545.59007        43.80007  21148134.95106     30399.48206     -1153.67606        37.60006
G09  20965550.25227    -51382.94927       372.96327        43.00027  20965558.94626   -869626.82426       278.22126        37.60026
G06  22634212.46117    -53853.02917       405.75017        42.40017  22634207.06506   2042475.14906       301.67306        39.00006
G07  22198986.96127   -124888.29027      1740.71727        43.30027                                                                
G01  23657524.33726    190050.58026     -4149.56426        36.80026  23657527.93415   2223967.86315     -3095.73715        34.10015
G16  22903415.89525   -104516.43025       640.95025        31.60025                                                                
G11  25321367.98222  -2824737.54522      2276.89322        17.10022                                                                
G03  20832294.30325   -110710.37025     -2174.95325        30.60025  20832298.80024  -1887245.05024     -1630.63324        26.40024
G26  24069957.21524   -244354.17424     -2084.32924        26.20024                                                                
R04  20554703.27516 110071905.49616     -1009.29316        39.10016
E29  23813129.51327     -4078.29727      -865.97527        41.60027  23813139.70625   2064211.78625      -648.07125        34.10025
E19  24729816.30426  -2927129.16726       616.93826        38.60026  24729822.60025  -2193344.33825       454.12825        35.20025
C21  22445489.51126    -29405.59426       -30.58226        39.40026  22445490.71025   2060410.02725       -24.94525        31.10025
C22  23652096.89426     76991.79026     -2026.13626        39.00026  23652088.20025   2133000.37625     -1538.78925        31.40025
C26  23925739.05615   -159224.13915      2408.70015        33.80015  23925669.50424   1955500.89324      1807.41524        26.20024
R20  21536009.43125 115165120.28525     -1114.78125        33.40025
R15  20999887.58026 112219428.84526      2831.78226        38.90026
R14  20451657.11225 109021231.93825      -841.25425        34.40025
R03  23057731.06525 123432240.54125     -2583.25325        31.70025
R19  22158628.30125 118536120.51425     -4151.85125        33.50025
C36  24878446.21025    108489.09325     -2805.24625        30.80025                                                                
R05  21230060.73524 113489240.38324       996.94024        29.40024
C11  24460023.77825  -2952830.90025     -1742.31125        29.60025                                                                
C16  39764999.56424     44675.64724     -1403.88424        29.30024                                                                
C34  24986655.09924    106715.94224     -2570.44724        28.40024                                                                
C06  38367824.90824     40485.38424     -1334.55124        27.60024                                                                
C13  40174413.23224     28724.99724     -1298.92624        28.60024                                                                
E21  28132364.46924  -4950944.75424      1998.57724        27.10024  28132384.85525  -3704129.86125      1485.29425        30.20025
E26  25473859.21425  -4169617.96725     -3393.81625        30.50025  25473770.77523  -2764082.17823     -2536.54223        23.00023
E27  26653181.88624  -1863890.71224      1421.27324        25.90024  26653214.26424  -2675422.39424      1058.04924        25.50024
R21  23827974.93624 127510707.73824      1756.43824        24.60024
E12  26677731.59123  -4132778.95023      1384.18423        22.50023                                                                
E30  27370133.75123  -1789348.71223      -433.26223        22.10023                                                                
R13  23974762.01823 128026287.37923     -4162.46623        20.00023
E33  24087427.02125   -118415.44325     -1261.96125        31.00025  24087408.43424    -96234.10124      -940.63824        24.80024
> 2025 10 05 08 49 38.0000215  0 35                      
G04  21148399.06807     52514.61607     -1535.37407        44.00007  21148408.06206     31549.84006     -1146.79306        37.60006
G09  20965457.91627    -51759.75827       381.24927        43.50027  20965467.20926   -869907.40126       284.03226        37.70026
G07  22198637.70327   -126632.90827      1748.95027        43.20027                                                                
G03  20832681.33525   -108534.34825     -2173.05325        35.00025  20832689.12924  -1885620.22724     -1621.14724        26.70024
G01  23658307.99426    194196.25226     -4141.57226        36.50026  23658299.60005   2227061.20705     -3089.80905        34.60005
G11  25320902.70422  -2827017.93122      2284.38422        17.00022                                                                
G16  22903259.10425   -105159.84825       647.70625        31.60025                                                                
G26  24070321.16324   -242275.14424     -2075.01724        26.00024                                                                
G06  22634100.33827    -54263.19427       414.31527        42.40027  22634110.23206   2042169.95906       308.70806        38.70006
R04  20554872.95807 110072920.71407     -1002.22707        45.80007
E29  23813276.41226     -3213.11226      -861.26226        41.40026  23813284.20625   2064857.70225      -642.85225        34.10025
C21  22445474.52116    -29376.10816       -25.56616        39.20016  22445476.02025   2060430.44425       -16.32825        31.60025
E19  24729684.99526  -2927746.03026       620.02626        38.50026  24729685.29525  -2193802.29725       461.45225        34.10025
C26  23925271.67925   -161635.54525      2415.50225        33.70025  23925183.54024   1953682.57924      1825.43124        25.00024
R20  21536208.49325 115166292.46525     -1106.73425        33.40025
R14  20451819.00015 109022202.86915      -831.97315        34.10015
R03  23058178.05525 123434742.08425     -2573.97825        32.30025
R15  20999331.16626 112216563.14126      2834.52526        37.90026
C22  23652468.33726     79012.00426     -2014.42826        37.60026  23652459.34325   2134527.54025     -1521.09825        30.90025
R19  22159430.24625 118540517.72125     -4147.30125        33.20025
C36  24878969.34825    111293.51725     -2801.23025        30.70025                                                                
C11  24460305.28325  -2951092.43525     -1733.54525        29.60025                                                                
R05  21229795.41824 113487929.41024       994.37524        29.30024
C16  39765245.69324     46079.09524     -1399.19424        29.30024                                                                
C34  24987125.17324    109284.60324     -2564.52424        28.40024                                                                
E33  24087669.85325   -117154.42825     -1257.33425        30.50025                                                                
C06  38368044.95524     41809.30924     -1316.86424        27.60024                                                                
C13  40174648.57024     30023.25024     -1294.19824        28.40024                                                                
E21  28131962.74724  -4952950.05724      2011.72924        27.10024  28131983.13325  -3705624.62625      1499.50025        31.40025
E26  25474492.07625  -4166231.70325     -3380.54925        29.90025  25474403.93723  -2761552.23723     -2525.33623        22.50023
E27  26652926.76324  -1865316.61324      1429.45624        25.90024  26652924.06524  -2676486.23124      1068.85424        25.20024
R21  23827609.18924 127508857.88124      1763.82124        24.60024
E12  26677456.68123  -4134169.13023      1395.61923        22.50023                                                                
E30  27370179.61923  -1788924.22523      -417.30323        22.00023                                                                
R13  23975486.91623 128030265.81323     -4149.43223        20.00023
> 2025 10 05 08 49 39.0000218  0 34                      
G04  21148688.96707     54050.97707     -1534.34007        44.30007  21148699.16006     32696.93806     -1145.46706        37.60006
G09  20965383.26727    -52140.48227       382.68127        43.50027  20965393.76016   -870191.25816       285.49816        38.20016
G06  22634025.09027    -54677.09027       415.76127        42.40027  22634030.48716   2041862.78016       308.17416        38.50016
G03  20833100.74415   -106362.78115     -2169.33915        35.40015  20833103.14324  -1884002.99624     -1613.43424        26.40024
G01  23659096.74826    198335.64526     -4136.25326        36.20026  23659085.65625   2230152.63925     -3090.47525        33.90025
G16  22903125.69625   -105808.02625       650.55725        31.50025                                                                
G26  24070753.76424   -240209.37324     -2059.14124        25.90024                                                                
G07  22198313.32727   -128383.40227      1753.43127        43.00027                                                                
R04  20555051.03407 110073882.30007     -1000.43807        46.70007
E29  23813433.80316     -2352.42916      -859.18216        41.20016  23813446.99425   2065500.17125      -640.74425        34.20025
E19  24729573.77216  -2928368.16316       625.01716        38.50016  24729567.77625  -2194263.99125       463.56125        33.30025
C21  22445485.61406    -29350.35206       -23.89106        39.10006  22445478.71825   2060445.87825       -12.94325        33.10025
R20  21536417.14925 115167415.67625     -1103.21425        33.40025
C26  23924812.99725   -164052.37725      2419.54425        33.70025  23924717.96214   1951862.96914      1820.25814        23.90014
R03  23058687.10325 123437474.93825     -2570.67625        32.70025
R14  20451957.20505 109022946.51905      -832.39705        33.90005
R15  20998829.61326 112213890.88526      2836.41026        37.00026
R19  22160213.30425 118544714.39125     -4145.47925        32.80025
C22  23652864.66326     81028.48526     -2014.61426        36.50026  23652847.27515   2136049.88315     -1519.93115        30.50015
C36  24879508.67525    114092.42925     -2796.15425        30.60025                                                                
C11  24460626.06125  -2949364.91825     -1722.04325        29.60025                                                                
E21  28131567.92124  -4954961.52224      2014.54724        27.90024  28131598.20025  -3707124.54125      1502.49025        31.40025
R05  21229594.85724 113486864.72124      1008.91924        29.20024
C34  24987621.03024    111847.05724     -2559.35024        28.50024                                                                
C16  39765524.20024     47474.83524     -1391.88524        29.20024                                                                
E26  25475133.93225  -4162851.91625     -3376.54925        29.50025  25475046.69223  -2759025.39423     -2525.29223        22.10023
C06  38368327.36024     43124.98824     -1311.55624        27.50024                                                                
C13  40174892.00124     31319.23024     -1294.84324        28.20024                                                                
E33  24087914.78425   -115897.26825     -1255.23225        30.10025                                                                
R21  23827305.79924 127507243.08724      1773.74924        25.00024
E12  26677198.56023  -4135567.67723      1402.73123        22.40023                                                                
E30  27370265.65923  -1788511.22623      -407.25623        21.90023                                                                
R13  23976309.54623 128034666.76623     -4141.40923        19.90023
E27  26652637.16324  -1866745.81524      1430.85224        25.90024  26652646.45724  -2677548.60224      1061.63724        24.90024
> 2025 10 05 08 49 40.0000222  0 34                      
G04  21148994.45607     55584.37107     -1531.91107        44.30007  21149000.75106     33841.86806     -1143.84506        38.10006
G09  20965339.49727    -52525.29627       386.85927        43.40027  20965333.50206   -870479.77106       290.84106        38.20006
G07  22197973.36317   -130145.27417      1767.56017        42.80017                                                                
G06  22633957.93717    -55096.09517       421.55917        42.30017  22633965.13226   2041548.09026       318.44526        38.30026
G03  20833526.75026   -104202.65526     -2154.40526        35.80026  20833521.65324  -1882387.84724     -1614.10824        26.30024
G16  22903022.56725   -106458.90225       652.22525        31.50025                                                                
G26  24071150.68924   -238151.91524     -2053.30124        25.70024                                                                
G01  23659934.06826    202472.75226     -4135.96226        35.90026  23659887.30125   2233245.41625     -3093.44825        33.10025
R04  20555232.10907 110074799.44507      -999.22807        46.50007
R03  23059145.48616 123439876.14516     -2559.98416        37.20016
E21  28131193.78017  -4956982.01117      2025.74917        42.50017  28131223.75925  -3708634.13025      1514.42525        34.40025
E29  23813604.08506     -1496.20806      -853.74006        41.10006  23813618.47515   2066139.65215      -637.98815        35.40015
C21  22445489.81106    -29329.17806       -18.88306        39.00006  22445490.11125   2060461.96225       -16.40825        33.10025
E19  24729449.65806  -2928995.80206       631.14206        38.50006  24729470.34425  -2194730.18125       468.43825        32.70025
E12  26676963.82224  -4136971.80624      1406.91824        27.70024                                                                
R20  21536613.21315 115168411.11015     -1102.57215        33.40015
C26  23924343.52225   -166476.90225      2428.37125        33.60025  23924318.33925   1950042.45225      1820.97025        29.50025
R14  20452124.78925 109023788.54325      -823.90025        33.70025
R15  20998291.18626 112210960.94726      2843.62126        36.20026
R19  22160957.38825 118548640.87925     -4138.74925        32.60025
C22  23653249.59626     83042.53526     -2012.83426        35.70026  23653248.69725   2137568.65125     -1516.98025        30.00025
C13  40175123.14124     32606.26524     -1282.56124        29.10024                                                                
C36  24880045.60325    116887.72125     -2793.48225        30.50025                                                                
C11  24460991.20825  -2947639.20825     -1724.80525        29.70025                                                                
C34  24988124.08224    114409.40324     -2562.29024        28.60024  24988132.17624  -4044743.97324     -1917.06724        27.80024
R05  21229402.69024 113485785.50124      1007.40724        29.10024
C16  39765791.61524     48868.34424     -1392.39324        29.10024                                                                
C06  38368589.37824     44441.15524     -1316.41024        27.60024                                                                
E26  25475808.76524  -4159471.34424     -3380.96224        29.20024  25475702.03823  -2756498.79723     -2526.47323        21.80023
E33  24088163.31225   -114643.31125     -1252.35425        29.60025                                                                
E27  26652375.14524  -1868180.28724      1437.10624        25.90024  26652387.73624  -2678613.42024      1066.04124        24.50024
R21  23827043.18124 127505784.48724      1770.79024        25.00024
R13  23977141.47023 128039055.49823     -4130.57523        19.90023
E30  27370298.03723  -1788104.32223      -403.85523        21.80023                                                                
> 2025 10 05 08 49 41.0000226  0 34                      
G04  21149298.44507     57107.60307     -1518.15007        44.30007  21149300.54406     34979.38306     -1133.80706        38.10006
G07  22197633.99807   -131917.75807      1777.78907        42.70007                                                                
G06  22633884.78807    -55524.24007       432.71607        42.20007  22633897.67926   2041226.76226       324.64726        38.10026
G09  20965270.24527    -52922.36427       403.19427        42.40027  20965269.04626   -870775.44526       299.25426        38.00026
G03  20833941.36316   -102050.72216     -2147.83516        35.70016  20833940.76324  -1880779.62424     -1604.75924        26.00024
G16  22902933.82925   -107121.52825       668.50225        31.50025                                                                
G26  24071570.69824   -236105.43724     -2040.98724        25.60024                                                                
G01  23660686.84726    206595.19026     -4115.10326        35.60026  23660679.35325   2236325.38125     -3073.55825        32.20025
R03  23059626.35306 123442394.53906     -2553.82406        41.40006
E21  28130813.04307  -4959016.98307      2041.96407        42.30007  28130846.62026  -3710153.81526      1524.73226        36.20026
E29  23813787.85806      -649.50706      -841.94006        41.00006  23813789.95605   2066771.92405      -628.66705        34.50005
R04  20555456.65307 110075947.21807      -985.06307        45.70007
C21  22445501.20306    -29317.75606        -6.54506        39.60006  22445506.00025   2060470.82125        -5.24825        32.90025
E19  24729341.43306  -2929633.15806       641.96506        38.40006  24729360.02015  -2195206.81915       481.86315        32.40015
E12  26676702.40316  -4138387.35716      1421.26216        35.70016                                                                
C13  40175389.95625     33879.09325     -1265.72425        34.10025                                                                
C26  23923826.67925   -168912.92425      2441.77025        33.40025  23923863.55424   1948217.36424      1827.37224        29.20024
R14  20452291.47325 109024621.42725      -815.39325        33.60025
R20  21536821.56925 115169470.05225     -1086.26625        33.30025
C22  23653647.12125     85044.62025     -1996.10325        35.10025  23653645.92225   2139089.26025     -1521.52925        29.50025
R15  20997777.64126 112208162.52526      2858.67226        35.50026
R19  22161729.35425 118552716.61925     -4125.00925        32.40025
C36  24880593.02425    119675.13625     -2783.47425        30.40025                                                                
C11  24461337.46825  -2945919.09425     -1717.31725        29.70025                                                                
C34  24988621.73724    116962.33824     -2548.23024        28.80024  24988632.23024  -4042828.03924     -1915.93324        28.00024
R05  21229331.64024 113485351.05924      1024.66124        29.00024
C16  39766076.71824     50256.91124     -1386.09524        28.90024                                                                
E26  25476468.30824  -4156106.82624     -3356.49024        29.00024  25476455.11724  -2753980.03324     -2514.84724        27.20024
C06  38368847.79924     45751.25124     -1307.06024        27.60024                                                                
E33  24088435.52324   -113402.32224     -1234.50524        29.20024                                                                
E27  26652108.92924  -1869625.51924      1450.61224        25.90024                                                                
R21  23826728.99924 127504048.71624      1783.08924        25.10024
R13  23977940.11723 128043266.20423     -4122.73323        19.80023
E30  27370382.87823  -1787704.79623      -395.83823        21.80023                                                                
> 2025 10 05 08 49 42.0000229  0 34                      
G04  21149564.66117     58623.59617     -1512.37417        44.20017  21149569.45806     36111.17506     -1128.93006        38.10006
G07  22197273.64717   -133700.50717      1787.88117        42.80017                                                                
G06  22633800.84627    -55962.78627       443.74627        42.10027  22633799.04716   2040901.20916       327.66516        37.90016
G09  20965168.61617    -53327.08017       408.54217        42.30017  20965173.11326   -871075.46726       302.19626        37.90026
G03  20834325.69626    -99906.34826     -2140.59426        35.80026  20834329.59424  -1879177.46024     -1599.13424        25.80024
G01  23661466.30825    210705.63225     -4104.44225        35.40025  23661440.22625   2239393.74125     -3062.55725        31.40025
G16  22902780.63525   -107793.07325       676.00425        31.50025                                                                
G26  24071958.63024   -234069.21324     -2031.09524        25.50024                                                                
E29  23813917.36806       189.12406      -833.84606        40.90006  23813930.25925   2067397.91525      -622.85025        34.30025
R03  23060086.53416 123444965.78316     -2541.13616        41.20016
C21  22445480.51726    -29314.10526         0.23426        39.70026  22445484.41425   2060474.11425        -0.51025        32.70025
E21  28130410.72207  -4961060.95907      2048.47707        41.90007  28130438.00326  -3711680.29926      1529.88326        37.70026
E19  24729191.83726  -2930278.67526       649.59626        38.40026  24729217.91905  -2195689.45605       485.63505        32.30005
R04  20555636.82927 110077019.90127      -979.39527        44.60027
E12  26676373.83106  -4139813.03606      1430.74206        35.60006                                                                
C13  40175609.10525     35145.34225     -1262.96025        34.00025                                                                
C22  23654027.55725     87037.60725     -1988.43725        34.70025  23654004.17424   2140601.27024     -1507.71124        28.90024
R14  20452444.36715 109025544.30415      -808.10415        33.40015
R15  20997234.11725 112205364.86625      2867.19525        35.00025
R20  21537043.41525 115170764.65325     -1082.45025        33.20025
C26  23923341.31525   -171353.00625      2442.11025        33.30025  23923339.81624   1946397.53824      1817.19524        27.70024
R19  22162465.34525 118556760.97725     -4119.34425        32.30025
C36  24881103.87025    122447.03525     -2764.14225        30.30025  24881158.13323  -3722313.50423     -2079.06823        18.80023
C11  24461635.76225  -2944210.54425     -1702.76625        29.70025                                                                
C34  24989083.71724    119504.44724     -2536.69424        28.80024  24989100.20624  -4040918.32124     -1906.60924        27.60024
R05  21229116.38924 113484307.78724      1034.55524        28.90024
C16  39766312.05524     51635.35724     -1373.38524        28.80024                                                                
C06  38369068.74624     47051.41524     -1295.19724        27.60024                                                                
E33  24088606.70524   -112172.16524     -1224.74124        28.90024                                                                
E27  26651810.93524  -1871077.88224      1455.92824        25.90024                                                                
R21  23826437.90024 127502597.77424      1789.76624        25.10024
E30  27370429.34623  -1787313.01323      -387.91123        21.80023                                                                
R13  23978640.43323 128047112.45723     -4118.04223        19.70023
E26                                                                  25476973.15824  -2751464.63924     -2513.70724        26.10024
> 2025 10 05 08 49 43.0000233  0 34                      
G07  22196947.17307   -135488.64807      1790.83507        44.00007                                                                
G04  21149865.65327     60132.79927     -1505.80727        44.10027  21149866.85206     37238.15406     -1124.57306        38.00006
G06  22633730.39427    -56404.20927       442.86227        42.10027  22633725.29806   2040571.09706       332.39106        37.80006
G09  20965094.56707    -53737.55007       413.34607        42.00007  20965104.16026   -871381.55926       309.12726        37.00026
G03  20834744.50726    -97768.86026     -2134.04426        36.60026  20834745.40624  -1877580.57524     -1594.24424        25.50024
G16  22902660.71825   -108469.23125       678.46425        31.90025                                                                
G26  24072386.73324   -232036.99824     -2030.21124        25.50024                                                                
G01  23662267.95325    214816.12225     -4110.51325        35.10025  23662231.97825   2242458.60925     -3063.11925        30.60025
E29  23814089.44906      1021.60606      -829.65806        40.80006  23814098.74225   2068018.98425      -618.60725        34.20025
C21  22445491.01016    -29316.32516         5.15516        40.00016  22445496.10625   2060472.86025         3.52825        32.50025
R03  23060595.88226 123447637.36526     -2539.23326        40.90026
E19  24729078.51526  -2930930.93626       655.63426        38.40026  24729104.59705  -2196176.82405       489.73405        32.20005
R04  20555870.06717 110078213.64517      -967.08317        43.40017
E21  28130034.48226  -4963111.67526      2053.33526        41.20026  28130058.46626  -3713211.12226      1532.99226        38.90026
C13  40175884.31415     36403.95215     -1254.79015        33.80015                                                                
E12  26676158.87915  -4141245.64415      1436.07215        35.40015                                                                
E26  25477579.93825  -5654219.56025     -3349.67725        29.80025  25477619.51124  -2748960.01524     -2499.23924        25.10024
C22  23654407.99425     89025.61225     -1985.51325        34.40025  23654399.30024   2142105.73424     -1500.68924        28.50024
R15  20996744.25615 112202693.37415      2866.85315        34.70015
C26  23922926.10325   -173797.29725      2446.39525        33.20025  23922882.33324   1944568.67924      1833.37524        26.50024
R14  20452597.56125 109026305.49525      -803.92225        33.30025
R20  21537249.67225 115171812.88225     -1074.75725        33.00025
R19  22163219.02325 118560737.98225     -4114.20325        32.30025
C36  24881641.99825    125212.90425     -2762.85225        30.20025  24881933.39624  -3720261.64324     -2051.86024        23.90024
C11  24461954.74125  -2942509.25125     -1697.66425        29.60025                                                                
R05  21228941.31024 113483316.52724      1039.08824        28.80024
C16  39766574.97324     53001.72324     -1360.32524        28.70024                                                                
C06  38369333.76324     48343.43124     -1287.94224        27.50024                                                                
E33  24088862.42824   -110946.98924     -1222.68424        28.60024                                                                
R21  23826120.72024 127500846.69524      1787.95724        25.10024
E30  27370518.38423  -1786924.60623      -386.71823        21.80023                                                                
R13  23979425.88923 128051252.87123     -4113.96023        19.60023
C34  24989573.57824    122040.89724     -2533.61924        28.80024  24989598.76124  -4039006.68824     -1912.59024        27.50024
E27  26651551.01524  -1872537.85624      1463.77924        25.90024                                                                
> 2025 10 05 08 49 44.0000236  0 34                      
G07  22196593.41807   -137280.95407      1794.38807        45.00007                                                                
G06  22633639.25827    -56850.26827       448.37727        42.00027  22633635.66006   2040238.17806       334.32306        39.70006
G09  20965016.92107    -54152.64007       417.39907        41.80007  20965025.01526   -871690.10326       309.77026        37.00026
G03  20835156.72126    -95636.39826     -2129.94826        36.70026  20835145.02924  -1875991.93424     -1584.52024        25.40024
G01  23663057.60625    218923.84625     -4106.33925        35.00025  23662967.06924   2245519.79124     -3059.34024        28.80024
G16  22902544.09925   -109147.20325       678.87825        31.90025                                                                
G26  24072787.55624   -230003.58624     -2034.00924        25.50024                                                                
G04  21150156.45127     61638.12527     -1503.38727        43.20027  21150149.85606     38361.97306     -1122.23806        37.00006
E29  23814249.23806      1849.77706      -826.01506        40.70006  23814254.63525   2068636.85225      -616.26825        34.10025
C21  22445490.11106    -29322.98506         8.88106        40.10006  22445491.01025   2060467.67025         7.15925        32.30025
C22  23654768.64415     91009.06115     -1981.17015        34.40015  23654766.54625   2143602.37825     -1492.73525        32.50025
R03  23061094.13726 123450314.30626     -2533.87526        40.60026
E19  24728964.59416  -2931587.51816       658.74216        38.40016  24728977.78515  -2196667.30715       492.04115        31.50015
E26  25478209.20325  -5810527.32525     -3342.76725        34.80025  25478256.57024  -2746455.10424     -2505.05524        24.30024
R04  20556027.45827 110079067.19627      -970.38427        42.30027
C13  40176101.66405     37657.49005     -1251.00205        34.20005                                                                
E12  26675866.58205  -4142681.27305      1437.13905        35.10005                                                                
R15  20996200.13315 112199795.55415      2871.62915        34.40015
C26  23922419.45425   -176249.67425      2456.41925        33.10025  23922415.55624   1942734.29024      1837.15224        25.50024
E21  28129641.45426  -4965168.81826      2060.60626        39.90026  28129665.13816  -3714746.57116      1537.76116        39.80016
R14  20452750.15625 109027129.98525      -798.64225        33.20025
R20  21537451.73215 115172903.19215     -1075.57715        32.90015
R19  22164018.26925 118565023.43925     -4104.11225        32.30025
C36  24882171.13125    127980.88825     -2769.04125        30.10025                                                                
C11  24462285.41225  -2940807.86525     -1701.43225        29.60025                                                                
C34  24990048.74924    124574.70824     -2532.49124        29.00024  24990082.32624  -4037089.77424     -1919.55524        27.00024
R05  21228786.01724 113482495.82924      1043.02524        28.80024
C16  39766833.09424     54360.08024     -1354.35324        28.50024                                                                
C06  38369578.99324     49628.94724     -1282.26624        27.40024                                                                
E33  24089083.37524   -109725.30424     -1219.93924        28.30024                                                                
E27  26651267.11224  -1874003.78424      1468.90524        25.90024                                                                
R21  23825802.94024 127499155.33024      1793.72524        25.00024
E30  27370582.54023  -1786537.49023      -386.47123        21.80023                                                                
R13  23980155.28423 128055157.19023     -4114.09523        19.60023
> 2025 10 05 08 49 45.0000240  0 33                      
G07  22196268.14307   -139073.65907      1792.90407        45.10007                                                                
G06  22633552.61817    -57296.32317       446.05317        41.90017  22633560.11207   2039905.04307       333.24207        42.90007
G09  20964948.56807    -54568.55507       416.32907        41.60007  20964956.36316   -872000.67916       311.59216        37.30016
G03  20835560.54226    -93503.86826     -2132.56326        36.70026  20835562.34024  -1874404.35724     -1587.04424        25.20024
G01  23663858.95125    223032.27525     -4108.77925        34.90025  23663759.42024   2248580.49124     -3060.45624        27.60024
G04  21150452.04727     63140.94827     -1501.57127        41.90027  21150446.95006     39485.11706     -1122.80706        36.90006
G16  22902410.99125   -109826.45425       679.89025        31.80025                                                                
G26  24073179.08524   -227970.57124     -2032.81624        25.40024                                                                
G30  24769336.74524  -5937513.23624      2795.28724        28.50024                                                                
C22  23655173.96407     92992.38107     -1983.25507        42.40007  23655157.47525   2145096.73425     -1493.21125        31.80025
E29  23814415.02406      2676.84906      -826.52206        40.70006  23814421.31925   2069254.65425      -617.76925        33.60025
C21  22445496.10606    -29330.53806         7.99906        40.10006  22445499.40425   2060461.91925         6.03225        32.20025
E19  24728861.46526  -2932246.62426       659.61826        38.30026  24728863.56425  -2197159.89725       493.64225        31.40025
R03  23061586.09626 123452893.97626     -2531.14026        40.20026
C13  40176363.38205     38909.99605     -1251.99005        35.20005                                                                
R04  20556251.10326 110080209.60926      -967.70826        41.30026
R15  20995652.11225 112196812.11025      2875.30825        34.30025
E12  26675606.96205  -4144115.70705      1434.58605        34.90005                                                                
E21  28129267.31326  -4967226.21626      2058.27526        38.90026  28129284.10206  -3716282.58006      1536.28806        40.60006
C26  23922006.63925   -178702.39725      2452.89525        33.10025                                                                
R14  20452909.04625 109027921.68725      -801.81025        33.10025
R20  21537654.39225 115173932.29425     -1076.91125        32.90025
R19  22164806.42425 118569184.13825     -4109.70025        32.30025
E26  25478897.22625  -5807186.96625     -3340.35825        34.40025  25478896.02724  -2743949.61824     -2505.77124        24.20024
C36  24882724.84825    130745.68525     -2763.20225        30.00025                                                                
C34  24990566.19124    127103.26324     -2525.92524        29.00024  24990541.00824  -4035171.11024     -1919.53724        25.70024
R05  21228535.39124 113481101.48824      1043.39824        28.70024
C16  39767108.60424     55721.29124     -1362.63724        28.30024                                                                
C06  38369810.73324     50910.42824     -1279.46224        27.40024                                                                
E33  24089313.91524   -108501.66624     -1224.61424        28.10024                                                                
E27  26650968.21924  -1875471.44224      1468.52324        25.80024                                                                
R21  23825504.64624 127497505.31424      1805.06224        25.00024
R13  23980978.21423 128059497.78623     -4118.08123        19.60023
> 2025 10 05 08 49 46.0000243  0 33                      
G07  22195926.38017   -140867.83517      1794.91117        45.10017                                                                
G06  22633478.86927    -57743.58327       447.86227        41.80027  22633471.67407   2039571.06207       334.40507        42.30007
G09  20964864.02706    -54986.26206       418.60106        41.40006  20964875.41906   -872312.48306       312.41706        37.30006
G01  23664648.00525    227138.27025     -4104.77725        34.80025  23664531.38624   2251642.70524     -3062.97124        26.50024
G04  21150764.43026     64639.80426     -1496.87126        40.60026  21150733.25226     40609.26426     -1124.64726        36.70026
G16  22902273.38625   -110509.42525       684.83025        31.80025                                                                
G26  24073564.91824   -225938.50224     -2031.59624        25.40024                                                                
G03  20835977.85326    -91369.86326     -2134.74226        36.60026  20835966.46124  -1872814.91024     -1590.38024        25.10024
E29  23814570.01606      3501.74306      -823.80506        40.60006  23814577.51125   2069870.26125      -614.51025        33.50025
C21  22445499.10426    -29341.45026        12.59126        40.10026  22445494.30815   2060454.68015         7.98215        31.70015
C22  23655545.10727     94975.00927     -1982.28127        41.90027  23655537.91225   2146589.96025     -1492.66125        31.10025
C13  40176594.82206     40160.53206     -1249.55006        36.20006                                                                
R03  23062044.77926 123455358.75426     -2542.79526        39.40026
R15  20995066.91825 112193694.85525      2871.43225        34.10025
E19  24728766.43126  -5995494.15326       661.27126        37.20026  24728728.35825  -2197659.28725       502.79125        31.10025
E21  28128859.89626  -4969286.34126      2061.23726        38.00026  28128890.47406  -3717820.16506      1538.37206        41.10006
E12  26675339.24725  -4145554.16925      1440.22525        34.60025                                                                
C26  23921559.64925   -181150.52325      2445.82825        33.00025  23921587.53025  -4456879.96025      1845.72825        31.00025
R14  20453024.16615 109028545.58515      -800.52915        33.00015
R20  21537864.24725 115175063.92125     -1073.35125        32.80025
R19  22165520.23025 118573012.65325     -4106.28725        32.30025
E26  25479504.00625  -5803844.60825     -3343.35725        34.00025  25479538.18324  -2741447.93524     -2499.78224        23.60024
R04  20556424.08426 110081145.14326      -968.99726        39.80026
C34  24991046.45924    129635.34224     -2533.84124        29.40024  24991022.77524  -4033256.90224     -1911.98024        24.60024
C36  24883248.28625    133504.68625     -2756.10325        29.90025                                                                
R05  21228342.32424 113480078.86724      1041.20724        28.60024
C16  39767356.53224     57084.52024     -1364.23624        28.10024                                                                
C06  38370050.56724     52194.72424     -1285.70324        27.30024                                                                
E33  24089543.85624   -107280.62624     -1219.74124        27.90024                                                                
E07  26145851.50424  -6003782.83024     -2239.93424        24.10024                                                                
E27  26650703.80224  -1876940.82324      1470.24124        25.80024                                                                
R21  23825210.55024 127495940.28824      1802.69524        25.00024
R13  23981769.36723 128063731.41223     -4116.66023        19.70023
> 2025 10 05 08 49 47.0000247  0 33                      
G07  22195599.00707   -142663.81807      1796.88507        45.10007                                                                
G06  22633399.12427    -58192.35627       449.52927        41.70027  22633398.52407   2039235.61807       336.17507        41.70007
G09  20964796.27406    -55406.05606       420.83806        41.30006  20964806.16706   -872626.13406       314.57606        37.90006
G01  23665452.64825    231234.30325     -4091.05125        34.70025  23665322.53824   2254704.01424     -3060.85624        25.60024
G04  21151051.63226     66135.41326     -1493.98626        39.40026  21151030.34626     41731.72626     -1121.61926        36.40026
G26  24073965.74024   -223912.26324     -2023.32224        25.40024                                                                
G16  22902160.96425   -111193.85325       685.15625        31.80025                                                                
E29  23814738.20006      4324.51806      -821.71506        40.60006  23814743.89625   2070484.34325      -613.31825        33.40025
C21  22445503.90116    -29353.45516        12.55116        40.00016  22445504.50125   2060446.65525         8.41825        31.60025
C13  40176845.14906     41408.77906     -1247.10306        37.50006                                                                
C22  23655935.73616     96953.13916     -1975.88116        41.30016  23655922.84525   2148080.67325     -1489.45525        30.50025
E19  24728648.91326  -5996157.45626       663.30326        36.40026                                                                
R15  20994510.20325 112190666.10925      2879.16325        34.00025
R03  23062546.33126 123457988.97526     -2530.17226        38.50026
R14  20453168.66605 109029261.77205      -797.22905        32.90005
E12  26675058.94125  -4146990.70525      1435.57325        34.30025                                                                
C26  23921046.70425   -183610.59825      2466.04825        32.90025  23921125.54925  -4458728.26925      1848.30825        30.60025
E26  25480157.55425  -5800503.53525     -3340.42825        33.70025  25480177.94023  -2738949.49023     -2496.82623        23.00023
R19  22166301.18925 118577135.08325     -4100.82925        32.30025
R20  21538052.81625 115176018.04025     -1070.44125        32.70025
E21  28128493.84926  -4971346.57426      2060.28626        37.10026  28128507.93907  -3719359.79507      1540.65307        41.50007
R04  20556614.45226 110082111.32726      -962.15626        38.40026
C34  24991539.01824    132166.58524     -2530.82424        29.40024  24991554.90724  -4031349.62524     -1903.81024        24.70024
C36  24883779.51825    136263.18925     -2758.25225        29.80025                                                                
R05  21228122.87624 113478852.79524      1045.29624        28.60024
C06  38370299.69424     53477.80124     -1282.46824        27.20024                                                                
C16  39767634.73924     58444.87024     -1358.91124        27.90024                                                                
E07  26146254.42524  -6001547.77124     -2235.05824        24.60024                                                                
E27  26650427.09324  -1878411.69024      1471.61024        25.80024                                                                
R21  23824920.05124 127494331.61824      1806.51924        24.90024
R13  23982539.53323 128067789.30923     -4118.64323        19.70023
E33  24089817.56624   -106065.90524     -1211.56024        27.70024                                                                
G03                                                                  20836382.87223  -1871224.84623     -1590.37323        23.40023
> 2025 10 05 08 49 48.0000250  0 33                      
G07  22195255.44407   -144468.13807      1808.48907        45.00007                                                                
G06  22633301.39127    -58648.45927       459.76827        41.60027  22633301.39106   2038891.58606       348.32506        40.20006
G09  20964712.63126    -55834.27926       432.43726        41.20026  20964723.42406   -872944.46406       320.66806        41.10006
G01  23666228.21125    235322.75925     -4084.66725        34.70025  23666099.00124   2257759.34424     -3052.33824        25.50024
G04  21151343.03026     67624.11426     -1485.24526        38.30026  21151314.25026     42853.12726     -1120.87126        36.00026
G16  22902008.96925   -111884.37925       693.57625        31.80025                                                                
G26  24074331.48724   -221894.11224     -2014.10824        25.50024                                                                
G03  20836793.28825    -87106.95525     -2124.81725        33.40025  20836786.69324  -1869638.68524     -1584.20824        24.60024
C13  40177081.68507     42650.33107     -1238.20307        44.00007                                                                
E29  23814884.79806      5140.03406      -811.88606        40.50006  23814896.79025   2071094.00725      -607.45525        33.00025
C21  22445494.00806    -29371.29006        20.75106        40.00006  22445498.50525   2060433.52225        15.68825        31.00025
C22  23656301.48316     98925.29216     -1969.16316        40.70016  23656299.38525   2149567.51725     -1484.91025        30.10025
E19  24728511.60816  -5996825.70416       671.47016        35.90016                                                                
R15  20994005.95225 112187980.85225      2883.92825        34.00025
R03  23063001.41626 123460435.36926     -2516.55426        37.60026
E26  25480784.72025  -5797169.75225     -3330.13725        33.60025  25480802.10824  -2736451.66424     -2497.51524        25.10024
R14  20453348.84125 109030231.17825      -787.25025        32.90025
R19  22167067.75825 118581245.26325     -4093.79125        32.40025
C26  23920577.52925   -186073.05425      2463.64525        32.80025  23920653.67625  -4460587.66825      1864.94425        30.20025
E12  26674771.74025  -4148430.04725      1440.74425        34.00025                                                                
R20  21538289.05325 115177291.21625     -1061.59625        32.60025
R04  20556778.43826 110082998.58726      -953.61326        37.20026
C34  24992013.28924    134690.01224     -2519.51824        29.40024  24992040.87024  -4029448.24324     -1898.43424        24.60024
C36  24884309.85125    139016.43325     -2750.61425        29.70025                                                                
R05  21227957.69124 113477978.55524      1054.79124        28.50024
E07  26146658.24524  -5999321.12024     -2222.44724        26.80024                                                                
E33  24090023.82424   -104859.11224     -1202.82924        27.50024                                                                
C06  38370549.72124     54750.96924     -1268.21324        27.10024                                                                
C16  39767899.45624     59795.91024     -1346.38424        27.60024                                                                
E27  26650168.67224  -1879884.77524      1474.19324        25.80024  26650134.79623  -4175293.07823      1092.86223        23.30023
R21  23824596.57524 127492610.39424      1815.88724        24.90024
R13  23983278.22223 128071744.05523     -4116.15423        19.60023
E21  28128095.72526  -4973413.16626      2069.77126        36.30026  28128112.51307  -3720904.54207      1547.30407        41.80007
> 2025 10 05 08 49 49.0000253  0 33                      
G07  22194896.89307   -146275.46307      1808.82607        45.00007                                                                
G06  22633217.45027    -59107.84527       461.02727        41.60027  22633194.06606   2038544.50606       348.60406        39.10006
G09  20964612.20116    -56264.99816       431.96716        41.10016  20964622.09406   -873266.10606       323.29906        40.70006
G01  23666954.90825    239412.21225     -4089.95025        34.70025  23666862.27224   2260807.96724     -3045.26924        24.80024
G16  22901859.37325   -112579.21025       696.98225        31.70025                                                                
G03  20837175.52425    -84984.24725     -2122.70825        32.50025  20837166.83024  -1868056.03624     -1580.89324        24.50024
G26  24074667.25524   -219885.10524     -2004.43424        25.50024                                                                
G04  21151631.73026     69109.10526     -1483.13726        37.30026                                                                
C13  40177302.93207     43887.65007     -1235.20307        45.10007                                                                
E29  23815026.30006      5952.01006      -810.20606        40.50006  23815029.29825   2071701.28925      -606.09025        32.60025
C21  22445473.92206    -29393.71406        24.71706        40.00006  22445474.82125   2060416.08425        19.59125        30.90025
C22  23656652.84006    100893.38106     -1966.05706        40.30006  23656656.73725   2151050.53625     -1481.10525        29.80025
E19  24728376.10106  -5997498.86406       675.36606        35.70006  24728362.31124  -4600035.95324       501.49624        28.30024
R15  20993420.45715 112184958.41215      2893.43115        34.00015
E26  25481423.27815  -5793842.28415     -3323.55915        33.50015  25481423.27824  -2733966.70824     -2478.52024        27.70024
R19  22167844.82025 118585508.52725     -4094.99825        32.50025
R14  20453468.75825 109030976.34925      -788.92425        32.90025
R03  23063505.66726 123463240.22326     -2513.82526        36.90026
C26  23920070.28025   -188539.27425      2468.10225        32.70025  23920031.90625  -4462444.22025      1855.12825        29.60025
E12  26674499.52825  -4149880.42625      1455.89725        33.70025                                                                
E21  28127677.21426  -4975483.97226      2072.91326        35.60026  28127698.50007  -3722452.91007      1550.17907        42.00007
R04  20556956.51526 110084057.47926      -949.49526        36.30026
C34  24992479.46624    137207.07624     -2513.88124        29.40024  24992503.45024  -4027553.65224     -1891.19524        24.70024
C36  24884820.09825    141763.90425     -2744.58425        29.60025                                                                
R05  21227741.54024 113476928.40124      1056.88524        28.50024
E07  26147053.67124  -5997096.86224     -2223.06124        28.10024                                                                
E33  24090210.59424   -103658.08724     -1198.14124        27.40024                                                                
C06  38370766.17124     56018.11024     -1264.12724        27.00024                                                                
C16  39768139.29024     61140.49924     -1341.36424        27.40024                                                                
R21  23824179.26424 127490482.60324      1817.84624        24.80024
R20  21538437.15025 115178187.94925     -1064.66525        31.60025
R13  23983977.03823 128075581.13923     -4113.48923        19.60023
E27  26649854.49024  -1881362.63824      1480.25224        26.20024  26649827.20924  -4176400.96924      1115.40424        23.90024
> 2025 10 05 08 49 50.0000256  0 34                      
G07  22194542.53817   -148089.46717      1817.34517        45.00017                                                                
G06  22633141.30227    -59577.75127       475.16627        41.50027  22633101.43006   2038192.42606       354.58106        38.30006
G09  20964533.95526    -56703.48426       442.36926        41.00026  20964534.85506   -873592.81806       329.24706        40.00006
G01  23667716.38125    243499.99025     -4086.94025        34.60025  23667636.33624   2263849.82124     -3038.46824        24.20024
G16  22901745.75125   -113277.88925       700.60325        31.70025                                                                
G04  21151888.35226     70587.49226     -1475.08426        36.40026                                                                
G03  20837561.65625    -82872.25725     -2106.63025        31.70025  20837562.25624  -1866483.58224     -1567.35524        24.30024
G11  25315882.37923  -6211900.51523      2312.46523        20.80023                                                                
G26  24075069.57624   -217883.61324     -1997.73324        25.50024                                                                
C13  40177528.37607     45118.08007     -1226.98607        45.10007                                                                
E29  23815176.79606      6756.70806      -801.05706        40.40006  23815182.79225   2072302.23225      -597.77425        32.60025
C21  22445471.52306    -29424.03406        34.27006        40.00006  22445468.22625   2060393.38125        25.33525        31.10025
C22  23657039.27306    102855.01106     -1958.39906        40.00006  23657031.77825   2152528.08625     -1474.81525        29.60025
E19  24728235.19926  -5998177.70026       681.67426        35.70026  24728229.80324  -4600542.63824       506.68524        28.10024
R15  20992848.45325 112181909.97325      2894.62025        34.00025
E26  25482042.04915  -5790522.31615     -3317.21815        33.40015  25482057.03924  -2731482.98624     -2483.10624        26.80024
R19  22168611.39025 118589618.70725     -4092.06025        32.70025
R14  20453647.73425 109031939.65025      -780.98825        32.80025
R03  23063943.06426 123465591.64126     -2505.65026        36.20026
E12  26674227.91625  -4151340.49825      1464.91725        33.50025                                                                
C26  23919578.02125   -191006.71225      2468.04725        32.60025  23919682.34824  -4464313.86224      1876.18624        28.90024
E21  28127275.79225  -4977563.73825      2084.24525        35.10025  28127300.67507  -3724006.43307      1556.09907        42.10007
R04  20557118.40326 110084934.77726      -936.17226        35.50026
C34  24992971.72624    139719.31624     -2509.82824        29.30024  24992983.71724  -4025655.37224     -1900.12424        24.60024
E07  26147496.46524  -5994882.38724     -2209.58224        28.60024  26147525.54524  -4484220.62324     -1650.65424        23.50024
R05  21227550.27324 113475916.48624      1068.84024        28.50024
C36  24885348.33224    144505.26024     -2738.29824        29.40024                                                                
E33  24090398.86424   -102457.00924     -1201.10424        27.30024                                                                
C06  38371014.99924     57280.27824     -1259.68124        26.90024                                                                
E27  26649582.57824  -1882849.31624      1491.08424        26.20024  26649547.50223  -4177520.89023      1125.93623        23.30023
C16  39768392.61524     62477.26724     -1332.85724        27.20024                                                                
R21  23823800.92624 127488467.36624      1815.89224        24.90024
R20  21538698.26925 115179595.02125     -1047.60325        30.40025
R13  23984706.13323 128079484.69323     -4103.64523        19.50023
> 2025 10 05 08 49 51.0000259  0 35                      
G07  22194204.97207   -149907.51507      1820.06907        45.00007                                                                
G06  22633088.53917    -60051.75217       476.04817        41.70017  22633013.59106   2037837.78906       355.91506        37.40006
G09  20964460.50626    -57147.27926       446.45026        40.80026  20964446.71616   -873922.18816       330.69816        39.10016
G01  23668515.92725    247581.17025     -4077.87925        34.50025  23668411.30024   2266890.69024     -3040.37624        23.70024
G16  22901594.95625   -113980.58725       704.70725        31.70025                                                                
G04  21152159.36526     72064.21926     -1475.89626        35.70026                                                                
G03  20837972.67225    -80763.93425     -2106.48825        31.20025                                                                
G26  24075472.49724   -215884.10424     -1998.51724        25.50024  24075284.22824  -4718256.26224     -1489.45624        28.00024
G11  25315420.39923  -6214212.06723      2311.55123        21.60023                                                                
C13  40177769.10907     46344.88807     -1224.99607        45.10007                                                                
R15  20992273.15216 112178844.71316      2903.11616        39.90016
C21  22445458.93226    -29457.51326        35.05826        40.00026  22445460.73125   2060367.38025        27.65125        31.50025
E29  23815332.68806      7557.40606      -798.69906        40.40006  23815333.58825   2072899.86825      -595.98325        32.60025
C22  23657411.61526    104810.96026     -1953.10926        39.60026  23657406.81825   2154002.42225     -1472.72925        29.50025
E19  24728097.59426  -5998862.24226       687.39526        35.70026  24728099.39324  -4601053.69724       513.24624        28.10024
E26  25482658.42325  -5787205.70425     -3314.68225        33.30025  25482675.51124  -2729000.06424     -2482.52024        26.80024
R19  22169329.39325 118593467.88725     -4076.40125        32.80025
R14  20453755.36025 109032520.84025      -774.82125        32.80025
R03  23064392.45326 123468005.10126     -2505.61326        35.60026
E21  28126879.16725  -4979648.44225      2087.17225        34.60025  28126902.55107  -3725563.17007      1558.34407        42.10007
E12  26673937.71725  -4152802.49825      1462.96425        33.30025                                                                
R04  20557295.88025 110085892.53525      -935.33625        34.80025
E07  26147893.99024  -5992669.33924     -2212.33424        29.10024  26147908.67923  -4482581.14723     -1633.88723        23.00023
C34  24993448.39624    142223.76724     -2500.55524        29.40024  24993466.38324  -4023755.75624     -1900.28424        24.50024
R05  21227353.30924 113474871.68524      1071.18424        28.50024
E33  24090710.34824   -101260.51624     -1194.20024        27.20024                                                                
C06  38371238.34424     58536.76424     -1253.64424        26.80024                                                                
E27  26649305.86924  -1884340.73524      1493.79024        26.20024  26649261.80023  -4178633.84823      1109.47623        22.80023
C16  39768647.13824     63808.01124     -1327.73124        26.90024                                                                
R21  23823403.40124 127486349.52824      1814.77724        24.90024
R20  21538883.84125 115180594.28125     -1049.40425        29.50025
R13  23985604.91123 128084291.36023     -4092.64523        19.50023
E30  27371150.64723  -6127691.52023      -378.55123        17.60023                                                                
C26  23919076.46825   -193485.65325      2484.69125        32.60025  23919077.06824  -4466196.45924      1889.07524        27.80024
C36  24885865.47424    147242.55724     -2735.26724        29.30024  24885895.45323  -4361979.69123     -2071.60523        21.60023
> 2025 10 05 08 49 52.0000263  0 34                      
G07  22193868.00507   -151723.79307      1815.39207        44.90007                                                                
G06  22633037.27407    -60524.64907       472.34507        41.90007  22632933.24606   2037484.81206       352.14706        35.60006
G09  20964374.46626    -57589.74526       441.80226        40.10026  20964371.46806   -874251.09606       328.67806        38.20006
G04  21152472.34825     73539.56725     -1474.65825        35.00025                                                                
G16  22901468.14425   -114683.01025       702.28525        31.70025                                                                
G03  20838382.78825    -78656.16225     -2107.49625        30.90025                                                                
G01  23669294.48825    251664.68925     -4084.68725        33.90025  23669194.05823   2269931.50923     -3040.79223        23.30023
G26  24075905.69724   -213883.22724     -2001.56124        25.40024  24075677.55524  -4716763.21324     -1494.84524        27.80024
G11  25314996.79223  -6216527.20523      2316.93023        21.60023                                                                
C13  40178012.54107     47572.73007     -1228.35907        45.00007                                                                
R15  20991741.62026 112175951.48926      2898.13526        41.20026
C21  22445463.42926    -29489.99126        31.97726        40.40026  22445464.32825   2060343.20725        23.25825        32.20025
E29  23815489.48006      8359.48106      -802.76206        40.40006  23815494.87625   2073499.14125      -600.09125        32.20025
C22  23657803.44326    106766.94426     -1956.00026        39.30026  23657794.15024   2155478.25324     -1476.57824        29.40024
E19  24727990.56816  -5999545.97116       683.32216        35.70016  24727980.37524  -4601564.52624       510.71524        28.40024
E26  25483311.67015  -5783887.52915     -3318.20515        33.30015  25483320.96424  -2726519.58924     -2479.25124        26.10024
R14  20453918.14725 109033336.94625      -781.44025        32.80025
R19  22170076.17625 118597409.68425     -4084.39825        32.80025
E21  28126491.23525  -4981731.02625      2081.52425        34.30025  28126516.11807  -3727119.24807      1555.74807        42.10007
C26  23918591.40425   -195966.89925      2482.39725        32.60025                                                                
R03  23064848.73725 123470394.05525     -2513.15725        35.10025
E12  26673651.71525  -4154259.34625      1454.27225        33.00025                                                                
R04  20557470.06025 110086772.90725      -943.39625        34.30025
C34  24993942.75324    144733.36424     -2512.16824        29.40024  24993956.24424  -4021847.29924     -1912.87724        24.30024
R05  21227150.64924 113473734.33724      1065.94924        28.80024
E33  24091006.24324   -100064.70224     -1195.47524        27.10024                                                                
C06  38371515.95224     59792.12924     -1254.80424        26.70024                                                                
E27  26649019.56824  -1885834.11324      1494.35724        26.10024  26648988.68923  -4179741.80223      1105.45223        22.40023
R21  23823073.62924 127484531.83124      1822.29024        25.10024
C16  39768920.54924     65138.18324     -1329.88524        26.60024                                                                
R20  21539064.61624 115181508.61524     -1051.95024        28.70024
R13  23986459.91923 128088805.39723     -4092.62323        19.50023
E30  27371258.57223  -6127319.92223      -371.59723        18.80023                                                                
C36  24886400.60324    149986.24524     -2746.88324        29.10024  24886432.08223  -4359906.02023     -2073.67023        21.60023
> 2025 10 05 08 49 53.0000266  0 34                      
G07  22193533.43707   -153542.86907      1820.47407        44.80007                                                                
G09  20964290.82326    -58033.88826       444.98026        39.60026  20964287.52626   -874581.20126       330.70426        36.80026
G01  23670086.24025    255745.53225     -4079.50425        33.30025  23669966.32323   2272972.86623     -3041.62523        22.90023
G04  21152748.45725     75011.29525     -1469.91725        34.40025                                                                
G16  22901326.04225   -115387.60525       705.68125        31.60025                                                                
G03  20838796.80125    -76544.42325     -2113.72225        30.60025                                                                
G26  24076284.33524   -211876.17424     -2010.13924        25.40024  24076055.59424  -4715270.36024     -1492.75324        27.70024
G11  25314563.89223  -6218844.08423      2317.75023        21.50023                                                                
G06  22632942.54007    -61000.06507       476.67607        42.00007  22632840.61005   2037129.83705       355.97305        33.60005
C13  40178250.27607     48797.85707     -1223.76807        44.90007                                                                
C21  22445469.72526    -29527.54626        40.09226        40.60026  22445455.93425   2060318.29325        25.28525        31.80025
E29  23815643.57306      9159.12106      -798.42306        40.30006  23815645.07225   2074094.81525      -593.87425        31.40025
R15  20991196.89726 112173048.32326      2898.54526        41.00026
C22  23658182.08126    108723.26726     -1956.49126        39.00026  23658167.99124   2156951.80124     -1472.40624        29.30024
E19  24727855.06206  -6000233.25706       689.06506        35.70006  24727848.76725  -4602075.47625       511.00925        29.60025
R14  20454044.06015 109034015.00015      -778.97515        33.40015
E26  25483928.94325  -5780572.07325     -3314.34525        33.50025  25483945.13224  -2724035.76324     -2485.50124        27.30024
R19  22170836.44925 118601484.65725     -4082.92925        32.90025
R03  23065306.22125 123472850.40625     -2512.08125        34.70025
C26  23918139.91625   -198448.47325      2481.73825        32.50025                                                                
E21  28126097.60825  -4983819.99425      2092.15925        34.00025  28126117.69407  -3728677.62807      1559.53107        42.10007
E12  26673374.10725  -4155716.41525      1457.17825        32.80025                                                                
R04  20557636.74425 110087673.19525      -943.21925        33.80025
C34  24994447.00424    147240.57824     -2506.02324        29.40024  24994439.80924  -4019932.19024     -1918.43424        24.00024
R05  21226953.68624 113472689.53524      1073.34624        29.00024
C36  24886925.84024    152727.06324     -2739.38224        29.00024  24887217.53824  -4357836.66524     -2067.19724        23.70024
E33  24091253.27224    -98865.46624     -1200.94724        27.00024                                                                
C06  38371740.49724     61052.00724     -1262.13424        26.60024                                                                
E27  26648732.66624  -1887329.00024      1495.64124        26.10024  26648702.08723  -4180849.22623      1107.15923        22.00023
R21  23822749.85324 127482806.78124      1826.61324        25.40024
R20  21539276.26924 115182647.89324     -1058.81524        28.20024
C16  39769156.18624     66472.36624     -1336.19024        26.40024                                                                
R13  23987184.21823 128092679.91723     -4096.46223        19.50023
E30  27371301.44223  -6126958.26823      -356.68223        19.10023                                                                
> 2025 10 05 08 49 54.0000269  0 34                      
G07  22193202.76507   -155359.47207      1815.36707        44.80007                                                                
G06  22632848.10507    -61471.70207       469.74707        42.10007  22632749.17405   2036777.51905       350.98905        33.80005
G09  20964196.68926    -58473.66226       437.59126        39.30026  20964199.68726   -874910.97426       329.60726        36.00026
G01  23670863.30225    259826.24625     -4080.64825        33.10025  23670736.79023   2276013.75123     -3040.64923        22.60023
G04  21153022.46725     76490.44825     -1482.86625        33.90025                                                                
G16  22901165.35325   -116090.73525       702.39725        31.50025                                                                
G26  24076689.65524   -209866.01624     -2011.71124        25.50024  24076437.22924  -4713775.16924     -1496.36124        27.50024
G11  25314076.43023  -6221159.55323      2314.76223        21.40023                                                                
G03  20839187.13125    -74431.00325     -2114.26025        30.30025                                                                
C13  40178481.71607     50025.89907     -1229.49907        44.60007                                                                
R14  20454196.95407 109034839.49507      -785.44307        42.00007
C21  22445445.14226    -29558.12026        27.08526        40.70026  22445447.84015   2060294.27915        23.56315        31.50015
E29  23815788.97206      9961.41306      -803.61806        40.30006  23815797.36725   2074694.39525      -601.53325        31.80025
R15  20990667.76326 112170230.79126      2894.93826        40.70026
E19  24727712.96126  -6000919.38326       685.54526        35.60026  24727715.65924  -4602584.84724       508.58124        29.00024
E26  25484572.89725  -5777254.32825     -3319.63925        33.50025  25484570.19924  -2721557.16024     -2475.99224        26.90024
R19  22171572.74025 118605432.57425     -4085.71425        33.00025
C22  23658599.69226    110680.59726     -1957.83426        38.60026  23658545.73024   2158428.41624     -1478.14724        29.10024
R03  23065835.05525 123475692.02425     -2502.33725        34.30025
C26  23917686.93025   -200925.49425      2474.74425        32.50025  23917658.45024  -4961884.86824      1867.51724        25.20024
E21  28125724.06625  -4985908.64625      2088.49225        33.60025  28125719.27007  -3730234.04807      1555.43907        42.10007
R04  20557846.89925 110088808.70925      -942.00625        33.40025
E12  26673107.59225  -4157175.37025      1459.89825        32.50025                                                                
C34  24994897.59224    149750.05024     -2510.60024        29.40024                                                                
R05  21226742.03224 113471569.01424      1061.84424        29.20024
C36  24887451.37624    155465.02124     -2736.52724        29.00024                                                                
E33  24091437.04524    -97662.59624     -1204.68524        27.00024                                                                
C06  38371980.63124     62309.75324     -1256.68024        26.60024                                                                
R20  21539491.82024 115183810.89124     -1053.77224        27.80024
E27  26648465.25124  -1888816.97924      1484.52524        26.00024  26648416.98523  -4181950.82323      1098.68323        21.60023
R21  23822400.29524 127480945.44724      1815.76024        25.40024
C16  39769422.10224     67814.26224     -1345.75124        26.10024                                                                
E30  27371356.30423  -6126597.11623      -360.90123        19.30023                                                                
R13  23987999.65323 128097044.96123     -4102.28023        19.60023
> 2025 10 05 08 49 55.0000272  0 33                      
G07  22192852.60807   -157173.77707      1813.15507        44.70007                                                                
G06  22632752.77107    -61940.79507       467.82007        42.10007  22632658.33705   2036426.88205       349.79705        33.70005
G01  23671626.27425    263901.83825     -4073.03025        33.00025  23671513.25223   2279056.40823     -3043.54123        22.40023
G04  21153306.07125     77969.32125     -1478.73225        33.50025                                                                
G16  22901054.13025   -116789.80425       697.03925        31.40025                                                                
G03  20839594.24925    -72320.24825     -2109.42125        30.00025                                                                
G26  24077115.66024   -207855.34624     -2010.92424        25.90024  24076817.66624  -4712280.21924     -1494.82824        27.30024
G11  25313656.72023  -6223472.49123      2311.67223        21.30023                                                                
G09  20964114.84526    -58913.74526       440.23626        39.10026  20964118.44326   -875238.04726       325.72326        35.90026
C21  22445442.44426    -29587.21126        28.34926        40.80026  22445440.94505   2060271.76805        21.76105        31.40005
R14  20454329.46207 109035554.16107      -787.14107        41.80007
E29  23815939.46806     10765.30706      -804.69406        40.30006  23815948.76225   2075292.58325      -597.49125        31.80025
R15  20990099.35716 112167200.70316      2894.20916        40.50016
C13  40178714.65517     51255.61417     -1230.55017        43.40017                                                                
E26  25485215.65215  -5773932.29115     -3323.18115        33.40015  25485205.75924  -2719075.92124     -2482.55524        26.30024
R19  22172345.00525 118609571.07525     -4082.20425        33.00025
C26  23917205.16325   -203397.39525      2469.33925        32.40025  23917185.97724  -4963753.60724      1868.73824        25.00024
R04  20558011.78525 110089699.04025      -944.10225        33.00025
C34  24995380.85825    152259.30225     -2509.14125        29.50025                                                                
C22  23658955.54626    112642.61826     -1964.36426        37.20026  23658924.36724   2159906.99024     -1479.55324        29.00024
R05  21226517.78824 113470377.35824      1060.22724        29.20024
C36  24887963.72124    158205.19624     -2741.28324        29.00024                                                                
E19  24727585.84925  -6001600.47725       678.57925        35.10025  24727585.54924  -4603093.45424       508.22624        29.30024
E21  28125343.03025  -4987995.05825      2085.29325        32.90025  28125321.44507  -3731789.42107      1554.85007        42.00007
E33  24091681.37624    -96457.51024     -1206.19424        26.90024  24091721.84821  -4679453.67921      -912.92521         5.01021
C06  38372230.35824     63565.75524     -1255.12924        26.50024                                                                
R20  21539670.49624 115184773.42624     -1060.97724        27.50024
E27  26648171.75524  -1890300.42424      1481.17724        25.90024  26648128.58423  -4183057.19623      1108.76023        21.20023
R21  23822086.41324 127479273.98924      1818.76424        25.40024
E12  26672833.88125  -4158632.79325      1456.65625        32.10025                                                                
C16  39769664.93424     69157.41524     -1343.78124        25.90024                                                                
E30  27371418.36123  -6126233.43123      -364.95123        19.70023                                                                
R13  23988790.50623 128101274.76723     -4104.44023        19.60023
> 2025 10 05 08 49 56.0000276  0 34                      
G06  22632683.51907    -62412.66907       473.26507        42.00007  22632580.69005   2036074.13505       353.80105        33.40005
G09  20964040.19716    -59355.17216       442.10016        38.90016  20964045.29326   -875566.98526       329.87026        35.80026
G07  22192518.93927   -158991.03227      1818.72927        43.90027                                                                
G01  23672421.92325    267977.54425     -4075.76125        32.90025  23672296.01023   2282098.69123     -3042.09523        22.20023
G04  21153595.37125     79442.87425     -1470.89325        33.10025  21153580.38124  -4728174.23724     -1098.41224        25.50024
G16  22900919.52325   -117490.63925       701.71825        31.30025                                                                
G03  20840005.26525    -70212.57825     -2106.12625        29.70025                                                                
G26  24077494.89724   -205850.57824     -2001.81724        26.10024  24077200.50124  -4710793.76524     -1482.20524        27.00024
G11  25313218.72323  -6225786.89223      2315.13223        21.20023                                                                
C21  22445445.14216    -29619.98316        34.61316        41.00016  22445444.84215   2060247.11615        25.72215        31.40015
R15  20989584.31306 112164396.17206      2898.71906        40.50006
R14  20454505.74017 109036441.95917      -783.65917        41.60017
E29  23816111.54926     11566.72226      -800.17526        40.20026  23816108.25125   2075890.92125      -598.41325        31.10025
C13  40178971.27727     52481.16627     -1223.47127        42.20027                                                                
C22  23659317.69526    114601.23226     -1956.91126        36.30026  23659310.20024   2161382.93824     -1474.63524        28.90024
E26  25485814.93725  -5770614.78225     -3315.49425        33.30025  25485848.81424  -2716594.78424     -2481.08524        26.90024
R19  22173131.66025 118613727.18325     -4079.30825        32.90025
R03  23066725.13825 123480411.71525     -2507.31425        32.40025
C26  23916729.09325   -205874.96625      2480.40525        32.40025  23916716.20224  -4965623.25424      1870.10124        26.00024
R04  20558191.96025 110090610.82425      -937.51325        32.70025
C34  24995863.22425    154764.58625     -2503.29825        29.80025                                                                
E12  26672580.25725  -4160093.18325      1461.87425        31.50025                                                                
R05  21226343.90824 113469395.27724      1070.20624        29.20024
C36  24888501.24924    160945.18224     -2739.89024        29.00024                                                                
E21  28124916.12625  -4990083.05625      2088.79025        32.00025  28124934.41307  -3733347.05907      1558.76907        41.90007
E19  24727478.82325  -6002285.86225       687.52925        33.90025  24727465.93224  -4603604.70524       512.57224        29.20024
E33  24091979.37024    -95257.80524     -1197.01424        26.90024  24091952.98822  -4678523.78322      -938.38122        12.70022
C06  38372459.09924     64819.19824     -1252.16324        26.50024                                                                
R20  21539891.44324 115185901.99424     -1058.04324        27.30024
E27  26647888.75024  -1891786.48024      1487.36224        25.80024  26647853.07523  -4184173.91323      1121.88923        20.80023
R21  23821708.37424 127477198.26524      1825.41024        25.30024
C16  39769941.94224     70491.69624     -1329.84524        25.80024                                                                
E30  27371483.71623  -6125872.12323      -360.12123        19.70023                                                                
R13  23989486.62423 128104939.17523     -4096.67423        19.70023
> 2025 10 05 08 49 57.0000279  0 33                      
G06  22632578.89227    -62886.13627       474.26427        42.00027  22632489.85305   2035718.85805       356.54305        33.10005
G07  22192180.47327   -160813.21727      1824.65027        43.20027                                                                
G09  20963953.85726    -59800.61026       447.44326        38.70026  20963956.25525   -875897.94125       331.96525        34.80025
G01  23673182.79725    272053.05925     -4075.41825        32.90025  23673063.77923   2285139.87523     -3040.63323        22.00023
G04  21153885.57025     80911.55425     -1466.24225        32.70025  21153850.19424  -4727077.03724     -1096.59324        24.60024
G16  22900766.62925   -118196.35325       708.15425        31.10025                                                                
G03  20840412.38325    -68106.50625     -2105.27425        29.50025                                                                
G26  24077874.13524   -203851.30324     -1996.52824        26.30024                                                                
G11  25312759.14123  -6228104.64023      2319.41923        21.10023                                                                
C21  22445432.55006    -29656.40506        38.24706        41.00006  22445434.64915   2060219.39015        29.26315        31.00015
R15  20989031.49606 112161450.18806      2903.57806        40.60006
R14  20454642.44606 109037177.21006      -779.65606        41.40006
E29  23816259.94626     12364.33026      -795.70526        40.10026  23816261.14525   2076488.02925      -596.49425        31.10025
C22  23659699.63116    116554.87216     -1951.15216        36.10016  23659684.34124   2162854.64624     -1469.58724        28.80024
C13  40179206.01426     53703.38926     -1220.55726        40.90026                                                                
E26  25486462.18925  -5767298.53825     -3315.61125        33.20025  25486481.07624  -2714117.48624     -2475.37924        26.40024
R03  23067194.61325 123482932.40525     -2502.52725        32.40025
C26  23916321.07525   -208353.94325      2479.68025        32.30025  23916241.63024  -4967495.52824      1873.58624        25.60024
R04  20558358.04525 110091508.81125      -933.38425        32.40025
E21  28124524.29725  -4992173.70625      2091.97525        31.60025  28124535.09007  -3734908.10607      1562.75107        41.80007
C34  24996338.99525    157268.25425     -2502.86025        29.90025                                                                
R05  21226118.46424 113468197.50224      1073.98024        29.20024
C36  24889020.78924    163677.17424     -2727.99524        29.00024                                                                
E19  24727344.51625  -6002976.13225       692.71225        33.00025  24727336.72124  -4604113.99724       508.31324        29.00024
E12  26672290.35825  -7054383.71625      1464.66325        30.40025                                                                
R20  21540062.62524 115186826.26924     -1042.83024        27.20024
C06  38372713.02424     66068.34524     -1247.00024        26.50024                                                                
E33  24092175.73424    -94060.62524     -1195.91824        26.80024  24092043.22625  -4677622.63025      -886.78225        29.80025
E27  26647565.87424  -1893276.28524      1491.67924        25.80024                                                                
R21  23821407.38324 127475595.71824      1826.45924        25.30024
C16  39770212.95424     71817.13424     -1321.01524        25.60024                                                                
R13  23990225.01323 128108891.62923     -4091.42923        19.80023
E30  27371561.06323  -6125518.58023      -349.66023        19.70023                                                                
> 2025 10 05 08 49 58.0000282  0 34                      
G06  22632478.46127    -63360.99427       475.55227        41.90027  22632396.61805   2035363.74605       355.02905        32.70005
G07  22191830.61527   -162633.83227      1819.82927        42.70027                                                                
G09  20963864.51926    -60247.18026       447.13626        38.50026  20963870.21525   -876231.41125       334.72625        33.60025
G01  23673972.75025    276120.95125     -4064.07925        33.00025  23673833.94623   2288176.69523     -3034.63823        22.30023
G04  21154160.47925     82375.44025     -1461.49025        32.40025  21154131.69924  -4725965.98224     -1117.98224        23.80024
G16  22900636.81925   -118903.43525       707.76625        31.10025                                                                
G03  20840829.99424    -65999.78124     -2107.04924        29.30024  20840792.22023  -4875952.94523     -1571.36823        19.30023
G26  24078279.75424   -201848.48124     -2004.59424        26.70024                                                                
G11  25312298.36023  -6230423.22223      2318.99923        21.00023                                                                
R15  20988487.07306 112158550.08106      2901.93006        41.10006
C21  22445423.25706    -29693.59806        37.57906        40.90006  22445428.35325   2060189.90125        30.37125        31.00025
R14  20454784.24826 109037942.98026      -781.36226        41.20026
E29  23816404.14626     13160.95726      -796.13526        40.00026  23816411.34225   2077083.16825      -594.15325        31.10025
C22  23660082.76626    118508.14426     -1953.08726        35.80026  23660056.68424   2164326.76324     -1472.32124        28.70024
C13  40179442.55126     54924.28826     -1220.23626        39.70026                                                                
E26  25487092.05315  -5763985.81315     -3310.96415        33.10015  25487111.24024  -2711640.34924     -2477.05524        25.90024
R03  23067673.08225 123485502.88325     -2503.12325        32.40025
C26  23915829.71625   -210835.00025      2482.09625        32.20025  23915760.76324  -4969379.54524      1889.88924        25.10024
R19  22174647.71125 118621854.16725     -4079.56625        30.40025
R04  20558531.32525 110092445.88225      -933.63825        32.20025
E21  28124113.58125  -4994266.56825      2093.96825        31.40025  28124134.86706  -3736469.84506      1562.08606        41.20006
C34  24996827.65625    159771.77425     -2503.44525        29.90025                                                                
R05  21225907.41024 113467080.04024      1062.80524        29.20024
C36  24889553.52124    166410.46624     -2733.94024        29.00024                                                                
E19  24727212.90725  -6003669.18025       694.43625        32.10025  24727208.41024  -4604613.41524       494.48124        28.80024
R20  21540264.08524 115187912.75524     -1047.49624        27.10024
C06  38372945.66324     67320.99624     -1254.40124        26.50024                                                                
E33  24092422.16324    -92867.58824     -1190.96424        26.70024  24092274.36624  -4676736.98924      -877.88524        28.80024
E27  26647254.39024  -1894771.86524      1498.46824        25.70024                                                                
E12  26671971.67824  -7055849.39024      1465.67424        29.40024                                                                
R21  23821087.20424 127473892.10524      1835.83224        25.20024
C16  39770462.38224     73142.66224     -1325.57424        25.50024                                                                
R13  23990959.50423 128112821.92623     -4090.83223        20.00023
E30  27371641.40723  -6125171.22323      -344.26223        19.60023                                                                
> 2025 10 05 08 49 59.0000285  0 34                      
G07  22191490.65127   -164447.14427      1809.66127        42.30027                                                                
G09  20963799.46426    -60691.53526       443.24726        38.40026  20963784.77425   -876561.80925       328.86325        33.50025
G01  23674699.44725    280192.88525     -4073.95425        33.00025  23674611.00823   2291217.13523     -3042.24823        22.10023
G04  21154426.99525     83849.72825     -1479.48725        32.20025                                                                
G06  22632397.81726    -63829.12226       464.76426        40.40026  22632305.78105   2035011.55205       350.73505        32.20005
G03  20841235.91324    -63887.50324     -2115.05524        29.10024  20841193.04223  -4874369.76723     -1589.08123        19.20023
G26  24078675.48024   -199840.78024     -2010.14024        27.00024                                                                
G11  25311861.56323  -6232738.98023      2314.34623        20.80023                                                                
G16  22900497.41625   -119605.39125       699.39325        31.00025                                                                
R15  20987944.44808 112155659.14808      2895.33308        47.90008
C21  22445414.26306    -29726.92706        31.39606        40.90006  22445417.86125   2060165.46525        21.91025        32.30025
R14  20454925.45016 109038704.17216      -787.78816        41.00016
E29  23816557.94026     13961.66026      -802.74126        40.00026  23816562.43725   2077681.50725      -599.93925        31.10025
C22  23660447.01316    120464.80416     -1958.35416        35.80016  23660428.72624   2165802.20824     -1477.10924        28.50024
E33  24092481.52225  -7235359.45125     -1200.37325        33.00025  24092501.60825  -4675840.37625      -902.09825        31.50025
R19  22175435.86515 118626079.15815     -4081.58615        32.60015
C13  40179692.87726     56154.19426     -1234.41026        38.60026                                                                
E26  25487718.02015  -5760669.58115     -3317.98515        33.00015  25487745.00124  -2709159.66224     -2482.46224        26.60024
R03  23068118.87425 123487897.96025     -2508.37925        32.50025
E21  28123696.57025  -4996353.27425      2083.62725        31.50025  28123736.14306  -3738028.98706      1557.84206        40.50006
C26  23915280.19625   -213315.26925      2479.87525        32.10025  23915275.10024  -4971254.26024      1870.06324        24.70024
R04  20558701.60725 110093366.09225      -941.31525        32.10025
C34  24997322.91325    162279.49925     -2509.82725        29.80025                                                                
R05  21225689.76124 113465924.33324      1067.10524        29.10024
C36  24890089.55024    169149.52524     -2741.94324        28.90024                                                                
R20  21540454.75324 115188940.32524     -1060.29924        27.00024
E19  24727076.20125  -6004356.59125       684.59325        31.20025                                                                
C06  38373175.90324     68578.93624     -1260.58624        26.50024                                                                
E27  26646943.50524  -1896265.45324      1492.59124        25.70024                                                                
R21  23820803.90124 127472383.74424      1823.58524        25.20024
E12  26671685.97624  -7057308.42824      1455.71924        28.70024                                                                
C16  39770700.41724     74471.76924     -1330.89524        25.30024                                                                
R13  23991716.18123 128116870.65123     -4093.99123        20.00023
E30  27371704.96323  -6124818.81623      -354.93323        19.80023                                                                
> 2025 10 05 08 50 00.0000288  0 34                      
G07  22191137.49517   -166265.05117      1820.20417        41.80017                                                                
G09  20963715.82226    -61139.88526       450.34926        38.20026  20963700.53225   -876890.18725       327.36825        33.40025
G01  23675500.79225    284266.84225     -4074.96725        33.10025  23675386.57123   2294260.59423     -3044.96823        21.90023
G04  21154699.80625     85322.44325     -1471.92925        32.00025                                                                
G16  22900377.19925   -120307.24125       701.79725        30.90025                                                                
G03  20841626.84224    -61775.28424     -2112.18924        28.90024  20841597.76223  -4872784.50523     -1586.30523        19.20023
G26  24079057.41524   -197831.58324     -2009.94524        27.30024                                                                
G11  25311438.25623  -6235052.51223      2312.41823        20.70023                                                                
G06  22632302.78326    -64300.46226       472.94626        39.60026  22632214.04405   2034659.06905       352.62705        31.70005
R15  20987404.22208 112152779.68508      2898.64308        48.60008
C21  22445412.46416    -29763.43316        38.09616        40.80016  22445410.96525   2060137.81025        29.26325        32.10025
R14  20455075.64606 109039511.88206      -785.36806        40.80006
E29  23816703.04026     14758.17126      -794.41626        39.90026  23816714.13225   2078278.54425      -596.38725        31.00025
E33  24092706.66625  -7234159.12325     -1200.32825        34.40025  24092728.25116  -4674944.77516      -895.09416        39.60016
C22  23660834.34526    122421.07426     -1956.07526        35.80026  23660815.15924   2167280.47324     -1479.67524        28.20024
E21  28123316.73325  -4998443.00825      2090.49825        32.70025  28123336.81906  -3739589.14106      1560.65906        40.00006
R03  23068629.42025 123490639.23925     -2506.86125        32.50025
C13  40179917.12226     57380.14726     -1223.97526        37.70026                                                                
E26  25488364.97225  -5757354.12625     -3315.06525        32.90025  25488368.57024  -2706678.87624     -2480.83424        26.20024
R04  20558884.18125 110094351.42925      -937.41725        32.00025
R19  22176226.71825 118630316.39425     -4089.84025        32.50025
C26  23914810.12125   -215795.18525      2479.73825        32.10025  23914799.62924  -4973118.70724      1859.31224        26.20024
C34  24997789.39125    164786.78525     -2507.06525        29.80025                                                                
R05  21225492.79724 113464878.76424      1067.99024        29.00024
C36  24890612.08824    171892.56424     -2745.02924        28.70024  24890608.79023  -5090326.47923     -2066.51423        19.70023
C06  38373409.74124     69835.50624     -1255.88324        26.90024                                                                
R20  21540659.51224 115190043.64124     -1048.05824        27.10024
E19  24726939.79625  -6005044.92525       688.79525        30.50025                                                                
E27  26646672.79224  -1897760.03024      1495.07324        25.60024                                                                
R21  23820474.12924 127470626.54024      1815.33024        25.10024
E12  26671426.65624  -7058766.69924      1457.88624        28.10024                                                                
C16  39770974.12824     75805.61624     -1336.21724        25.10024                                                                
R13  23992495.34123 128121039.33223     -4091.54323        20.10023
E30  27371837.47123  -6124464.22223      -355.68723        19.90023                                                                
> 2025 10 05 08 50 01.0000292  0 34                      
G07  22190806.82426   -168090.06626      1828.56726        41.30026                                                                
G09  20963626.48326    -61590.57926       451.86526        38.10026  20963628.88225   -877220.88225       331.85325        33.10025
G16  22900246.18925   -121016.93325       713.61225        30.80025                                                                
G26  24079436.35324   -195830.87924     -1996.45724        27.70024                                                                
G03  20842054.64624    -59670.95624     -2100.38124        28.80024  20842031.56223  -4871207.59723     -1572.73023        19.30023
G30  24760761.78123  -7355950.15323      2838.54023        22.90023                                                                
G11  25310994.86323  -6237370.16823      2319.71723        20.60023                                                                
G06  22632225.73616    -64777.52016       479.91716        39.50016  22632133.10005   2034302.00005       359.36205        31.10005
G01  23676270.95925    288330.49425     -4058.49925        33.50025  23676172.62723   2297305.39523     -3045.47123        21.80023
G04  21155008.89225     86790.62025     -1465.90625        31.80025                                                                
R15  20986862.79708 112149834.46808      2906.85808        48.50008
C21  22445411.56516    -29805.05916        44.18516        40.70016  22445413.06425   2060106.76725        32.73825        32.00025
E33  24092948.89916  -7232965.81616     -1189.79516        38.50016  24092964.18806  -4674053.56406      -889.01606        39.40006
R14  20455232.73706 109040296.71306      -776.97206        40.60006
E29  23816897.00526     15547.06826      -785.83926        39.80026  23816871.52325   2078869.61725      -588.09025        30.80025
C06  38373656.47015     71088.31315     -1250.92615        34.70015                                                                
C22  23661200.69216    124370.23216     -1945.60116        36.40016  23661197.99324   2168749.19224     -1463.94424        28.20024
E21  28122924.00515  -5000538.49415      2098.61015        32.90015  28122948.28806  -3741153.97606      1567.17506        39.90006
E26  25489003.53025  -5754044.77225     -3306.30225        32.80025  25489002.03124  -2704204.17924     -2471.65224        26.10024
C13  40180194.73026     58601.48126     -1219.02426        36.80026                                                                
R19  22176972.00225 118634250.53625     -4065.27125        32.40025
R04  20559051.16525 110095191.95325      -925.74725        32.00025
C26  23914345.44325   -218282.53425      2491.06525        32.00025  23914330.15424  -4974990.77124      1875.87324        25.60024
C34  24998253.16925    167284.29125     -2492.61625        29.70025  24998292.74223  -5089474.68123     -1882.59823        19.50023
R05  21225277.24624 113463674.10724      1085.81624        29.00024
R20  21540841.48624 115190963.33024     -1044.26024        27.10024
E27  26646537.28624  -7439006.11124      1501.54124        25.40024                                                                
E19  24726833.07025  -6005739.73525       698.04825        29.90025                                                                
E12  26671189.22024  -7060230.74424      1466.93224        27.50024                                                                
R21  23820129.06824 127468728.44424      1828.29324        25.00024
C16  39771251.13624     77134.53324     -1326.45324        25.00024                                                                
R13  23993338.05823 128125486.89623     -4081.35023        20.10023
E30  27371922.31223  -6124110.82123      -352.80323        22.80023                                                                
C36  24891171.50124    174627.98124     -2731.60524        28.60024                                                                
> 2025 10 05 08 50 02.0000295  0 35                      
G06  22632135.79806    -65260.30506       485.64906        39.40006  22632039.26505   2033941.46205       362.27205        30.40005
G07  22190453.36916   -169919.76616      1832.04316        41.00016                                                                
G09  20963532.94826    -62046.99426       459.27626        37.90026  20963537.74525   -877563.26425       348.22625        32.80025
G01  23677043.82415    292388.75415     -4055.56315        33.50015  23676940.39523   2300346.20723     -3038.81723        21.60023
G16  22900130.47025   -121731.23225       716.60325        30.70025                                                                
G26  24079818.88824   -193835.09424     -1993.32524        28.10024                                                                
G03  20842444.67624    -57572.84924     -2094.99724        28.60024  20842403.30423  -4869649.57923     -1548.57323        19.30023
G30  24760197.57223  -7358790.44923      2840.29523        23.20023                                                                
G11  25310544.87423  -6239694.11823      2327.09623        20.50023                                                                
G04  21155278.40625     88253.33925     -1459.98925        31.60025                                                                
R15  20986323.17108 112146958.82708      2912.10708        48.40008
E33  24093177.34006  -7231777.82906     -1185.32706        40.90006  24093184.53506  -4673166.30406      -885.28406        38.80006
C21  22445399.57306    -29851.46006        48.78906        40.80006  22445401.97225   2060072.10125        36.47725        32.00025
R14  20455377.53706 109041076.96906      -772.90706        40.50006
C06  38373895.40506     72335.34206     -1244.14006        39.30006                                                                
E29  23817018.12126     16329.82926      -779.44326        39.70026  23817020.22025   2079457.14525      -585.75525        30.40025
C22  23661572.43416    126314.55616     -1941.90616        37.60016  23661565.83924   2170212.83524     -1461.10624        27.60024
R19  22177695.40115 118638128.03715     -4063.74915        32.40015
E21  28122543.26825  -5002640.67725      2105.53225        32.90025  28122546.86606  -3742723.00306      1571.12306        39.30006
R03  23069606.44425 123495823.85325     -2499.27425        32.70025
R04  20559220.24825 110096106.03525      -926.28625        32.10025
C26  23913850.78615   -220775.35815      2495.56015        32.00015  23913848.38724  -4976871.75424      1885.44224        25.10024
E26  25489610.61025  -5750736.17725     -3308.21525        32.70025  25489633.39424  -2701738.51924     -2461.14024        25.70024
C13  40180416.27726     59818.02026     -1214.14026        36.10026                                                                
C34  24998735.53625    169775.82825     -2488.55125        29.70025  24998684.27123  -5087584.47723     -1890.20423        19.40023
R05  21225132.74624 113462910.01024      1081.78124        28.90024
C36  24891717.42324    177356.10024     -2724.46924        28.50024  24891915.58524  -3506555.92024     -2047.92024        26.10024
R20  21541051.94024 115192096.48724     -1041.87524        27.20024
E19  24726705.95824  -6006441.11724       704.66824        29.30024                                                                
E12  26670898.42124  -7061699.53724      1471.16624        27.20024  26670765.31323  -5280685.05923      1096.10723        20.00023
C16  39771473.28224     78454.90824     -1316.10324        24.90024                                                                
E27  26646218.60724  -7440508.98724      1502.87624        25.30024                                                                
E30  27371983.77024  -6123757.60124      -353.13024        25.70024                                                                
R21  23819772.31524 127466826.52524      1829.37924        24.90024
R13  23994113.32123 128129635.71223     -4078.46423        20.10023
