     4.01           OBSERVATION DATA    M                   RINEX VERSION / TYPE
GnssLogger          samsung 15          20251005 091054 UTC PGM / RUN BY / DATE
Google GnssLogger                                           MARKER NAME
Unknown                                                     MARKER NUMBER
Unknown             Unknown                                 OBSERVER / AGENCY
Unknown             GnssLogger          v3.1.1.1            REC # / TYPE / VERS
Unknown             Unknown                                 ANT # / TYPE
        0.0000        0.0000        0.0000                  ANTENNA: DELTA H/E/N
G    8 C1C L1C D1C S1C C5Q L5Q D5Q S5Q                      SYS / # / OBS TYPES
R    4 C1C L1C D1C S1C                                      SYS / # / OBS TYPES
C    8 C2I L2I D2I S2I C5P L5P D5P S5P                      SYS / # / OBS TYPES
E    8 C1C L1C D1C S1C C5Q L5Q D5Q S5Q                      SYS / # / OBS TYPES
  2025    10    05    09    10   54.0000000     GPS         TIME OF FIRST OBS
 9 R03  5 R04  6 R05  1 R14 -7 R15  0 R16 -1 R19  3 R20  2  GLONASS SLOT / FRQ #
   R21  4                                                   GLONASS SLOT / FRQ #
samsung SM-S711B (Android 15) HW Year: 2021 HW Model:       COMMENT
S.LSI,K040,SPOTNAV_4.6.2_7_E23                              COMMENT
                                                            END OF HEADER
> 2025 10 05 09 10 54.0000000  0 33                      
G07  21687803.94607   -886177.95207      1249.88007        42.00007                                                                
G03  21284649.04407    327112.69607     -2744.77107        41.80007  21284654.44007    236366.26607     -2049.59207        44.10007
G16  22691892.23006    -46228.71006      -121.80006        40.70006                                                                
G06  22486485.83005    -16783.63405      -395.72905        34.30005  22486483.43125    -20202.52725      -295.64925        29.50025
G30  23984013.91325 -11067273.76125      2535.14125        30.00025  23984000.42224  -7838248.10624      1893.91924        28.00024
G01  24521545.68724 -11023097.21924     -4135.22124        28.40024  24521566.07324  -9543571.85024     -3091.81024        27.90024
G09  20756471.99325    -79747.74625       148.18825        30.90025  20756409.63725  -6422118.26625       110.61525        30.90025
G11  24692078.43024   -497980.04624      1721.70224        27.20024                                                                
G26  24512504.24624 -13306261.17024     -2748.80824        27.10024                                                                
G04  21399807.72125 -13408773.90825     -1716.88725        29.80025  21399817.91405  -7438258.42005     -1287.51505        32.60005
E29  23890758.07207     69467.84207      -966.23307        45.00007  23890754.17506   2134044.91006      -721.24306        41.10006
C21  22332080.42207    -53023.10307      -241.06007        46.20007  22332082.82107   2034956.62507      -182.00807        42.40007
E33  24321072.07206 -13398107.14106     -1852.27606        38.80006  24321103.55025   2217320.87925     -1379.45925        34.00025
R05  20855131.59305 111545400.38705       917.82805        35.30005
R04  20675006.39115 110776601.34915     -1230.46615        33.70015
R14  20640980.84625 110090637.37425     -1946.30325        34.90025
R15  20262743.19525 108340704.19025      2079.61125        33.20025
R19  23036549.82825 123292821.72825     -4377.69825        33.00025
E30  27394895.70825 -13312604.83325      -978.18125        31.50025  27394914.59524  -9709535.55624      -736.06024        25.40024
C09  38035675.25025  -2840710.72625     -1099.44925        31.30025                                                                
C26  23229201.55825   -379461.02225      2059.43025        30.60025  23229196.16224 -10076818.39624      1551.52724        24.30024
R16  23705425.17624 126692852.30824      3887.89624        29.10024
E12  26251844.92624 -13586528.91524       902.11324        27.00024  26251711.81824  -8238460.23124       675.29024        23.50024
E21  27479682.11224 -13587534.62524      2149.71224        27.40024  27479962.11825 -10154003.98525      1601.85425        31.00025
E26  26176391.36124 -13582924.70924     -3575.14024        27.50024  26176433.63224  -9323999.02124     -2670.66324        24.20024
C13  40366271.41224     70235.84324     -1449.45524        28.40024                                                                
C34  25495854.98725    243050.33625     -2744.77125        33.50025  25495897.55725  -7209047.71425     -2063.53125        31.00025
E19  24449537.03824 -13452063.54124       498.73424        25.70024                                                                
R21  23370360.03624 125122352.98624       837.03924        25.10024
C14  26322606.43924 -10479741.08824      1809.38524        23.50024                                                                
R03  23547102.68023 126112342.52923     -2762.85723        23.00023
E27  26198852.71223 -10875930.06823      1101.88623        21.40023                                                                
E07  26547150.99024  -8866675.82324     -2249.17524        26.70024  26546924.04723  -9695840.93523     -1647.86223        20.80023
> 2025 10 05 09 10 55.0000005  0 33                      
G03  21285191.66807    329856.63507     -2745.21907        41.80007  21285198.56407    238415.24507     -2049.92807        43.40007
G07  21687584.49807   -887427.86507      1249.03407        42.00007                                                                
G16  22691930.90306    -46107.16406      -123.10606        40.70006                                                                
G30  23983578.31425 -11069805.86125      2529.58725        33.00025  23983540.84024  -7840139.58724      1889.37824        28.40024
G06  22486597.35325    -16387.92025      -397.35825        34.10025  22486582.36324    -19902.06524      -304.53224        29.00024
G09  20756378.75825    -79895.74025       147.74125        30.50025  20756403.34125  -6422228.08725       108.32725        30.50025
G01  24522364.72024 -11018960.41624     -4138.01924        28.50024  24522376.11224  -9540479.96624     -3092.99924        27.40024
G11  24691763.64824   -499701.29824      1719.57724        27.50024                                                                
G26  24512988.11124 -13303505.71724     -2759.13724        27.00024                                                                
G04  21400162.97525 -13407051.20225     -1726.18825        29.70025  21400166.87305  -7436971.51005     -1287.81605        32.40005
E29  23890965.22907     70433.29907      -966.65407        45.30007  23890960.73206   2134765.96906      -722.12106        40.50006
C21  22332150.27427    -52781.05327      -244.08027        45.90027  22332151.77307   2035138.16207      -182.53807        42.10007
R04  20675242.32806 110777748.35506     -1231.10306        35.80006
E33  24321448.31216 -13396255.67416     -1853.40016        38.70016  24321477.39225   2218703.28325     -1384.23625        33.20025
R05  20854961.31106 111544375.47006       917.88906        35.90006
R14  20641365.78025 110092573.90225     -1950.50425        34.80025
R15  20262378.34725 108338639.02025      2072.65225        33.20025
R19  23037385.35025 123297176.83625     -4377.49325        33.00025
E30  27395104.66425 -13311624.85425      -981.94225        31.60025  27395247.66524  -9708792.53524      -748.43424        25.10024
C09  38035922.27925  -2839609.77225     -1103.26525        31.30025                                                                
C26  23228800.43625   -381519.64925      2056.80725        30.60025                                                                
R16  23704723.06224 126688986.34324      3893.05724        29.30024
C34  25496447.37725    245797.28525     -2749.08725        32.80025  25496448.87625  -7206978.17725     -2072.78225        30.70025
E26  26177080.88424 -13579351.18724     -3573.52024        28.50024  26177129.45024  -9321330.74324     -2668.61524        24.00024
C13  40366560.41224     71686.58024     -1451.77424        28.40024                                                                
E12  26251648.86224 -13587428.23124       899.31624        27.10024  26251562.52123  -8239132.92323       672.42423        23.40023
E21  27479317.86424 -13589682.61224      2147.98624        27.10024  27479573.58725 -10155604.63325      1600.64825        31.40025
R20  21780267.13524 116531553.74024     -2124.46524        24.90024
R21  23370261.40524 125121709.82424       830.38824        25.50024
E19  24449451.89724 -13452557.55724       491.65724        25.70024                                                                
C14  26322251.78423 -10481549.24323      1807.80523        23.40023                                                                
R03  23547672.58523 126115277.58723     -2758.84523        22.90023
E27  26198639.85923 -10877035.54223      1107.18123        21.40023                                                                
> 2025 10 05 09 10 56.0000008  0 33                      
G03  21285671.33627    332594.97327     -2735.53627        41.80027  21285700.41607    240460.38507     -2043.22007        42.90007
G07  21687296.69727   -888684.30827      1258.70927        41.90027                                                                
G16  22691942.59506    -45991.05006      -113.39806        40.80006                                                                
G30  23983061.47226 -11072344.43726      2541.81326        36.40026  23983037.18925  -7842034.98325      1897.35225        32.00025
G06  22486679.49625    -15995.85825      -390.23625        34.00025  22486640.22324    -19603.93724      -296.96124        28.60024
G04  21400469.06425 -13405334.18325     -1714.17425        30.10025  21400469.36325  -7435688.21025     -1281.49525        31.30025
G01  24523169.36324 -11014829.73024     -4127.62724        28.60024  24523140.58324  -9537391.91124     -3086.13924        27.00024
G11  24691419.18624   -501428.41224      1730.04624        27.80024                                                                
G26  24513444.99524 -13300753.72524     -2750.26124        27.00024                                                                
G09  20756331.09125    -80049.09525       156.03625        30.30025  20756352.67625  -6422342.05925       116.04725        29.90025
E29  23891125.91807     71393.04507      -956.88907        45.50007  23891125.31806   2135482.61006      -714.43206        40.00006
C21  22332167.66217    -52545.85317      -231.77417        45.70017  22332176.95607   2035315.45507      -175.17107        41.80007
R04  20675453.68107 110778986.54307     -1221.42907        42.20007
E33  24321786.77726 -13394408.01626     -1845.50226        38.50026  24321801.76725   2220081.32425     -1375.85925        32.80025
R05  20854762.84806 111543420.15606       927.23906        36.20006
C13  40366789.75325     73135.36425     -1447.80725        31.00025                                                                
R14  20641722.83315 110094582.89115     -1941.40015        34.70015
R15  20262010.80225 108336780.29025      2085.43925        33.20025
R19  23038141.72625 123301328.34825     -4373.87925        32.90025
E30  27395283.64025 -13310650.15325      -972.06225        31.90025  27395409.85224  -9708056.26924      -732.88924        24.70024
C09  38036094.36025  -2838516.20325     -1089.87625        31.30025                                                                
R16  23704001.76125 126685238.83925      3901.72425        29.80025
E26  26177747.62224 -13575785.12824     -3562.32824        29.30024  26177770.10724  -9318668.65024     -2658.99924        23.80024
C34  25496942.93425    248536.26425     -2734.99325        32.20025  25496953.42625  -7204914.29925     -2061.04725        30.30025
E12  26251404.83124 -13588334.58424       909.87224        27.90024  26251367.05723  -8239813.01123       683.78523        23.20023
E21  27478897.55524 -13591836.03524      2156.14124        27.10024  27479143.38525 -10157215.50825      1615.98725        31.40025
R21  23370085.12724 125120872.95124       839.94124        26.00024
E19  24449266.32524 -13453052.41524       495.27924        25.60024                                                                
R03  23548170.24123 126118047.96723     -2742.66523        22.90023
E07  26547755.67124 -13746861.76524     -2235.91924        23.60024                                                                
C14  26321878.24323 -10483364.32723      1818.54923        23.30023                                                                
R20  21780665.85924 116533790.21224     -2120.58624        24.60024
E27  26198396.12823 -10878144.58923      1110.83323        21.40023                                                                
> 2025 10 05 09 10 57.0000011  0 34                      
G03  21286207.36517    335324.71317     -2725.44117        41.80017  21286218.45807    242498.61907     -2034.78207        42.40007
G07  21687068.85517   -889948.58017      1268.43417        41.90017                                                                
G16  22691964.18006    -45884.07306      -102.40806        40.90006                                                                
G30  23982569.51316 -11074890.44016      2549.71616        36.10016  23982551.52515  -7843937.08715      1905.45815        31.60015
G06  22486707.37615    -15614.65815      -375.76915        33.80015  22486710.37424    -19314.70724      -284.78124        28.10024
G09  20756307.40725    -80212.73025       168.77425        30.60025  20756318.50025  -6422463.95725       125.86125        29.50025
G11  24691091.81324   -503163.67524      1739.33624        27.90024                                                                
G26  24513959.13924 -13298017.78724     -2727.91224        26.90024                                                                
G04  21400794.63826 -13403626.34526     -1703.24826        38.20026  21400797.93625  -7434414.24725     -1269.29525        31.10025
E29  23891310.89007     72343.41807      -945.68707        45.50007  23891306.69306   2136192.23906      -706.12306        39.60006
C21  22332209.93307    -52319.63007      -221.73607        45.50007  22332218.62707   2035485.79407      -166.86207        41.60007
R04  20675680.92407 110780213.22907     -1210.14307        42.30007
E33  24322131.53926 -13392570.32226     -1832.71226        38.20026  24322155.82225   2221453.39425     -1369.08425        32.70025
R05  20854580.27406 111542453.36106       938.93006        36.50006
R14  20642063.09705 110096405.76805     -1929.56805        34.70005
C13  40366985.81725     74574.57525     -1434.42425        35.40025                                                                
R15  20261597.08815 108334579.01415      2095.80915        33.10015
E30  27395452.42325 -13309684.60825      -960.96625        32.30025  27395589.72824  -9707336.33724      -711.76424        24.40024
R19  23039001.83125 123305938.32525     -4353.58325        32.70025
C09  38036294.02225  -2837432.10225     -1079.36825        31.30025                                                                
R16  23703297.24925 126681485.21925      3914.93625        30.10025
E26  26178434.74725 -13572228.98725     -3551.18025        29.90025  26178434.44724  -9316017.76924     -2645.27424        23.70024
C26  23228008.98425   -385660.94025      2082.09425        29.60025                                                                
E12  26251180.88624 -13589254.62024       926.87624        29.00024                                                                
C34  25497464.87225    251264.25125     -2722.49025        31.60025  25497477.46425  -7202852.95425     -2060.07725        29.90025
E07  26548268.91624 -13912157.56524     -2226.80524        24.60024                                                                
R20  21781000.42724 116535589.78724     -2106.67224        24.50024
R21  23369940.32724 125120108.04424       852.33924        26.30024
E21  27478505.42724 -13594001.28324      2171.15924        27.00024  27478731.47025 -10158830.38825      1616.88425        31.40025
E19  24449158.40024 -13453558.27024       511.35424        25.40024                                                                
C14  26321545.77323 -10485191.18923      1832.74923        23.30023                                                                
R03  23548670.29523 126120734.08623     -2724.70223        22.90023
E27  26198231.24223 -10879263.48623      1123.82223        21.80023                                                                
G01                                                                  24523921.84224  -9534315.21124     -3071.02324        26.50024
> 2025 10 05 09 10 58.0000015  0 33                      
G03  21286734.40007    338045.99607     -2717.05307        42.20007  21286745.19307    244530.86607     -2029.25207        41.90007
G07  21686843.71107   -891220.31307      1275.46507        41.80007                                                                
G16  22691999.25606    -45784.95406       -95.19006        40.90006                                                                
G30  23982089.24526 -11077441.80626      2554.04626        35.80026  23982077.25315  -7845844.24515      1909.68415        31.20015
G06  22486850.67705    -15240.76505      -370.23805        33.80005  22486790.11924    -19037.27824      -271.52924        27.60024
G11  24690776.43124   -504904.44424      1743.52124        27.90024                                                                
G26  24514457.39424 -13295294.75624     -2716.57524        26.80024                                                                
G04  21401127.40816 -13401925.50016     -1697.34616        40.60016  21401130.40625  -7433144.47625     -1267.67325        31.00025
G01  24524704.60024 -11006604.00924     -4111.16024        28.40024  24524711.79524  -9531250.14324     -3059.24924        26.10024
G09  20756309.20625    -80381.92725       171.97825        31.40025  20756296.01524  -6422592.33424       131.61724        29.20024
E29  23891489.86617     73286.41317      -938.55517        45.50017  23891489.86606   2136895.85806      -700.61406        39.30006
C21  22332265.99407    -52101.80007      -213.63207        45.50007  22332270.19106   2035649.98506      -161.11706        40.70006
R04  20675907.56707 110781372.49707     -1202.65907        42.20007
R05  20854420.18506 111541543.17406       946.93806        36.80006
E33  24322528.46426 -13390739.41226     -1827.51726        38.00026  24322509.57725   2222823.39625     -1368.96725        32.20025
R14  20642476.51125 110098554.33325     -1922.94225        34.90025
C13  40367251.43325     76002.62525     -1422.46925        35.30025                                                                
R15  20261216.35215 108332490.90615      2102.33515        33.20015
E30  27395643.99025 -13308723.83325      -958.39025        32.30025                                                                
R19  23039836.45325 123310348.54425     -4352.97025        32.60025
C09  38036502.37725  -2836354.12625     -1074.91225        31.50025                                                                
E12  26251185.98224 -13981070.18724       930.98524        29.00024                                                                
C26  23227587.47625   -387744.19325      2083.25225        29.90025                                                                
R16  23702583.74325 126677620.01025      3921.41825        30.10025
E26  26179170.43725 -13568679.07325     -3546.80025        29.90025  26179156.34724  -9313368.37024     -2648.65724        23.60024
C34  25497995.50525    253986.07725     -2718.74525        31.10025  25498008.99625  -7200799.48325     -2049.53325        29.50025
R20  21781423.73424 116537799.48024     -2097.09724        27.00024
R21  23369773.94224 125119163.21224       854.33024        26.50024
E19  24449072.65924 -13454078.62224       527.60024        25.30024                                                                
E07  26548725.80024 -13909935.78424     -2221.78024        24.50024                                                                
R03  23549113.68823 126123052.56823     -2712.87623        22.90023
C14  26321194.71623 -10487025.13023      1837.48123        23.20023                                                                
E27  26198061.85923 -10880384.97823      1122.78923        22.20023                                                                
> 2025 10 05 09 10 59.0000018  0 33                      
G03  21287251.84207    340759.66007     -2709.85507        42.50007  21287259.03706    246557.15706     -2023.31206        41.40006
G07  21686612.87007   -892499.76107      1283.30407        41.70007                                                                
G16  22692014.84506    -45693.98206       -86.89806        40.80006                                                                
G06  22486937.61715    -14875.04515      -361.63415        33.70015  22486863.26824    -18762.00724      -274.19224        27.00024
G09  20756292.71825    -80560.40525       183.11825        31.80025  20756263.93724  -6422723.16224       132.05324        28.90024
G01  24525507.14524 -11002496.70724     -4107.30124        28.40024  24525493.95424  -9528185.11724     -3065.00524        25.70024
G26  24514983.23024 -13292581.95324     -2707.68924        26.70024                                                                
G04  21401429.89826 -13400233.19526     -1688.03526        40.50026  21401452.38325  -7431882.16225     -1258.58525        31.00025
G11  24690454.45424   -506657.05724      1758.53524        27.90024  24690443.66223 -10082835.26823      1325.82223        20.40023
G30  23981637.75825 -11080000.95625      2563.04125        35.30025  23981591.29025  -7847758.38025      1917.62425        30.80025
C21  22332306.46607    -51890.60507      -207.87707        46.20007  22332310.36306   2035808.71006      -155.99206        40.60006
E29  23891664.94507     74221.19207      -930.92107        45.70007  23891666.74306   2137593.94006      -695.31206        38.80006
R05  20854216.02726 111540461.64926       956.99226        36.90026
E33  24322877.42216 -13388914.98316     -1820.43916        37.80016  24322854.93825   2224186.00025     -1358.90525        31.50025
R04  20676144.40327 110782649.75327     -1193.56627        41.60027
R14  20642821.87225 110100405.43125     -1914.24525        35.10025
R15  20260791.54605 108330229.99205      2110.99505        33.20005
C13  40367505.95725     77420.49725     -1412.78225        35.00025                                                                
E30  27395823.56625 -13307774.11225      -944.19225        32.20025                                                                
C09  38036711.63225  -2835284.86925     -1064.89825        31.90025                                                                
C26  23227185.15425   -389835.24325      2094.94825        30.40025                                                                
E26  26179812.29325 -13565137.04325     -3538.08725        30.00025  26179805.69824  -9310720.98424     -2646.38024        23.50024
C34  25498519.84225    256699.74325     -2709.58525        30.90025  25498527.03724  -7198752.95624     -2043.05524        28.60024
E12  26251004.00825 -13982002.80625       932.61925        29.70025  26250856.81024 -10448668.63024       700.41024        28.40024
R16  23701881.92925 126673880.15225      3924.62925        30.00025
R20  21781822.75824 116539942.60124     -2092.23424        27.20024
R21  23369603.36024 125118258.95224       868.63824        26.70024
E21  27477635.12924 -14078292.44024      2178.13424        24.00024  27477915.73525 -10520411.78625      1628.37425        32.00025
E07  26549125.12324 -13907721.78124     -2210.11324        25.00024                                                                
E19  24448936.85324 -13454610.50724       537.65124        25.20024                                                                
C14  26320831.96723 -10488863.95523      1841.26523        23.20023                                                                
R03  23549630.23023 126125828.30523     -2704.83923        22.90023
E27  26197796.54323 -10881508.32123      1124.26823        22.30023                                                                
> 2025 10 05 09 11 00.0000022  0 33                      
G03  21287777.97807    343469.59507     -2708.06907        43.10007  21287785.77306    248581.02706     -2022.65806        41.10006
G07  21686371.23817   -893781.22417      1282.47017        41.60017                                                                
G16  22692044.22506    -45606.90106       -85.13606        40.80006                                                                
G04  21401777.65826 -13398543.76726     -1687.99026        40.30026  21401783.35425  -7430624.79925     -1254.88825        31.00025
G06  22486995.47725    -14512.60425      -360.80225        33.60025  22486944.81224    -18498.38324      -257.79924        26.50024
G09  20756246.25025    -80742.06825       183.25625        32.30025  20756240.25424  -6422856.75724       134.98024        28.60024
G30  23981153.29325 -11082567.87925      2570.80925        34.20025  23981112.82125  -7849676.22025      1919.69125        30.10025
G11  24690139.67224   -508415.36024      1761.14724        27.80024  24690126.18123 -10084151.70323      1316.43423        20.60023
C21  22332356.53107    -51683.21507      -205.48807        46.60007  22332358.93006   2035964.91206      -154.94006        40.40006
E29  23891866.70507     75152.80107      -930.02307        45.70007  23891855.31306   2138289.34906      -694.07306        38.30006
R05  20854074.22516 111539649.36616       954.94316        36.90016
E33  24323204.79606 -13387093.70106     -1820.70706        37.60006  24323221.28425   2225544.88925     -1357.03225        31.40025
R14  20643179.82416 110102259.59016     -1914.78416        35.60016
R04  20676362.05226 110783760.75126     -1194.31626        40.70026
C13  40367785.96325     78838.47025     -1418.02325        34.70025                                                                
R15  20260429.09705 108328238.22605      2110.82005        33.40005
E30  27396017.23225 -13306829.32225      -942.32525        32.20025                                                                
C09  38036926.58425  -2834217.28825     -1066.74225        31.90025                                                                
C26  23226804.71825   -391929.08225      2095.23325        31.00025                                                                
R19  23041541.07325 123319423.08325     -4348.29325        31.30025
E12  26250694.32225 -14192539.14325       935.29125        29.50025  26250687.72725 -10449369.04325       700.41425        33.60025
E26  26180512.00925 -13561600.68525     -3533.52125        30.40025  26180525.20023  -9308058.88623     -2669.45223        23.20023
C34  25499048.97625    259409.98925     -2708.53625        30.70025  25499058.86924  -7196706.89024     -2045.83424        28.20024
R16  23701101.56925 126669656.47625      3933.13425        30.00025
R20  21782185.20724 116541826.35024     -2088.52424        27.40024
R21  23369472.35124 125117503.24124       864.40024        26.70024
E07  26549525.04624 -13905508.87924     -2212.35124        26.00024                                                                
E21  27477233.10724 -14080477.00924      2184.56824        24.80024  27477507.71725 -10522043.64925      1631.86325        31.40025
C14  26320484.80823 -10490704.12723      1840.84623        23.10023                                                                
R03  23550139.57823 126128499.12023     -2701.08523        22.80023
E27  26197564.50323 -10882633.01423      1125.36823        22.30023                                                                
E19  24448828.92824 -13455145.66624       536.79624        25.20024                                                                
G01                                                                  24526289.60324  -9525118.43924     -3067.50224        25.30024
> 2025 10 05 09 11 01.0000025  0 34                      
G03  21288272.33607    346179.65407     -2710.11907        43.40007  21288281.33006    250604.72906     -2023.61806        40.40006
G16  22692039.72806    -45519.46106       -86.86906        40.80006                                                                
G07  21686110.71826   -895063.30926      1282.39626        41.40026                                                                
G04  21402074.75226 -13396854.59826     -1689.03826        40.00026  21402079.84825  -7429360.87425     -1267.20625        31.50025
G09  20756184.79215    -80923.26215       180.95915        32.70015  20756187.19124  -6422991.94824       135.98724        28.20024
G30  23980668.82825 -11085135.30725      2567.68125        33.40025  23980600.77624  -7851591.85524      1914.53324        29.00024
G01  24527050.17624 -10994290.06424     -4104.21824        28.20024  24527053.47424  -9522050.58824     -3068.43724        25.00024
G11  24689758.93624   -510165.54324      1746.12324        27.70024  24689770.02823 -10085459.20323      1303.03223        20.60023
G06  22487043.44425    -14152.84325      -358.42025        33.50025  22486987.98224    -18235.33624      -262.75924        26.00024
C21  22332377.81707    -51474.25907      -209.73807        46.60007  22332380.51506   2036121.20506      -156.33906        40.20006
E29  23892016.30117     76082.93417      -930.14517        45.60017  23892012.40416   2138984.75816      -695.40916        37.80016
R05  20853870.96606 111538669.58206       954.91406        37.00006
E33  24323531.27006 -13385270.41506     -1823.28706        37.50006  24323552.55525   2226903.39525     -1358.31325        31.30025
R14  20643509.59626 110104123.66426     -1917.18626        35.70026
R04  20676571.00816 110784987.44516     -1194.65816        39.90016
C13  40368034.79125     80254.46625     -1415.00725        34.60025                                                                
R15  20260000.39415 108326056.07815      2107.40515        33.50015
C26  23226381.71125   -394021.22425      2091.29325        32.00025                                                                
C09  38037112.75525  -2833152.33525     -1063.63925        32.00025                                                                
E12  26250482.66925 -14193474.71125       935.56825        29.90025  26250491.06315 -10450068.00815       698.24015        33.30015
E30  27396155.43625 -13305885.10025      -943.93825        32.10025                                                                
E26  26181133.47825 -13558062.35525     -3539.31425        30.40025  26181152.06623  -9305432.36123     -2608.73723        22.80023
C34  25499561.02125    262121.90325     -2712.74625        30.60025  25499558.92324  -7194658.68924     -2049.26824        27.80024
R16  23700373.37325 126665874.59525      3928.71625        29.90025
C16  39968378.46724 -14148417.15124     -1391.51724        27.30024                                                                
R19  23042286.05725 123323515.66125     -4347.07425        30.50025
R20  21782473.00824 116543472.14724     -2086.31024        27.40024
R21  23369267.59324 125116515.53324       856.49424        26.60024
E07  26549924.67024 -13903292.33424     -2218.36624        26.00024                                                                
E21  27476782.81924 -14082666.89324      2192.54124        25.20024  27477039.74125 -10523703.31225      1673.56325        30.90025
C14  26320117.26223 -10492543.27623      1838.63523        23.20023                                                                
R03  23550673.20823 126131463.29023     -2707.29323        22.80023
E27  26197341.15823 -10883756.97823      1123.59923        22.20023                                                                
E19  24448731.19624 -13455678.38024       531.49124        25.30024                                                                
> 2025 10 05 09 11 02.0000028  0 35                      
G03  21288785.58007    348892.23807     -2713.84607        43.40007  21288796.37306    252630.28106     -2026.47606        40.20006
G16  22692058.31506    -45429.96106       -90.78006        41.10006                                                                
G07  21685875.98026   -896340.78026      1275.16326        41.30026                                                                
G04  21402393.13216 -13395161.76916     -1694.65916        39.80016  21402404.22425  -7428094.42725     -1267.70725        31.40025
G06  22487095.00825    -13785.06025      -371.79425        33.40025  22487048.54014    -17963.82514      -275.74414        25.60014
G09  20756145.22025    -81103.34625       179.52825        32.70025  20756157.51124  -6423122.80124       128.68524        27.80024
G01  24527822.14224 -10990184.34924     -4105.71424        28.20024  24527836.23224  -9518982.02424     -3068.92124        24.60024
G11  24689396.78624   -511907.10024      1737.24224        27.70024  24689441.75523 -10086755.11423      1290.11723        20.50023
C21  22332419.18807    -51263.46307      -211.71607        46.60007  22332421.28606   2036280.58506      -160.92206        40.10006
E29  23892199.17527     77015.41227      -933.40027        44.80027  23892191.08016   2139681.83216      -697.90616        37.50016
R05  20853678.79906 111537650.01806       950.93806        37.20006
E33  24323892.81926 -13383445.50226     -1825.97626        37.30026  24323900.91425   2228266.59425     -1365.54625        30.70025
R04  20676791.65506 110786176.58806     -1196.01406        39.30006
R14  20643860.35326 110106001.45926     -1922.80126        35.70026
C13  40368315.09715     81675.53815     -1423.61015        34.60015                                                                
R15  20259573.18925 108323779.87725      2102.61825        33.50025
C26  23225975.79225   -396110.44125      2087.75425        32.40025  23225987.78323 -10299996.91923      1563.31123        18.90023
C09  38037307.32025  -2832082.27025     -1072.62225        32.00025                                                                
E30  27396325.71825 -13304936.33125      -951.04125        32.10025                                                                
E26  26181799.91725 -13554520.45025     -3543.69125        30.40025  26181812.80823  -9302805.25723     -2627.39323        22.30023
C06  38555575.63025 -14282532.04925     -1340.70025        29.50025                                                                
E12  26250320.78125 -14414009.67825       928.24925        29.60025  26250309.98925 -10450766.51625       698.27925        32.80025
C34  25500069.46925    264840.35025     -2721.71325        30.50025  25500073.96624  -7192606.71924     -2053.85524        27.10024
R16  23699643.07925 126661981.87925      3921.28325        29.80025
C36  25478408.86524 -14291668.08724     -3186.82224        28.40024                                                                
R19  23043179.13925 123328300.15125     -4338.84525        30.30025
C16  39968650.67924 -14147022.46424     -1394.68724        27.20024                                                                
R21  23369050.84324 125115363.19824       864.39224        26.50024
E21  27476418.87124 -14084853.57424      2185.07924        25.60024                                                                
E19  24448634.36324 -13456207.88724       527.90424        25.50024                                                                
C14  26319778.49623 -10494374.28223      1826.93523        23.20023                                                                
R03  23551133.39023 126133934.95923     -2712.64623        22.70023
E27  26197145.09423 -10884874.51323      1114.32023        22.20023                                                                
E07  26550342.28124 -13901071.86624     -2222.42824        25.90024  26550449.30624 -10388453.31524     -1649.83924        24.00024
G30                                                                  23980111.81424  -7853505.63924      1912.85724        28.20024
> 2025 10 05 09 11 03.0000032  0 33                      
G03  21289317.71207    351611.49907     -2722.59807        43.50007  21289323.40806    254660.98606     -2033.28006        39.70006
G16  22692088.29407    -45333.61507       -99.76907        41.50007                                                                
G07  21685649.03826   -897614.04226      1271.15826        41.00026                                                                
G04  21402726.20126 -13393459.72726     -1706.64726        39.50026  21402732.79625  -7426827.14225     -1267.70425        33.00025
G06  22487194.23925    -13407.33125      -382.70325        33.30025  22487134.58124    -17686.40024      -280.38124        25.20024
G09  20756159.31025    -81275.40525       168.04725        33.00025  20756135.92624  -6423249.51924       124.65024        27.40024
G30  23979771.55025 -11090259.77825      2557.28425        30.30025  23979637.84224  -7855409.36024      1898.69024        28.00024
G11  24689083.20324   -513640.52024      1729.35124        27.60024  24689120.07823 -10088047.47923      1290.59123        20.50023
C13  40368591.80506     83100.91506     -1427.52806        36.10006                                                                
C21  22332468.95317    -51045.53917      -221.48917        46.40017  22332474.05006   2036444.44906      -166.10706        39.90006
E29  23892381.14927     77955.82627      -944.38127        44.30027  23892384.14726   2140381.54726      -701.03626        37.20026
R05  20853509.41606 111536691.64806       942.49106        37.30006
R04  20677042.28116 110787465.34516     -1206.32316        38.80016
E33  24324227.68826 -13381611.00526     -1839.28826        37.20026  24324238.18025   2229633.97825     -1369.47725        29.60025
R14  20644246.78526 110108008.92326     -1930.23226        35.60026
R15  20259209.24125 108321781.99625      2093.55225        33.40025
C26  23225580.66525   -398189.10925      2073.39225        32.40025  23225656.81223 -10301555.04323      1555.53023        18.80023
C09  38037533.96325  -2831008.79825     -1075.17425        32.00025                                                                
E30  27396529.87725 -13303979.73725      -960.50625        32.00025                                                                
E26  26182510.12525 -13550968.50825     -3556.96025        30.30025                                                                
C34  25500588.11025    267562.30725     -2723.71225        30.40025  25500611.19424  -7190546.70624     -2064.03224        26.80024
E12  26250124.71725 -14414932.78225       923.60125        29.50025  26250145.40225 -10451454.79125       683.15825        32.00025
R16  23698950.25825 126658227.51025      3917.47025        29.80025
R19  23043972.98925 123332493.76325     -4356.48925        30.10025
R20  21783347.20324 116548102.71224     -2105.48224        27.40024
E21  27476017.14924 -14087031.39624      2173.39124        26.10024                                                                
R21  23368905.44324 125114533.21724       851.19224        26.40024
E07  26550792.26924 -13898844.57524     -2230.70224        25.90024  26550874.71224 -10386798.89924     -1654.41524        24.30024
E19  24448548.02224 -13456730.68424       519.44124        25.50024                                                                
C14  26319422.34323 -10496196.94323      1818.48823        23.10023                                                                
R03  23551570.18723 126136220.51523     -2727.42023        22.70023
E27  26196948.13023 -10885988.21123      1111.78023        22.10023                                                                
G01                                                                  24528630.08324  -9515911.49524     -3071.50924        24.30024
> 2025 10 05 09 11 04.0000036  0 36                      
G03  21289843.54807    354332.08907     -2721.25507        43.90007  21289851.34306    256692.49406     -2031.91006        39.50006
G16  22692111.97807    -45235.43207       -99.10207        41.80007                                                                
G07  21685423.29426   -898887.58826      1273.68726        40.70026                                                                
G09  20756123.33525    -81448.72525       173.95025        33.00025  20756103.24924  -6423376.29524       126.80524        26.90024
G06  22487279.38025    -13033.44325      -371.96725        33.30025  22487216.42424    -17413.15624      -271.15324        24.90024
G30  23979315.56525 -11092818.30425      2558.52525        30.50025  23979165.96924  -7857306.74624      1894.21724        27.70024
G01  24529451.51424 -10981960.49424     -4110.25424        28.10024  24529418.83724  -9512845.61824     -3063.55124        23.90024
G11  24688784.61024   -515376.31324      1736.98024        27.50024  24688796.60223 -10089342.35623      1296.13223        20.60023
G04  21403062.86826 -13391761.17526     -1696.80626        39.30026  21403067.36525  -7425559.44325     -1267.90425        32.80025
C13  40368876.60807     84527.55107     -1427.26607        45.60007                                                                
C21  22332522.01707    -50826.75407      -219.21507        46.30007  22332526.51406   2036609.38906      -165.47906        39.40006
E29  23892565.22117     78896.87217      -940.61317        43.80017  23892565.82126   2141084.42126      -704.45226        36.50026
R05  20853333.43806 111535698.86106       944.21406        37.60006
R04  20677267.72506 110788620.78306     -1206.34006        38.50006
E33  24324591.63626 -13379779.70826     -1829.69726        37.00026  24324605.12625   2231004.05025     -1371.41425        29.50025
R14  20644624.82416 110109972.15016     -1927.40216        35.50016
R15  20258842.89525 108319772.64525      2099.70025        33.40025
C26  23225204.42625   -400270.68725      2083.03325        32.40025  23225279.97322 -10302982.30822      1361.83622        15.80022
C09  38037746.51625  -2829934.17625     -1075.19725        31.90025                                                                
E12  26250138.80725 -14587248.48925       921.08125        30.40025  26249979.61725 -10452144.76925       690.83025        31.50025
E30  27396731.03825 -13303021.83625      -958.55425        32.00025                                                                
E26  26183191.25425 -13547418.48825     -3549.05725        30.30025                                                                
C34  25501173.00525    270282.10725     -2718.72025        30.30025  25501148.42224  -7188483.88124     -2064.23124        26.40024
R16  23698287.11725 126654632.12225      3916.42225        29.70025
C36  25479655.10224 -14413710.44324     -3195.76124        28.50024  25479680.28424 -10869910.06524     -2405.52024        24.30024
R19  23044718.27425 123336428.67025     -4355.72725        29.90025
R20  21783827.47024 116550617.69324     -2101.26224        27.40024
C06  38556123.95124 -14453740.73424     -1340.88224        26.60024                                                                
C16  39969213.98924 -14144227.70124     -1395.08724        27.00024                                                                
E21  27475593.84224 -14089206.16724      2173.24524        26.20024                                                                
E07  26551280.03124 -13896618.84924     -2224.94324        25.90024  26551223.07123 -10385146.51323     -1651.37123        23.40023
E19  24448437.09924 -13457249.00224       516.07924        25.60024                                                                
R21  23368780.73024 125113812.72624       853.23724        26.30024
C14  26319069.18823 -10498020.00723      1823.26523        23.10023                                                                
R03  23552103.51823 126139022.30723     -2732.17023        22.70023
E27  26196752.96523 -10887104.69923      1117.88223        22.10023                                                                
> 2025 10 05 09 11 05.0000039  0 34                      
G03  21290363.08807    357051.11507     -2718.24207        44.20007  21290366.68606    258722.94606     -2029.92206        38.70006
G16  22692120.37207    -45138.77907       -95.88807        42.10007                                                                
G07  21685174.46626   -900161.50526      1274.10226        40.40026                                                                
G09  20756092.15625    -81625.67225       178.76125        33.50025  20756062.77724  -6423504.59224       129.05724        26.90024
G06  22487375.01425    -12659.39625      -374.12625        33.30025  22487285.67624    -17141.56624      -270.76424        24.50024
G01  24530223.77924 -10977854.06424     -4106.42924        28.10024  24530195.59924  -9509784.17624     -3059.22324        23.60024
G11  24688459.03524   -517117.40424      1743.74024        27.40024  24688458.13623 -10090640.81523      1300.25023        20.60023
G30  23978823.30625 -11095379.06125      2561.87325        30.50025  23978670.71224  -7859208.75424      1904.31924        27.40024
G04  21403385.14526 -13390061.15726     -1700.75126        39.10026  21403389.04225  -7424289.54725     -1270.99425        32.60025
C21  22332570.28317    -50609.52817      -216.44517        46.10017  22332566.98606   2036773.33406      -163.44706        38.90006
C13  40369146.42107     85951.91307     -1423.22507        45.40007                                                                
E29  23892740.30007     79836.78507      -939.59507        43.30007  23892741.49925   2141790.43425      -707.58325        35.20025
R05  20853171.55016 111534840.67816       946.01916        37.60016
R04  20677490.77126 110789822.95126     -1201.35426        38.20026
E33  24324946.89026 -13377949.45126     -1829.73626        36.80026  24324945.09124   2232375.45324     -1372.06924        28.80024
R14  20644957.89326 110111754.60526     -1925.97426        35.50026
R15  20258411.49415 108317474.26615      2101.34915        33.30015
C26  23224815.89525   -402358.42625      2090.82025        32.70025  23224972.68622 -10304246.76722      1183.05622        15.60022
C09  38037960.26815  -2828861.38315     -1071.87815        32.40015                                                                
E30  27396887.82925 -13302067.18125      -953.03225        31.90025                                                                
C36  25480271.77525 -14410516.46225     -3193.98025        30.00025  25480291.26124 -10867506.15224     -2403.91124        27.90024
E26  26183863.98825 -13543872.14925     -3544.49825        30.30025                                                                
E12  26249952.33625 -14588172.34525       923.85625        30.30025  26249801.24125 -10452839.85125       697.63325        30.90025
C34  25501694.94425    273000.24825     -2717.31225        30.20025  25501669.76124  -7186425.92324     -2055.52524        26.00024
R19  23045483.34425 123340528.12925     -4344.11325        29.80025
C16  39969476.30724 -14142833.75624     -1393.94424        27.20024                                                                
R20  21784173.43124 116552474.65624     -2104.73824        27.40024
E21  27475159.74324 -14091384.33524      2179.86524        26.80024                                                                
E07  26551705.13724 -13894398.54624     -2217.59224        26.20024  26551645.77823 -10383495.55023     -1650.25223        22.70023
E19  24448338.76724 -13457769.27924       521.25624        25.80024                                                                
R21  23368645.52324 125113096.82124       850.05624        26.20024
R03  23552552.30723 126141433.46023     -2724.80023        23.10023
C14  26318712.43523 -10499846.44023      1828.11723        23.10023                                                                
E27  26196535.31623 -10888226.86423      1125.00323        22.20023                                                                
> 2025 10 05 09 11 06.0000042  0 36                      
G03  21290857.74617    359767.99417     -2715.80617        44.20017  21290864.04206    260751.61306     -2027.77506        38.60006
G16  22692129.36607    -45044.22607       -93.50307        42.20007                                                                
G07  21684900.75616   -901435.84616      1274.55216        40.30016                                                                
G04  21403686.13626 -13388364.48726     -1694.99626        38.90026  21403691.83225  -7423021.57725     -1267.00825        32.90025
G09  20756024.70325    -81803.59125       178.40525        33.60025  20756007.31524  -6423635.82724       132.70424        27.10024
G06  22487408.29125    -12288.80625      -368.86225        33.50025  22487339.33924    -16871.87124      -268.74824        24.20024
G30  23978329.54825 -11097944.44825      2567.70025        30.50025  23978169.45924  -7861117.27724      1911.77924        27.20024
G01  24530969.36324 -10973752.34024     -4099.36924        28.30024                                                                
G11  24688089.09224   -518864.12824      1749.54024        27.20024  24688101.68323 -10091946.41223      1309.16523        20.60023
C13  40369402.14407     87373.53307     -1420.24707        45.20007                                                                
E29  23892904.58627     80772.43427      -933.51827        42.90027  23892905.18625   2142490.61425      -697.26425        35.10025
C21  22332583.47427    -50397.24427      -209.81427        44.50027  22332587.67106   2036935.01106      -160.54306        39.00006
R05  20852982.08126 111533935.08626       949.42126        37.60026
R04  20677700.92616 110791055.77516     -1198.91916        37.90016
E33  24325269.16726 -13376120.53226     -1828.24826        36.70026  24325272.16424   2233746.65924     -1371.10724        28.80024
R14  20645319.14325 110113788.00125     -1924.31025        35.40025
R15  20257998.38005 108315375.45805      2101.24905        33.30005
C09  38038138.34525  -2827793.05925     -1066.08925        32.90025                                                                
C26  23224391.68825   -404447.36625      2089.53925        32.70025  23224628.22422 -10305446.91222      1167.98722        14.10022
E30  27397051.81625 -13301116.28325      -949.01925        31.80025                                                                
E12  26249767.96425 -14589098.49025       927.28925        30.30025  26249602.77825 -10453538.87425       700.99325        30.20025
E26  26184521.43325 -13540332.37125     -3536.49625        30.20025                                                                
R16  23696710.80825 126646327.69825      3928.64225        29.60025
R19  23046298.48025 123344996.51825     -4339.99125        29.80025
C34  25502210.28725    275714.30725     -2712.01725        30.10025                                                                
C36  25480867.16325 -14407324.11325     -3191.53225        30.00025  25480881.55325 -10865102.02725     -2404.23125        29.50025
C16  39969738.92624 -14141444.27224     -1387.25224        27.40024                                                                
R20  21784497.80624 116554317.09124     -2104.30124        27.30024
C22  24034164.99424 -14615016.05124     -2212.21624        26.50024  24034347.56724 -11021537.84824     -1669.76424        29.10024
E07  26552127.84424 -13892183.48124     -2212.44524        26.40024  26552134.44024 -10381841.13424     -1656.14224        24.10024
E19  24448216.75224 -13458297.89824       532.79124        26.10024                                                                
R21  23368508.51824 125112471.27324       869.99224        26.10024
R03  23553011.88924 126144000.10824     -2717.63024        23.60024
C14  26318343.69023 -10501680.52723      1837.91323        23.00023                                                                
E27  26196273.59723 -10889354.69223      1130.65923        22.40023                                                                
E21  27474720.84724 -14093566.13224      2183.61224        27.10024                                                                
> 2025 10 05 09 11 07.0000045  0 36                      
G03  21291371.59007    362487.34807     -2720.59007        44.10007  21291379.08506    262781.82006     -2030.97506        38.50006
G16  22692146.75407    -44947.06907       -98.45907        43.00007                                                                
G07  21684661.82116   -902709.10516      1272.71916        40.20016                                                                
G04  21404013.21016 -13386667.71316     -1696.82416        38.70016  21404014.10915  -7421752.58115     -1269.50715        33.60015
G09  20755999.22125    -81976.87125       170.96125        33.70025  20755967.14325  -6423766.47125       130.34925        29.50025
G01  24531762.01524 -10969646.09724     -4108.50224        28.80024                                                                
G11  24687763.81724   -520610.89224      1746.78324        27.10024  24687767.11423 -10093253.95023      1308.50923        20.60023
G30  23977862.17125 -11100506.50325      2560.39025        30.80025  23977681.99624  -7863027.68424      1911.34824        27.00024
G06  22487429.57625    -11917.87125      -371.10725        33.50025  22487407.09224    -16600.34524      -272.44024        23.90024
C13  40369673.45727     88797.28427     -1424.81627        45.00027                                                                
R15  20257599.05607 108313249.11707      2097.89807        41.90007
E29  23893076.96727     81710.90127      -939.87527        42.50027  23893076.36725   2143191.58325      -701.36425        33.70025
C21  22332629.64227    -50181.62527      -217.28627        43.50027  22332628.44306   2037098.06606      -163.74506        39.00006
R05  20852808.80126 111533018.00926       943.96226        37.50026
R04  20677949.75306 110792395.09406     -1202.40506        37.70006
E33  24325639.41026 -13374288.76826     -1833.18726        36.50026  24325617.82524   2235114.77324     -1366.56924        28.70024
R14  20645671.99915 110115676.47315     -1931.98915        35.30015
C26  23223990.26625   -406533.38125      2084.55225        33.00025  23224335.92722 -10306571.61322      1086.97922        14.20022
C09  38038364.08925  -2826720.09725     -1075.28125        32.90025                                                                
E30  27397233.19025 -13300161.77125      -956.32025        32.00025                                                                
E26  26185365.64925 -14843753.89225     -3544.68625        30.10025                                                                
E12  26249581.49325 -14590021.71525       921.76525        30.60025  26249426.80025 -10454231.53225       689.47625        29.50025
R19  23047098.32625 123349283.50025     -4349.48425        29.80025
R16  23695934.94625 126642191.16525      3926.72725        29.80025
C36  25481490.13125 -14404133.33625     -3189.99025        29.90025  25481495.22824 -10862696.26624     -2406.57924        29.40024
C34  25502709.14225    278428.18225     -2713.78125        30.00025                                                                
E21  27474317.32624 -14095744.41824      2176.52924        27.60024                                                                
C16  39969984.15624 -14140053.53524     -1391.36324        27.40024                                                                
R20  21784890.23424 116556423.48824     -2107.75924        27.30024
E07  26552566.74124 -13889960.63524     -2226.73524        26.70024  26552472.00623 -10380183.01123     -1659.97423        23.20023
E19  24448114.52324 -13458829.45424       533.02524        26.10024                                                                
R21  23368355.02424 125111658.12924       851.53724        26.10024
C22  24034575.41024 -14612805.85124     -2210.20024        26.30024  24034774.47224 -11019863.74324     -1674.10424        29.00024
R03  23553463.67624 126146427.34924     -2718.70424        23.90024
E27  26196074.23523 -10890483.76823      1129.69923        22.90023                                                                
C14  26317977.34323 -10503521.82123      1844.89723        23.00023                                                                
> 2025 10 05 09 11 08.0000049  0 35                      
G09  20755950.35515    -82147.30815       169.01515        35.30015  20755950.05524  -6423892.34124       123.48324        29.10024
G16  22692176.13307    -44845.21007      -104.21007        44.20007                                                                
G03  21291900.72407    365210.83607     -2725.55407        44.10007  21291907.61906    264815.51106     -2035.43306        38.40006
G07  21684433.07926   -903977.84626      1266.48126        40.10026                                                                
G04  21404335.48726 -13384964.90526     -1705.82526        38.60026  21404348.37805  -7420480.63605     -1273.41905        34.40005
G06  22487541.09925    -11540.00625      -381.33025        33.40025  22487490.13524    -16318.84024      -286.49524        23.70024
G30  23977386.70125 -11103062.89825      2553.56325        30.80025  23977206.22624  -7864936.51124      1908.03624        26.70024
G11  24687460.42724   -522351.46724      1737.47924        26.90024  24687439.74123 -10094566.96323      1315.75023        20.50023
R15  20257219.21907 108311167.13107      2091.81707        43.20007
C13  40369961.85717     90225.47617     -1430.41317        44.70017                                                                
E29  23893272.43217     82652.83417      -944.41617        42.20017  23893264.93725   2143895.71025      -705.70525        33.00025
C21  22332680.00717    -49960.71617      -223.55317        42.90017  22332680.90706   2037264.39106      -167.95806        38.90006
R05  20852621.13116 111531960.97516       942.43316        37.50016
R04  20678136.82426 110793344.42326     -1211.39426        37.50026
R14  20646046.14025 110117618.34525     -1933.35225        35.20025
E33  24325993.16526 -13372454.03926     -1836.21126        36.20026  24325979.67525   2236486.48625     -1373.51125        30.90025
C26  23223589.44425   -408614.19025      2078.20425        33.00025  23224061.61722 -10307659.33122      1069.22622        14.20022
C09  38038571.24525  -2825646.70825     -1073.60125        32.80025                                                                
E30  27397429.25425 -13299202.81125      -961.18325        32.00025  27397440.34724 -10788347.95224      -714.57124        25.80024
E12  26249405.21525 -14590940.75825       916.95225        30.80025  26249258.31724 -10454927.56724       697.72324        28.90024
R19  23047926.95225 123353662.33825     -4353.00525        30.10025
R16  23695151.28825 126637952.21625      3909.34525        29.80025
C34  25503217.89025    281152.58125     -2729.66025        29.90025                                                                
C36  25482115.49925 -14400935.71325     -3201.04525        29.80025  25482117.89714 -10860286.95114     -2411.09114        29.40014
E26  26185997.91125 -14840206.14225     -3547.74825        29.80025                                                                
E21  27473917.70324 -14097916.69124      2169.26624        27.70024                                                                
C16  39970220.69224 -14138657.68624     -1398.40524        27.50024                                                                
R20  21785292.85624 116558524.53824     -2110.85224        27.30024
E07  26552984.95124 -13887734.45724     -2227.84424        26.70024  26552905.50623 -10378524.32523     -1658.96723        22.50023
E19  24448033.27924 -13459350.40924       515.65324        26.10024                                                                
R21  23368132.57824 125110414.68824       846.33424        26.00024
R03  23553967.92724 126149073.65724     -2722.56124        24.40024
C22  24035030.49524 -14610592.24224     -2215.31224        25.90024  24035205.27424 -11018187.86024     -1676.77224        28.30024
E27  26195868.87723 -10891606.95523      1120.24223        23.10023  26195881.76824 -11031902.50324       835.10924        23.70024
C14  26317657.16523 -10505361.84923      1839.39523        22.90023                                                                
> 2025 10 05 09 11 09.0000053  0 35                      
G16  22692207.31207    -44744.03007      -100.84007        45.10007                                                                
G03  21292428.05907    367933.32307     -2721.98507        44.60007  21292435.55406    266848.51106     -2032.65406        38.30006
G09  20755920.37507    -82318.76907       171.97307        43.50007  20755926.67124  -6424018.88524       126.88124        28.90024
G07  21684205.83726   -905246.64126      1268.82226        40.00026                                                                
G04  21404676.95016 -13383264.37116     -1699.39616        38.60016  21404682.64706  -7419209.65206     -1270.50306        35.50006
G06  22487628.33925    -11157.14225      -385.36325        33.40025  22487570.17923    -16042.61123      -273.59123        23.40023
G30  23976888.44625 -11105619.06225      2556.04825        31.00025  23976729.85524  -7866841.05324      1902.39924        26.50024
G11  24687144.44624   -524095.71724      1746.08624        26.80024                                                                
R15  20256823.19307 108308995.68407      2096.29207        43.20007
C13  40370252.35627     91652.46127     -1426.38127        44.30027                                                                
E29  23893458.30307     83593.83607      -940.28607        42.00007  23893452.30725   2144599.60525      -703.77925        32.70025
C21  22332740.86507    -49742.37907      -217.05207        42.50007  22332733.37006   2037429.66806      -164.75406        38.90006
R05  20852462.54106 111531058.43706       943.57706        37.50006
R04  20678382.35416 110794604.83016     -1207.80516        37.30016
E33  24326344.22216 -13370619.05416     -1835.11316        35.90016  24326342.72315   2237857.19815     -1370.21115        30.70015
R14  20646406.19025 110119483.94325     -1930.88925        35.20025
C26  23223193.71825   -410697.91825      2085.18725        32.90025                                                                
C09  38038783.79825  -2824571.44625     -1076.19925        32.80025                                                                
E30  27397646.60425 -13298241.30725      -962.77525        32.00025  27397632.21424 -10787635.37124      -711.58724        25.50024
R19  23048823.93125 123358406.26825     -4353.59125        30.20025
E26  26186542.63425 -15036348.34325     -3546.77225        29.60025                                                                
R16  23694448.27525 126634141.27625      3919.27225        29.80025
C34  25503771.60625    283877.29025     -2724.86325        29.90025                                                                
C36  25482716.58225 -14397739.22825     -3195.91425        29.60025  25482742.36505 -10857878.09605     -2408.62305        31.70005
E12  26249106.02225 -15058955.07625       921.07925        30.00025  26249096.42924 -10455617.87524       687.44524        28.40024
E21  27473508.18624 -14100090.71024      2174.89124        27.80024                                                                
C16  39970509.09224 -14137263.35924     -1393.56524        27.60024                                                                
R20  21785723.65724 116560772.48724     -2109.72224        27.30024
E07  26553449.03024 -13885507.03024     -2228.05124        26.80024  26553340.50523 -10376867.96323     -1655.19923        22.00023
E19  24447940.94324 -13459870.40724       519.51924        26.20024                                                                
R21  23368004.26724 125109672.75824       847.44524        26.00024
R03  23554470.08024 126151706.17824     -2730.33024        24.70024
C22  24035473.58824 -14608372.44724     -2222.88724        25.60024  24035647.16824 -11016514.19724     -1672.55224        28.00024
E27  26195679.40923 -10892724.66923      1114.97723        23.20023  26195677.91025 -11032737.09025       834.58725        30.70025
C14  26317313.00323 -10507203.84223      1842.97423        22.70023                                                                
> 2025 10 05 09 11 10.0000056  0 35                      
G16  22692223.50107    -44647.74907       -93.83207        45.90007                                                                
G03  21292944.30107    370650.63307     -2714.72107        44.60007  21292950.59706    268877.64206     -2027.19706        38.10006
G07  21683956.11026   -906519.81526      1275.36426        39.80026                                                                
G04  21404992.33226 -13381569.37526     -1692.22726        38.60026  21405002.82506  -7417942.67406     -1264.97406        39.70006
G06  22487696.99125    -10786.78825      -364.09825        33.40025  22487640.33123    -15765.67623      -277.28823        23.20023
G30  23976433.66025 -11108183.68125      2568.84625        31.10025                                                                
G11  24686796.38624   -525847.29524      1755.24224        26.60024                                                                
G09  20755893.09407    -82494.57407       177.97607        43.80007  20755890.99624  -6424150.46824       134.10224        28.90024
R15  20256433.46317 108306922.09617      2101.88417        43.10017
E29  23893628.88507     84528.77507      -931.90807        41.70007  23893630.98325   2145298.46525      -696.34225        32.70025
C21  22332778.03907    -49529.57307      -210.04007        42.20007  22332772.64306   2037591.05806      -159.44706        37.90006
R05  20852306.94806 111530236.96606       953.49006        37.50006
R04  20678603.90016 110795800.86916     -1196.36616        37.10016
E33  24326701.57506 -13368788.62906     -1828.14406        35.90006  24326684.18725   2239224.10025     -1364.99725        30.30025
C13  40370525.46717     93076.08917     -1421.94917        43.10017                                                                
R14  20646754.24925 110121348.77125     -1922.60625        35.20025
C26  23222794.09425   -412787.20225      2092.06125        33.10025                                                                
C09  38038978.96325  -2823503.98925     -1063.55525        32.70025                                                                
E30  27397813.28925 -13297289.06325      -947.61425        31.90025  27397814.78824 -10786929.01224      -703.24624        25.10024
E26  26187227.95925 -15032807.36725     -3540.97525        30.70025                                                                
R19  23049720.91025 123363213.71925     -4340.36125        30.30025
R16  23693723.67625 126630280.65425      3930.70325        29.70025
C34  25504271.96025    286590.90325     -2708.06425        29.80025                                                                
C36  25483315.86824 -14394550.76124     -3184.45824        29.40024  25483353.34205 -10855473.14705     -2402.99705        31.40005
E21  27473107.36424 -14102274.22524      2188.26224        27.90024                                                                
C16  39970803.78824 -14135877.95824     -1380.93824        27.60024                                                                
R20  21786126.27924 116562935.50024     -2096.17424        27.30024
E12  26248933.34225 -15059877.57625       922.49925        29.60025  26248919.55124 -10456313.82324       698.76824        27.80024
E07  26553841.45824 -13883291.23124     -2209.98324        26.90024  26553759.61523 -10375216.94523     -1648.34623        21.50023
E19  24447855.50224 -13460398.73924       532.50024        26.20024                                                                
R21  23367786.91824 125108519.65724       857.26524        25.90024
R03  23554992.31824 126154511.78624     -2719.67424        24.90024
C22  24035917.88024 -14606159.04924     -2210.19824        25.40024  24036073.17324 -11014843.85524     -1668.68024        27.80024
E27  26195459.36124 -10893848.20024      1126.43924        23.60024  26195459.96025 -11033576.17025       841.32625        33.40025
C14  26316963.14623 -10509055.55323      1856.57123        22.60023                                                                
> 2025 10 05 09 11 11.0000060  0 36                      
G16  22692249.28307    -44558.56207       -85.64007        46.60007                                                                
G09  20755860.11717    -82680.32717       190.72717        44.50017  20755866.41325  -6424288.54125       141.31825        30.20025
G03  21293468.93827    373361.54527     -2707.71227        44.60027  21293477.33206    270901.60606     -2021.37906        38.00006
G04  21405327.50026 -13379882.96026     -1682.12326        38.80026  21405333.79606  -7416682.95806     -1256.08506        39.50006
G07  21683717.17526   -907800.98526      1285.16726        39.60026                                                                
G06  22487796.52225    -10422.54025      -361.19625        33.50025  22487720.67523    -15489.74523      -275.42923        22.90023
G30  23975908.42425 -11110754.65625      2574.15225        31.10025                                                                
G01  24534941.61324 -10953225.45224     -4095.54224        29.00024                                                                
G11  24686487.00124   -527606.93724      1763.67324        26.40024                                                                
R15  20256050.92807 108304824.04707      2110.47207        43.00007
E29  23893806.06207     85454.95607      -921.80007        41.60007  23893820.45225   2145989.27325      -686.78125        32.60025
C21  22332821.50927    -49324.55327      -201.12727        41.90027  22332823.60806   2037745.38206      -150.79006        37.80006
R05  20852106.38726 111529110.32226       966.28726        37.50026
R04  20678820.05106 110796904.20406     -1188.47306        36.90006
E33  24327051.73326 -13366966.99326     -1817.24126        35.70026  24327037.34225   2240586.29125     -1359.83525        29.70025
R14  20647127.49125 110123283.01325     -1919.26925        35.20025
C13  40370810.86927     94491.59927     -1411.45127        41.90027                                                                
C26  23222386.07725   -414883.22125      2099.38625        33.10025                                                                
C09  38039194.81325  -2822444.72925     -1055.16025        32.60025                                                                
E30  27398016.24825 -13296343.87325      -941.66225        31.90025  27398004.25624 -10786227.89824      -698.49224        24.60024
E12  26248903.36224 -15241542.30224       932.95924        29.30024  26248750.76824 -10457020.29624       711.73424        27.20024
E26  26187894.69825 -15029272.91125     -3531.19525        30.70025                                                                
R19  23050523.15525 123367450.95725     -4339.69925        30.30025
R16  23692987.08625 126626292.38525      3932.62125        29.70025
C34  25504807.68925    289294.22325     -2698.17425        29.70025                                                                
C36  25483940.93524 -14391371.05024     -3175.33124        29.20024  25483975.41125 -10853076.89625     -2391.90025        31.10025
E21  27472666.36924 -14104464.64824      2193.87724        27.90024  27472870.22823 -10947556.69523      1609.83123        19.30023
C16  39971086.19324 -14134498.94824     -1375.81324        27.70024                                                                
R20  21786465.94324 116564697.59424     -2092.69924        27.30024
E07  26554280.35424 -13881083.65224     -2203.46924        26.90024  26554188.61823 -10373577.25023     -1634.03323        21.00023
E19  24447753.87224 -13460937.19024       543.51124        26.20024                                                                
R21  23367634.02424 125107646.79824       864.75224        25.90024
R03  23555515.15624 126157256.89224     -2705.99424        25.30024
C22  24036403.54424 -14603950.33724     -2206.36924        25.20024  24036508.47124 -11013180.71624     -1659.53724        27.70024
E27  26195255.20224 -10894979.62524      1135.37024        23.90024  26195256.40125 -11034423.60025       851.60525        33.10025
C14  26316605.49323 -10510918.72223      1868.89723        22.40023                                                                
> 2025 10 05 09 11 12.0000063  0 36                      
G16  22692241.18807    -44476.31707       -78.77407        46.70007                                                                
G09  20755805.25507    -82875.63707       200.08807        45.00007  20755809.75225  -6424437.50425       154.40825        30.60025
G03  21293959.69817    376064.23017     -2698.56917        44.50017  21293975.28826    272923.89726     -2021.45426        37.90026
G04  21405632.98916 -13378207.47916     -1670.01516        38.80016  21405633.58806  -7415431.70506     -1247.02106        39.10006
G07  21683461.45216   -909093.77816      1298.60316        39.40016                                                                
G06  22487857.08025    -10066.39525      -352.09425        33.60025  22487769.84123    -15209.35523      -282.61923        22.70023
G30  23975403.27425 -11113333.63525      2582.98025        31.00025  23975255.47624 -11371165.71524      1915.55724        25.60024
G01  24535684.19924 -10949136.98124     -4088.47024        29.00024  24535660.51624 -11062482.89324     -3048.58324        27.10024
G11  24686126.35024   -529374.13224      1770.97124        26.30024                                                                
R15  20255646.80807 108302771.87507      2119.97907        43.10007
E29  23893971.84707     86372.47307      -913.18507        41.50007  23893974.24625   2146672.97725      -680.15225        32.60025
C21  22332844.59327    -49127.71927      -192.74027        41.50027  22332837.69806   2037892.08106      -142.88806        36.60006
R05  20851917.21826 111528206.25326       974.23726        37.50026
E33  24327363.51716 -13365157.86316     -1803.62716        36.00016  24327367.41425   2241940.44025     -1350.12725        30.60025
R04  20679026.00816 110798114.80816     -1178.86516        36.70016
R14  20647464.75825 110125188.27325     -1909.66125        35.10025
C13  40371101.06826     95898.41626     -1402.47026        40.70026                                                                
C26  23221958.87215   -416988.38915      2109.74315        33.00015                                                                
C09  38039384.88225  -2821393.58525     -1047.08625        32.50025                                                                
E30  27398150.55525 -13295405.83325      -934.46525        31.80025  27398158.35024 -10785534.62824      -689.34824        24.20024
E26  26188548.84525 -15025747.57325     -3520.77825        30.60025  26188775.48824 -11228643.05724     -2643.67924        24.30024
C34  25505304.14525    291992.93625     -2696.40825        29.70025                                                                
R19  23051266.34025 123371533.58525     -4322.18725        30.20025
R16  23692274.18025 126622590.74725      3949.49225        29.70025
R20  21786741.15324 116566276.05624     -2083.59124        28.00024
C36  25484545.31624 -14388200.94124     -3165.30624        29.10024  25484563.90425 -10850691.09225     -2380.58025        30.80025
E21  27472239.16524 -14106661.47624      2200.03024        28.00024  27472432.83123 -10949188.35823      1642.57923        19.50023
C16  39971314.33524 -14133126.55324     -1369.08724        27.70024                                                                
E12  26248701.60224 -15242482.97824       940.67624        29.00024  26248549.00824 -10457737.26324       722.21424        26.60024
E07  26554645.50124 -13878885.55524     -2193.35524        26.90024  26554670.98423 -10371951.20723     -1619.21623        21.00023
R03  23555975.63724 126159828.90024     -2698.73024        25.80024
C22  24036853.83224 -14601752.12324     -2192.96424        25.20024  24036911.69224 -11011527.21124     -1648.68824        27.70024
R21  23367531.79424 125107208.07224       871.95524        25.80024
E27  26195004.57624 -10896123.15524      1149.58424        24.00024  26195020.46525 -11035277.47625       857.09825        32.50025
C14  26316222.95823 -10512790.53923      1876.13923        22.20023                                                                
E19  24447624.36224 -13461480.69224       546.02624        26.10024                                                                
> 2025 10 05 09 11 13.0000066  0 35                      
G16  22692258.87607    -44400.24007       -72.99307        46.60007                                                                
G09  20755765.98207    -83077.97407       205.85207        45.70007  20755771.07915  -6424588.66915       152.26615        33.20015
G03  21294464.24907    378760.83107     -2692.81007        44.50007  21294488.83226    274946.92726     -2023.39926        35.90026
G04  21405939.37706 -13376538.77706     -1665.31106        38.90006  21405949.56906  -7414186.08406     -1242.80406        38.80006
G07  21683225.21606   -910393.12306      1302.62206        39.30006                                                                
G06  22487938.92425     -9713.92525      -350.63225        33.70025  22487833.69723    -14950.88723      -247.50723        22.50023
G30  23974866.64525 -11115918.70825      2588.11925        31.00025  23974762.91724 -11373084.75624      1919.04024        27.40024
G11  24685755.50724   -531146.72424      1775.29024        26.10024                                                                
G01  24536442.37425 -10945058.12325     -4074.05025        29.50025  24536432.48124 -11059436.81024     -3046.08224        27.10024
E29  23894145.42707     87281.68207      -905.05507        42.30007  23894145.12825   2147350.59325      -674.57125        32.90025
R15  20255237.89127 108300595.06927      2121.06527        43.00027
C21  22332866.47816    -48939.04916      -184.58816        41.20016  22332874.27326   2038027.89926      -130.37726        36.50026
E33  24327706.17906 -13363352.83806     -1801.97206        37.30006  24327713.37425   2243287.98925     -1344.24925        32.80025
R05  20851741.54026 111527275.40726       978.36426        37.50026
R04  20679291.92426 110799546.83726     -1168.99026        36.60026
R20  21787124.58825 116568335.77725     -2076.70225        30.80025
R14  20647857.48615 110127289.54115     -1902.11815        34.90015
C13  40371383.47326     97296.89626     -1394.31026        39.70026                                                                
C22  24037311.61525 -14599563.03625     -2184.52425        29.50025  24037321.20924 -11009877.91024     -1647.19924        27.10024
C26  23221564.94525   -419098.36525      2112.37825        32.90025                                                                
C09  38039578.84815  -2820348.03915     -1042.74615        32.50015                                                                
E30  27398338.22525 -13294473.58725      -929.34725        32.10025  27398331.33024 -10784847.09424      -684.66624        23.80024
C34  25505811.69425    294685.35425     -2689.27025        31.00025  25505824.58525 -11066368.97925     -2021.22725        29.60025
E26  26189215.28425 -15022226.63825     -3518.73325        30.80025                                                                
R19  23052058.09225 123375776.93725     -4315.45925        30.20025
R16  23691520.80125 126618574.95925      3955.56725        29.60025
C36  25485143.40224 -14385040.18724     -3156.07524        28.90024  25485169.18525 -10848307.67925     -2382.21625        30.80025
E12  26248532.81924 -15462924.14624       947.36824        28.50024  26248364.63524 -10458445.35424       703.65424        26.00024
C16  39971568.85924 -14131762.72824     -1359.54024        27.70024                                                                
E07  26555075.70424 -13876695.95524     -2185.35124        26.90024  26555004.35323 -10370327.91423     -1621.91823        20.70023
R03  23556502.97224 126162659.78424     -2691.96924        25.90024
R21  23367354.31724 125106265.52924       883.12924        25.80024
E27  26194814.20724 -10897277.41224      1159.61924        24.00024  26194800.71725 -11036137.87425       863.66025        32.10025
C14  26315865.30623 -10514671.92723      1886.17423        22.00023                                                                
E21  27471809.56224 -14108864.61724      2206.29724        28.10024  27472009.82323 -10950829.55323      1645.96023        19.70023
> 2025 10 05 09 11 14.0000069  0 37                      
G16  22692272.06707    -44329.54507       -68.00407        46.50007                                                                
G04  21406252.95906 -13374877.22306     -1657.97906        39.10006  21406264.35226  -7412944.34526     -1239.79726        38.40026
G07  21682956.00226   -911698.12126      1307.82426        39.10026                                                                
G06  22488017.17025     -9367.59125      -343.26625        33.70025  22487897.55224    -14691.61524      -259.67424        28.30024
G30  23974377.68425 -11118512.39325      2597.99025        30.90025  23974259.56524 -11375020.51024      1944.10924        26.90024
G01  24537220.93525 -10940984.26925     -4071.35125        29.70025  24537207.14524 -11056390.76724     -3046.02224        26.70024
G11  24685376.86924   -532921.94124      1776.52924        26.00024                                                                
G26  24522958.30924 -15508333.69224     -2696.84624        24.00024                                                                
G03  21294974.79627    381450.47827     -2687.16827        42.70027  21294995.48125    276963.99525     -2014.08625        34.90025
G09  20755723.11207    -83286.76307       212.01407        45.70007  20755730.00705  -6424744.71105       158.48005        35.10005
E33  24328050.34107 -13361553.54107     -1796.68207        42.90007  24328052.44016   2244631.60016     -1341.64016        37.80016
E29  23894321.70507     88185.02007      -899.65307        42.60007  23894315.41015   2148024.21915      -671.63115        32.90015
R15  20254841.56517 108298486.30917      2128.26017        42.90017
C21  22332903.05326    -48757.35026      -178.21326        40.80026  22332909.94826   2038158.82326      -128.47726        36.30026
C34  25506326.13826    297372.60926     -2684.67326        39.80026  25506340.82825 -11064346.56525     -2022.41425        35.10025
R05  20851523.29126 111526118.16226       987.58526        37.40026
R04  20679480.49426 110800565.88226     -1164.67226        36.50026
R20  21787519.41415 116570455.94215     -2072.21215        35.00015
C13  40371632.30116     98687.84916     -1387.19016        38.90016                                                                
R14  20648202.24705 110129136.82605     -1895.96505        34.80005
C22  24037739.41925 -14597380.97525     -2178.54825        34.00025  24037744.81624 -11008234.68224     -1640.19024        27.10024
C09  38039768.01705  -2819310.74605     -1033.16605        33.00005                                                                
C26  23221159.62625   -421212.96725      2116.91525        32.80025  23221165.02224 -11514151.06024      1596.67124        24.50024
E30  27398502.21225 -13293546.86025      -923.96825        32.10025                                                                
E26  26189909.90325 -15018712.59325     -3510.59925        30.90025                                                                
R19  23052788.68625 123379695.76225     -4311.57525        30.70025
R16  23690744.03925 126614434.58925      3960.54525        29.60025
E21  27471380.85924 -14111075.41724      2214.62824        28.10024  27471586.51623 -10952478.87823      1653.39023        20.00023
C16  39971820.68424 -14130406.81424     -1351.95824        27.60024                                                                
E07  26555490.31724 -13874510.76424     -2182.98524        26.90024  26555422.56423 -10368704.38923     -1623.64123        20.50023
R21  23367160.65124 125105238.76324       887.95824        25.90024
R03  23557043.49824 126165563.43224     -2680.96224        25.90024
E27  26194571.97524 -10898436.12224      1160.93724        24.40024  26194499.42525 -11037001.40325       865.09425        30.00025
E12  26248328.06124 -15463879.95024       955.80424        28.00024                                                                
C14  26315512.75023 -10516562.27223      1894.82323        21.70023                                                                
E19  24447517.33623 -15511021.48023       566.63823        23.10023                                                                
C36  25485767.87024 -14381881.34824     -3157.88224        28.80024  25485775.36525 -10845929.99225     -2374.82325        30.60025
> 2025 10 05 09 11 15.0000073  0 36                      
G16  22692299.94807    -44263.58907       -63.58607        46.40007                                                                
G09  20755688.93607    -83501.31707       217.43807        45.60007  20755698.52907  -6424904.75407       162.04407        42.20007
G04  21406576.13606 -13373221.45506     -1652.87506        39.50006  21406590.82626  -7411707.84826     -1233.87626        38.00026
G06  22488090.61925     -9028.00625      -336.21025        33.80025  22487973.40024    -14434.79424      -255.59524        27.60024
G03  21295493.43726    384134.17626     -2680.47226        40.30026  21295515.62125    278968.06325     -1997.56725        33.90025
G30  23973928.89425 -11121109.24725      2598.43825        30.70025  23973778.09924 -11376963.59124      1946.74424        26.50024
G01  24538036.07125 -10936918.59325     -4061.58525        29.70025  24537995.00024 -11053344.95524     -3045.69624        26.10024
G11  24685033.60724   -534700.69624      1780.52324        25.90024                                                                
G26  24523483.24624 -15505641.17624     -2692.51524        24.00024                                                                
G07  21682752.14326   -913008.82126      1313.55026        38.90026                                                                
E33  24328380.71207 -13359759.77907     -1790.99407        44.10007  24328404.69606   2245971.17106     -1337.55106        38.70006
E29  23894494.08607     89082.51007      -895.56507        42.70007  23894496.18505   2148693.68705      -667.38905        33.10005
C21  22332951.32026    -48581.61626      -172.75126        40.50026  22332959.41426   2038291.95926      -134.24226        36.00026
R05  20851350.01116 111525137.60816       993.05716        37.80016
C34  25506849.87516    300053.68916     -2677.99216        39.50016  25506864.86525 -11062328.48025     -2015.91925        35.00025
R15  20254454.83307 108296365.32407      2135.39007        42.60007
R04  20679712.83316 110801755.03216     -1160.32616        36.40016
C09  38039978.77105  -2818279.11505     -1028.80005        34.00005                                                                
E27  26194327.34524 -10899601.79524      1169.15324        27.00024  26194290.47024 -11037869.01424       869.65124        28.30024
R20  21787913.34105 116572508.02105     -2066.89505        35.00005
C13  40371902.71326    100073.73626     -1383.35426        38.20026                                                                
R14  20648565.89525 110131020.73125     -1895.50025        34.80025
E26  26190601.22425 -15614463.07725     -3508.96225        31.50025                                                                
C22  24038136.34425 -14595205.71225     -2171.86225        33.90025  24038093.17424 -11006595.01124     -1637.89324        25.70024
C26  23220775.59225   -423332.98925      2122.73125        32.80025  23220767.49724 -11515749.21024      1598.15024        25.10024
E30  27398677.89025 -13292624.60525      -920.01925        32.00025                                                                
E12  26248175.46624 -15626935.09124       967.27124        28.00024                                                                
R19  23053648.49125 123384239.92525     -4306.36025        30.90025
R16  23690045.22325 126610647.34625      3966.45325        29.50025
C36  25486392.93724 -14378730.33424     -3147.09924        28.80024  25486389.04025 -10843554.87025     -2373.84025        30.50025
E21  27470980.93624 -14113295.05924      2224.06224        28.00024  27471062.17923 -10954135.75523      1660.65223        23.40023
E07  26555913.92324 -13872331.34124     -2176.53924        27.30024  26555844.67123 -10367080.30623     -1624.36223        20.30023
R03  23557643.68324 126168720.61524     -2675.55424        26.10024
R21  23366956.19324 125104091.03024       889.45824        25.90024
E19  24447427.39823 -15511592.56223       571.08123        23.10023                                                                
C14  26315156.59623 -10518455.13723      1894.12323        21.40023                                                                
> 2025 10 05 09 11 16.0000076  0 36                      
G09  20755643.06707    -83721.36507       222.79407        45.60007  20755655.65907  -6425069.13307       166.54707        41.50007
G16  22692306.54307    -44203.12607       -57.71707        46.20007                                                                
G04  21406886.72106 -13371570.27406     -1648.88606        39.80006  21406905.60826  -7410475.34926     -1230.50026        37.60026
G06  22488117.60025     -8694.40825      -330.60525        33.80025  22488040.55325    -14181.83725      -251.02425        29.60025
G03  21296031.56426    386815.00526     -2679.39526        39.10026  21296026.46825    280970.23225     -2001.21925        34.50025
G30  23973497.49325 -11123713.16725      2607.45125        30.60025  23973278.94424 -11378912.95724      1952.50824        28.20024
G01  24538845.21125 -10932859.66825     -4055.54825        29.70025  24538977.12024 -11050300.69224     -3043.48624        25.60024
G11  24684680.75124   -536484.62124      1786.51024        25.80024  24684593.51223 -11304489.47423      1336.06023        19.50023
G26  24523976.40424 -15502954.80924     -2683.29224        23.80024                                                                
G07  21682484.72826   -914324.53726      1318.22426        38.70026                                                                
R05  20851161.44107 111524139.45407       998.77007        45.20007
E33  24328744.66127 -13357971.29627     -1785.84327        44.10027  24328744.36116   2247306.90816     -1333.82016        39.10016
E29  23894656.27407     89975.44007      -889.65007        43.20007  23894662.86905   2149358.77105      -662.89205        34.00005
C21  22332974.70326    -48409.86526      -169.76026        40.20026  22332986.69525   2038424.61525      -132.41725        34.40025
C34  25507356.22526    302729.65026     -2673.40126        39.20026  25507376.61116 -11060312.20316     -2015.37316        37.60016
R15  20254068.10007 108294307.79207      2139.55407        41.60007
R04  20679898.40426 110802757.98726     -1156.33426        36.30026
C09  38040173.03605  -2817253.48805     -1022.62405        35.30005                                                                
R20  21788292.27925 116574544.02225     -2062.06725        34.90025
R14  20648941.23525 110133031.23625     -1892.62925        34.70025
C13  40372180.32126    101458.21726     -1383.77726        37.60026                                                                
C22  24038549.15915 -14593034.89415     -2168.59615        33.70015  24038586.33324 -11004962.06624     -1629.58124        25.80024
C26  23220360.67925   -425458.70425      2128.56225        32.70025  23220357.08124 -11517352.12624      1605.29824        29.00024
E30  27398856.56625 -13291706.78525      -915.60225        32.00025                                                                
E26  26191251.77425 -15610958.67225     -3504.40525        31.40025  26191272.16023 -11665241.31423     -2602.73323        22.80023
R19  23054464.82625 123388617.22225     -4298.86725        30.90025
C36  25486975.13424 -14375585.70424     -3141.43824        29.20024  25486991.62325 -10841181.85425     -2371.96225        29.90025
R16  23689288.54725 126606614.75025      3971.25425        29.50025
E27  26194133.07925 -10900763.06725      1159.07325        31.10025  26194066.22524 -11038741.54024       874.98524        26.80024
E21  27470557.92824 -14115518.26824      2224.99224        28.00024  27470761.18823 -10955796.30023      1662.37823        22.80023
E07  26556351.62024 -13870159.83824     -2167.54324        27.50024  26556256.28623 -10365460.12823     -1618.22523        20.20023
E12  26247967.11024 -15627905.37224       970.28124        27.80024  26248003.08624 -11677685.18324       716.53524        24.10024
R03  23558121.55224 126171288.02124     -2678.23824        26.10024
R21  23366833.87824 125103445.56624       893.17124        26.00024
E19  24447297.58823 -15512172.68123       584.63823        23.00023                                                                
C14  26314779.15723 -10520342.57123      1884.71923        21.20023                                                                
> 2025 10 05 09 11 17.0000079  0 36                      
G09  20755599.59707    -83945.65307       226.40807        45.50007  20755610.99007  -6425236.55907       168.95107        41.90007
G16  22692321.53307    -44146.47807       -54.73907        46.10007                                                                
G07  21682205.32216   -915643.54116      1320.64716        38.60016                                                                
G06  22488219.53025     -8364.19025      -328.52625        33.80025  22488103.21024    -13929.91124      -251.41224        29.20024
G03  21296540.31216    389490.70816     -2673.13916        38.20016  21296533.71625    282969.42025     -1997.69725        33.10025
G30  23973009.43125 -11126320.91225      2609.65825        30.50025  23972785.48624 -11380860.85124      1947.15724        27.90024
G11  24684345.28324   -538272.45924      1789.79424        25.60024                                                                
G04  21407211.69626 -13369922.69726     -1645.77526        39.80026  21407214.09426  -7409248.30026     -1224.32426        36.80026
G26  24524508.53624 -15500266.60224     -2689.12624        23.80024                                                                
G01  24539690.62625 -10928806.36125     -4050.49825        30.00025  24539531.43624 -11047258.64824     -3040.93424        26.00024
R05  20850971.67307 111523132.88907      1002.13307        45.40007
E29  23894826.25607     90862.37707      -884.19107        43.90007  23894830.45305   2150020.84005      -660.56105        34.00005
E33  24329068.43617 -13356187.66217     -1781.20917        44.00017  24329082.22716   2248639.16916     -1330.52216        40.90016
C21  22333010.97826    -48244.80626      -161.71326        39.90026  22333010.97825   2038551.98325      -124.72425        33.50025
C34  25507873.36716    305401.21916     -2669.37116        38.90016  25507888.05706 -11058298.91506     -2011.79206        38.60006
R15  20253646.89206 108292065.23206      2141.79406        40.80006
C09  38040373.29806  -2816232.01506     -1019.39606        36.00006                                                                
R04  20680134.64126 110804031.41226     -1151.72126        36.20026
R20  21788684.10815 116576648.12115     -2057.42015        34.80015
R14  20649299.78725 110134951.74225     -1888.26925        34.60025
C13  40372405.76526    102837.57426     -1376.79526        37.00026                                                                
C22  24038978.16205 -14590867.79605     -2165.23805        33.60005  24038908.01024 -11003332.12424     -1628.44024        25.60024
E30  27399041.53825 -13290794.48425      -909.54125        32.40025                                                                
C26  23219964.65325   -427590.90525      2135.44225        32.60025  23219948.76424 -11518959.08524      1608.98024        28.60024
E12  26247646.03325 -15809624.65325       973.08525        30.10025                                                                
R19  23055205.61325 123392588.09525     -4295.72825        30.90025
E26  26191876.84125 -15607460.29325     -3495.36425        31.40025  26192039.62824 -11662638.83924     -2602.47324        25.60024
C36  25487559.13025 -14372446.16825     -3136.98825        29.60025  25487585.81224 -10838817.57524     -2359.91024        28.80024
E27  26193897.44225 -10901930.61225      1170.68025        30.80025  26193834.48624 -11039619.10924       880.08924        25.50024
R16  23688573.84224 126602805.34124      3971.97324        29.40024
E07  26556744.64824 -13867992.82224     -2164.77124        27.90024  26556667.30223 -10363848.28223     -1607.67923        20.00023
E21  27470101.04524 -14117746.90324      2231.34824        28.00024                                                                
R21  23366662.69624 125102538.24424       904.60924        26.10024
R03  23558595.52424 126173833.21324     -2673.78924        26.10024
C14  26314392.72523 -10522227.77023      1884.08123        21.00023                                                                
E19  24447188.46423 -15512754.71923       582.99723        22.90023                                                                
> 2025 10 05 09 11 18.0000082  0 36                      
G09  20755554.62907    -84172.75307       228.50507        45.50007  20755564.52207  -6425406.25507       170.83007        41.60007
G16  22692323.03207    -44091.96407       -53.44807        45.90007                                                                
G07  21681983.47526   -916962.90726      1319.54726        38.40026                                                                
G03  21297034.96906    392164.37306     -2672.64606        37.60006  21297042.16525    284966.82125     -1996.50625        33.30025
G06  22488242.61425     -8033.72125      -330.59625        33.80025  22488162.86924    -13681.09924      -247.25524        28.60024
G01  24540483.57725 -10924754.76725     -4050.73625        30.20025  24540312.99524 -11044221.90824     -3034.08824        25.50024
G30  23972552.24725 -11128931.03725      2611.31525        30.40025  23972286.33224 -11382813.64024      1955.23624        27.20024
G11  24683960.35024   -540064.90524      1794.74824        25.60024                                                                
G26  24524991.80124 -15497580.67924     -2684.78024        23.90024                                                                
G04  21407518.38326 -13368275.99426     -1646.26626        39.70026  21407521.08226  -7408020.92126     -1227.54426        35.80026
R05  20850772.01107 111522074.31307      1004.34707        45.40007
E29  23894986.04507     91745.81607      -881.68807        44.10007  23894997.43705   2150680.41105      -658.32105        33.90005
E33  24329416.19607 -13354405.41707     -1781.54907        43.90007  24329418.29406   2249970.26006     -1330.50606        40.60006
C34  25508378.51706    308070.58706     -2668.26706        38.70006  25508399.50206 -11056287.39506     -2010.63706        38.60006
R15  20253249.96706 108289952.64906      2144.97006        40.20006
C09  38040564.86526  -2815213.47726     -1017.07126        36.10026                                                                
R04  20680338.79926 110805132.44126     -1147.27326        36.20026
R20  21789066.64305 116578700.95705     -2058.19105        35.00005
R14  20649662.23615 110136891.31615     -1883.71115        34.50015
C22  24039377.78525 -14588703.92925     -2162.25025        33.80025  24039331.61724 -11001703.30724     -1628.25424        25.40024
C13  40372678.57626    104211.47126     -1371.16526        36.50026                                                                
E26  26192668.29325 -15902922.78625     -3489.09625        31.60025  26192701.87024 -11660033.13224     -2607.32324        25.60024
E30  27399220.51425 -13289883.64325      -910.11125        32.40025                                                                
C26  23219551.53925   -429723.28925      2132.47625        32.50025  23219537.14924 -11520569.56424      1612.23824        28.20024
E27  26193671.39925 -10903105.47625      1178.52325        30.80025  26193614.13824 -11040489.25124       866.43024        24.60024
R19  23056064.21925 123397188.12325     -4297.59325        31.10025
E12  26247433.18025 -15810601.46825       976.81525        31.40025                                                                
C36  25488157.51625 -14369304.40425     -3142.87725        29.60025  25488190.49324 -10836460.33524     -2353.71924        28.70024
R16  23687806.07324 126598711.75124      3973.24824        29.40024
E07  26557172.15224 -13865824.50424     -2168.96924        27.90024  26557161.36023 -10362236.96923     -1611.04623        22.30023
E21  27469717.61024 -14119978.90824      2233.69024        27.90024                                                                
C21  22333051.45026    -48081.97026      -161.72526        38.90026  22333039.45925   2038677.97825      -125.30825        32.90025
R03  23559076.69124 126176418.23624     -2667.55724        26.10024
R21  23366518.79624 125101776.39924       896.57624        26.20024
C14  26314036.27223 -10524114.21323      1887.06423        20.80023                                                                
E19  24447074.84223 -15513335.70123       580.45423        23.10023                                                                
> 2025 10 05 09 11 19.0000085  0 36                      
G09  20755510.85907    -84398.40007       224.92107        45.50007  20755520.45206  -6425574.76606       167.91906        41.20006
G04  21407834.66426 -13366631.29926     -1643.69126        39.60026  21407834.36525  -7406793.95325     -1226.76225        34.20025
G07  21681700.77126   -918282.05026      1319.03126        38.20026                                                                
G03  21297542.51826    394840.42126     -2677.23826        37.00026  21297547.91425    286963.92425     -1996.95525        31.90025
G06  22488310.96625     -7703.41325      -330.22725        33.80025  22488228.52324    -13429.35824      -253.20524        28.10024
G01  24541279.52625 -10920703.64825     -4050.88025        30.40025  24541083.16224 -11041186.20024     -3035.18924        25.10024
G30  23972057.89025 -11131538.36925      2605.93525        30.40025  23971790.77524 -11384763.28524      1948.07224        26.90024
G11  24683652.16324   -541856.27324      1790.82924        25.50024                                                                
G26  24525482.26224 -15494895.18824     -2685.27424        23.80024                                                                
G16  22692333.22507    -44035.50207       -57.43607        45.00007                                                                
R05  20850593.03507 111521126.64607      1001.28207        45.20007
E29  23895155.42817     92631.21217      -886.37617        44.10017  23895164.12215   2151341.28915      -661.53215        33.90015
E33  24329736.97407 -13352621.27807     -1785.08607        43.80007  24329755.86106   2251302.57906     -1332.93206        40.20006
C34  25508894.46016    310741.04416     -2671.00016        38.50016  25508910.34906 -11054275.00706     -2012.82006        38.50006
R15  20252837.15306 108287756.73306      2139.94706        39.60006
C09  38040759.13026  -2814194.11026     -1019.78026        36.20026                                                                
R04  20680547.45526 110806260.28726     -1151.57726        36.10026
R20  21789445.88105 116580739.25805     -2061.57805        35.00005
R14  20650014.79225 110138780.55225     -1888.45125        34.50025
C22  24039802.59115 -14586538.00715     -2166.95015        33.90015  24039749.22824 -11000071.10824     -1633.89024        25.40024
E30  27399399.19115 -13288970.25215      -913.91515        32.70015  27399409.98324 -11651742.04924      -687.80424        24.30024
C21  22333083.22826    -47913.60226      -171.13326        37.90026  22333069.13825   2038804.64025      -126.99525        32.00025
E26  26193418.07425 -15899430.73225     -3492.05325        31.70025  26193359.91424 -11657429.04724     -2603.27224        25.40024
R19  23056896.14325 123401648.85025     -4296.35525        31.50025
C26  23219128.23225   -431855.15725      2131.61025        32.40025  23219115.34124 -11522176.96924      1605.86824        27.60024
E27  26193430.06625 -10904282.50725      1178.11525        31.60025  26193390.19324 -11041360.08624       871.18024        24.30024
E12  26247247.90825 -15811577.67125       975.89525        31.20025  26247446.67124 -11871908.37924       724.00324        23.90024
R16  23687078.77724 126594836.60824      3974.21324        29.40024
C36  25488775.38825 -14366159.76025     -3146.08325        29.60025  25488794.87424 -10834102.98224     -2357.41024        28.50024
E07  26557566.37924 -13863657.55824     -2166.25924        28.00024  26557486.03523 -10360619.45023     -1620.62223        23.40023
C13  40372972.37325    105586.55925     -1375.68325        35.30025                                                                
R21  23366299.64724 125100613.34424       902.28124        26.20024
R03  23559568.95024 126179063.00424     -2672.09324        26.10024
E19  24446963.61923 -15513915.67923       579.47523        23.10023                                                                
C14  26313671.12523 -10525997.25823      1881.34523        20.70023                                                                
E21  27469419.61724 -16022288.24624      2239.37024        28.30024                                                                
> 2025 10 05 09 11 20.0000088  0 36                      
G09  20755471.58607    -84618.64907       217.55007        45.50007  20755476.38306  -6425739.17906       162.36406        40.90006
G04  21408149.14716 -13364979.03616     -1656.04616        39.40016  21408144.65025  -7405561.62925     -1235.00125        32.50025
G07  21681449.24526   -919594.55026      1309.17826        38.00026                                                                
G16  22692357.20827    -43973.39827       -65.67527        43.50027                                                                
G06  22488370.02525     -7364.99525      -342.47325        33.70025  22488282.18624    -13171.81024      -260.45124        27.60024
G03  21298053.06526    397523.98026     -2687.31526        36.50026  21298054.56425    288964.91525     -2002.93425        32.30025
G26  24525721.79625 -16115513.39925     -2695.21025        30.00025                                                                
G30  23971539.84825 -11134138.94325      2597.19425        30.30025  23971299.41524 -11386706.41124      1939.86624        26.70024
G11  24683322.99124   -543640.18924      1780.18924        25.50024                                                                
G01  24542002.32525 -16125365.02025     -4059.90725        30.40025  24541844.33524 -11038152.22824     -3033.10424        24.80024
E29  23895328.10927     93521.65727      -893.71827        44.00027  23895332.00605   2152005.91805      -666.50405        33.90005
R05  20850402.36727 111520115.49427       992.52527        44.90027
E33  24330083.53407 -13350831.98207     -1791.87407        43.70007  24330095.52506   2252638.93106     -1338.36806        40.10006
C34  25509405.60626    313415.91126     -2677.07126        38.40026  25509422.69406 -11052258.65406     -2018.33506        40.10006
R15  20252433.03226 108285605.16226      2128.64226        39.20026
C09  38040947.40026  -2813168.15526     -1029.25026        36.10026                                                                
R04  20680793.28526 110807584.28226     -1164.91826        36.00026
R20  21789844.60405 116582879.32205     -2069.44605        35.00005
C22  24040236.09115 -14584367.44515     -2172.88115        34.40015  24040162.94224 -10998436.66024     -1635.57224        24.80024
R19  23057663.31225 123405759.79125     -4307.90725        35.10025
R14  20650359.25425 110140624.78725     -1896.59625        34.50025
E30  27399574.26905 -13288054.09805      -918.53705        33.20005  27399582.66424 -11651055.59124      -685.78424        29.10024
E26  26194012.26325 -15895930.88825     -3503.73725        32.40025  26193908.83424 -11654829.89924     -2596.68024        24.60024
C21  22333103.61426    -47741.04826      -174.64626        37.00026  22333102.41525   2038939.25325      -138.58725        31.90025
C26  23218711.22125   -433980.83425      2122.58025        32.20025  23218705.82424 -11523776.94824      1596.26624        27.00024
E27  26193236.70025 -10905450.80125      1163.92525        31.50025  26193169.24614 -11042228.75214       867.58114        24.30014
R16  23686369.16825 126591053.94925      3964.06025        29.70025
C36  25489405.25225 -14363008.81725     -3154.09225        29.60025  25489393.26024 -10831733.21224     -2375.97724        28.30024
E12  26247066.23425 -16127328.98325       964.49625        30.70025                                                                
E21  27469010.10024 -16024521.50524      2233.25824        28.10024                                                                
C13  40373218.20325    106970.64725     -1388.58825        33.90025                                                                
R03  23560052.81524 126181661.05024     -2684.22224        26.10024
R21  23366090.69224 125099502.35624       888.30224        26.20024
E19  24446859.59123 -15514487.62923       567.93723        23.20023                                                                
C14  26313306.27723 -10527872.97023      1872.04523        20.50023                                                                
E07  26557969.00124 -13861486.46124     -2173.17124        28.50024  26557897.65023 -10358995.35823     -1627.37823        22.70023
> 2025 10 05 09 11 21.0000092  0 36                      
G09  20755442.80607    -84829.14707       205.62207        45.60007  20755446.70306  -6425896.32406       153.51006        40.60006
G04  21408469.62516 -13363319.50816     -1663.16016        39.30016  21408479.81825  -7404324.92025     -1238.90125        32.50025
G16  22692416.26727    -43904.15327       -72.56727        42.10027                                                                
G03  21298601.98526    400214.59126     -2694.13426        36.00026  21298578.00125    290974.95725     -2014.56625        32.30025
G06  22488420.39125     -7019.43225      -349.13425        33.70025  22488356.23524    -12901.54124      -276.62924        26.90024
G01  24542810.26625 -16121295.80425     -4069.21525        31.40025  24542636.38624 -11035114.35824     -3039.81824        24.40024
G30  23971027.20325 -11136734.54825      2593.11925        30.30025  23970814.35124 -11388640.09024      1928.95424        26.40024
G26  24526261.72225 -16112809.07525     -2704.32325        29.70025                                                                
G11  24682933.86024   -545414.04124      1768.81924        25.40024                                                                
G07  21681189.62526   -920898.91126      1300.29026        38.00026                                                                
E33  24330447.18217 -13349033.12517     -1804.38717        43.60017  24330446.88206   2253982.76906     -1347.58006        39.70006
E29  23895511.88127     94419.49627      -901.28527        43.90027  23895513.38005   2152677.90505      -675.66505        33.90005
R05  20850229.38727 111519138.01027       980.51127        44.60027
E30  27399751.74727 -13287125.97727      -933.85427        41.90027  27399768.23525 -11650361.82025      -697.42825        32.10025
C34  25509931.74226    316101.79926     -2691.39926        38.40026  25509947.63106 -11050235.10706     -2027.14306        39.70006
R15  20252080.47616 108283668.45016      2119.41016        38.80016
R04  20681007.93626 110808681.48926     -1173.88926        35.90026
C09  38041157.85426  -2812133.33626     -1039.24926        36.00026                                                                
C22  24040629.11905 -14582187.34305     -2184.87205        34.90005  24040592.24424 -10996794.62124     -1645.83324        24.40024
R14  20650726.20025 110142526.99925     -1907.78025        34.50025
R20  21790232.53625 116584900.79925     -2082.31825        34.90025
E12  26246897.15125 -16128286.26425       957.28025        31.60025                                                                
R19  23058456.86225 123409951.87325     -4320.83725        34.90025
E26  26194726.06825 -15892422.02925     -3513.36625        32.40025  26194583.06724 -11652210.78924     -2629.09024        23.90024
C21  22333160.87426    -47560.50926      -184.53326        36.20026  22333152.18025   2039086.39825      -153.41225        31.80025
C26  23218322.98925   -436097.83125      2112.65725        32.10025  23218312.19724 -11525369.18324      1588.36224        26.70024
E27  26193026.54525 -10906610.80525      1155.85825        31.40025  26192960.29104 -11043089.98804       857.52104        26.10004
R16  23685630.77925 126587055.75825      3950.52525        29.70025
E07  26558375.81924 -13859305.03324     -2186.59324        28.90024  26558326.05323 -10357362.37723     -1637.42523        22.20023
E21  27468612.27524 -16026738.96524      2209.56124        27.80024                                                                
R21  23365928.20524 125098579.73024       874.28124        26.20024
R03  23560529.48524 126184158.77124     -2692.84324        26.10024
C13  40373473.32625    108365.89525     -1400.82725        32.60025                                                                
E19  24446697.70323 -15515045.96223       551.52423        23.30023                                                                
C14  26312962.11523 -10529739.12323      1861.37323        20.30023                                                                
C36                                                                  25490009.03424 -10829353.51124     -2384.66524        25.30024
> 2025 10 05 09 11 22.0000095  0 35                      
G07  21680939.29816   -922193.09516      1289.09616        40.00016                                                                
G09  20755402.33407    -85031.20807       197.84207        45.60007  20755405.33206  -6426047.20006       147.74206        40.10006
G04  21408779.01106 -13361651.38206     -1672.42406        39.20006  21408794.30025  -7403078.37125     -1251.46825        31.80025
G03  21299133.51726    402913.56626     -2703.15826        35.70026  21299091.84625    292992.23625     -2020.89825        32.20025
G01  24543601.71825 -16117220.01525     -4079.07425        33.10025  24543411.05024 -11032065.07124     -3054.99424        24.70024
G06  22488527.11715     -6662.38715      -362.78715        33.60015  22488422.78924    -12626.91124      -276.81124        26.60024
G16  22692461.53626    -43822.72026       -87.52626        40.70026                                                                
G11  24682595.09524   -547175.66424      1755.50824        25.30024                                                                
G30  23970540.34025 -11139318.52025      2578.15625        30.20025  23970322.09124 -11390561.35524      1915.05924        26.00024
E33  24330774.55507 -13347224.82707     -1812.76807        43.60007  24330789.54506   2255333.22806     -1353.77006        39.30006
E29  23895679.76517     95329.10417      -914.74317        43.80017  23895684.26205   2153356.33805      -681.65505        33.80005
E30  27399917.83227 -13286190.64727      -938.93427        41.80027  27399945.41325 -11649660.96625      -704.39625        31.50025
C34  25510455.77916    318794.62616     -2696.29416        38.30016  25510464.17306 -11048205.37006     -2032.83206        39.00006
R15  20251673.65806 108281501.59106      2110.09006        38.50006
R05  20850052.50927 111518199.52127       971.10127        43.30027
R04  20681221.98826 110809834.62026     -1178.80526        35.80026
R14  20651070.36125 110144370.47225     -1916.85725        35.00025
E12  26246712.47925 -16129238.03125       949.01125        34.70025                                                                
C09  38041359.31526  -2811091.42126     -1045.46326        35.90026                                                                
C22  24041021.84705 -14579997.06105     -2195.37105        34.90005  24041013.15324 -10995143.97724     -1654.94724        24.30024
R19  23059278.89325 123414357.49125     -4322.94525        34.70025
E26  26195404.79925 -15888904.57725     -3521.74825        32.50025  26195282.48324 -11649586.81424     -2626.40724        25.40024
C26  23217960.24125   -438205.11625      2102.42725        32.10025  23217902.38124 -11526957.42124      1586.23924        26.40024
E27  26192796.90425 -10907761.11125      1145.45625        31.30025  26192739.34406 -11043945.04606       851.96906        36.40006
C21  22333207.64226    -47371.97626      -192.53026        35.50026  22333191.15325   2039247.25725      -167.71625        31.60025
R16  23684847.42125 126582880.23625      3945.52925        29.60025
E07  26558805.72124 -13857113.90124     -2195.98324        29.10024  26558741.56623 -10355718.34423     -1649.55823        21.60023
C36  25490626.30724 -14356684.62724     -3168.62624        29.00024  25490614.61524 -10826965.62824     -2391.97524        26.60024
C13  40373740.44125    109767.98225     -1405.50625        31.70025                                                                
R21  23365795.39624 125097877.60824       868.91124        26.30024
R03  23561129.96924 126187381.05224     -2700.57624        26.20024
E21  27468149.69624 -16028942.99724      2197.31724        27.50024                                                                
R20  21790606.67725 116586909.26225     -2094.39225        33.90025
E19  24446585.58124 -15515591.70824       539.45224        23.60024                                                                
C14  26312618.85323 -10531593.75023      1848.86523        20.10023                                                                
> 2025 10 05 09 11 23.0000098  0 35                      
G07  21680682.37607   -923475.04207      1275.82807        46.90007                                                                
G09  20755358.56407    -85221.65307       184.63807        45.60007  20755367.85806  -6426189.13906       137.47106        39.50006
G04  21409096.79116 -13359971.26916     -1686.10616        39.10016  21409105.78425  -7401825.43225     -1256.13325        31.30025
G03  21299614.98325    405624.04625     -2716.23025        35.40025  21299606.58925    295018.57325     -2030.86525        32.10025
G16  22692553.27216    -43731.19216       -96.57616        39.60016                                                                
G30  23970081.95825 -11141891.15925      2566.97025        30.10025  23969829.83224 -11392479.67024      1916.83824        25.70024
G11  24682225.75124   -548931.18524      1752.47024        25.30024                                                                
G06  22488592.17205     -6292.56805      -376.20505        33.70005  22488491.14224    -12352.90624      -273.69224        26.10024
E33  24331124.11307 -13345404.17907     -1826.82107        43.80007  24331133.40706   2256692.71806     -1364.00506        38.80006
E29  23895865.63627     96251.27427      -929.45027        43.60027  23895856.04305   2154043.20305      -691.08205        33.30005
E30  27400101.00517 -13285241.35217      -955.52617        41.70017  27400122.59025 -11648954.90525      -708.66425        32.90025
R05  20849861.24117 111517187.60917       960.63417        42.60017
C34  25510966.32606    321499.72106     -2711.23006        38.30006  25510982.51406 -11046166.65206     -2043.20706        38.50006
R15  20251267.13906 108279340.08306      2094.36906        38.30006
E12  26246528.70626 -16130177.26026       932.95926        35.60026                                                                
R04  20681456.42616 110811100.38316     -1194.09316        35.80016
R14  20651436.10825 110146329.87825     -1932.27525        35.40025
C09  38041573.66726  -2810037.77426     -1059.51426        35.70026                                                                
C22  24041457.14625 -14577795.68725     -2206.91825        34.80025  24041434.06214 -10993483.55714     -1665.30814        28.30014
R19  23060049.66025 123418490.63025     -4340.80525        34.40025
E26  26196094.02125 -15885371.97225     -3539.43025        32.50025  26196042.15724 -11646952.11124     -2640.06524        25.10024
E27  26192586.75025 -10908898.74825      1131.30325        31.50025  26192522.29406 -11044790.60906       840.81506        37.30006
C26  23217566.31325   -440303.87825      2094.50125        32.00025                                                                
C21  22333229.52725    -47172.20825      -205.38625        34.80025  22333217.83525   2039412.65825      -167.67225        30.80025
R16  23684084.45025 126578813.24825      3933.13925        29.50025
C36  25491202.20824 -14353511.13324     -3173.49324        29.00024  25491220.79524 -10824574.88424     -2392.17324        26.50024
E07  26559211.04124 -13854913.35524     -2205.25324        29.10024  26559235.62424 -10354070.60624     -1649.59024        24.60024
C16  39974448.06524 -16246534.06324     -1385.66224        27.10024                                                                
C13  40374032.43925    111176.59325     -1411.87325        30.90025                                                                
R21  23365563.95724 125096647.94124       859.35124        26.50024
R03  23561617.73124 126190002.08324     -2710.43924        26.60024
R20  21791004.50125 116589046.26725     -2103.23325        32.60025
E19  24446471.96024 -15516130.02024       534.59524        23.80024                                                                
C14  26312275.59123 -10533436.91223      1837.42923        19.90023                                                                
G01                                                                  24544193.80824 -11029005.81024     -3064.24824        24.40024
> 2025 10 05 09 11 24.0000102  0 36                      
G07  21680448.83807   -924750.93807      1272.86907        46.70007                                                                
G09  20755332.18307    -85405.87307       181.10707        45.50007  20755342.07606  -6426326.80906       135.53506        38.90006
G04  21409427.16206 -13358285.75006     -1688.22206        39.00006  21409436.15625  -7400566.16625     -1262.43025        32.70025
G03  21300133.02515    408343.89915     -2724.53915        35.20015  21300133.62425    297049.89625     -2033.81625        31.80025
G06  22488682.40925     -5916.11325      -379.77325        34.00025  22488574.78424    -12073.65024      -281.88224        25.90024
G16  22692580.25426    -43633.96426      -100.07726        38.60026                                                                
G30  23969619.07825 -11144456.41725      2561.56725        30.10025  23969352.26324 -11394389.50824      1905.59924        25.30024
G26  24528076.36624 -16540374.69824     -2731.65924        29.40024                                                                
G01  24544935.79525 -16479835.84425     -4100.49325        29.80025  24544985.86024 -11025938.01024     -3072.06824        24.20024
G11  24681888.48424   -550681.34824      1747.48424        25.70024  24681896.27923 -11879735.42323      1302.08623        21.20023
E33  24331478.16807 -13343577.44207     -1829.78107        44.10007  24331492.25806   2258056.74406     -1366.29206        38.60006
E29  23896043.71327     97179.41227      -930.87327        43.50027  23896043.71305   2154734.24805      -693.13405        33.60005
E30  27400314.15707 -13284287.48107      -956.40907        41.60007  27400316.25625 -11648242.54725      -715.50625        32.00025
R05  20849690.36007 111516220.06107       957.78807        42.10007
C34  25511494.26006    324210.73206     -2713.96606        38.50006  25511512.54706 -11044123.60106     -2045.21706        38.20006
R15  20250884.30506 108277239.74506      2092.59406        38.10006
E12  26246361.72226 -16131106.99526       924.98926        36.40026                                                                
R14  20651810.24926 110148268.69826     -1938.11626        35.70026
R04  20681679.77126 110812241.26326     -1194.67926        35.70026
C09  38041779.32426  -2808976.86826     -1064.53526        35.60026                                                                
C22  24041892.14425 -14575587.20225     -2212.04125        34.70025  24041861.86514 -10991830.13614     -1649.92014        27.80014
R19  23060856.70125 123422753.12725     -4352.50625        34.10025
E27  26192373.59725 -10910027.84825      1124.83025        31.90025  26192318.13506 -11045631.86906       839.10806        37.80006
C26  23217238.04125   -442394.75825      2086.93825        31.90025                                                                
C21  22333281.69125    -46965.09325      -210.78725        34.20025  22333266.70125   2039574.43325      -159.96125        30.30025
R16  23683424.00725 126575230.85025      3925.16925        29.50025
C36  25491821.27924 -14350328.61924     -3187.02224        29.10024  25491842.56524 -10822179.43424     -2397.80324        26.40024
C16  39974730.77024 -16245146.25124     -1387.81224        27.50024                                                                
C13  40374290.26025    112598.54225     -1428.61825        30.30025                                                                
R21  23365408.06524 125095759.00424       848.55724        26.70024
R03  23562120.48324 126192638.43024     -2721.69124        26.60024
R20  21791503.05625 116591656.89225     -2109.40025        31.40025
E19  24446393.71424 -15516661.73424       528.41424        23.90024                                                                
C14  26311938.32423 -10535271.28423      1829.97623        19.70023                                                                
E26  26196779.34725 -15881827.41025     -3550.78925        32.50025  26196633.34824 -11644321.84824     -2628.04224        25.80024
E07  26559652.93524 -13852706.27624     -2210.34424        29.00024  26559667.92524 -10352420.04624     -1651.97024        27.60024
> 2025 10 05 09 11 25.0000105  0 34                      
G07  21680209.90307   -926021.50907      1267.91007        46.60007                                                                
G09  20755297.70607    -85584.90707       177.19107        45.40007  20755306.40006  -6426460.76806       132.10406        38.70006
G04  21409746.44106 -13356594.81206     -1692.89606        39.30006  21409758.43325  -7399303.41725     -1264.48925        32.50025
G03  21300645.07025    411066.08525     -2723.35225        35.10025  21300649.56725    299084.26525     -2035.89225        31.30025
G06  22488756.45825     -5536.31925      -381.46425        34.00025  22488643.73624    -11787.41624      -289.72224        25.60024
G16  22692565.56426    -43530.44326      -106.66826        37.70026                                                                
G30  23969123.22125 -11147019.56325      2562.08925        30.10025  23968922.66024 -11396307.48824      1922.05024        25.20024
G01  24545784.50725 -16475735.93025     -4099.91225        29.70025  24545769.21824 -11022872.41224     -3064.49524        23.90024
G11  24681585.69424   -552430.11124      1748.06324        25.80024  24681576.10023 -11881037.66323      1302.23923        21.10023
E33  24331824.42807 -13341745.41107     -1834.67807        44.30007  24331839.11806   2259424.92506     -1370.25906        38.30006
E29  23896212.19717     98109.82917      -931.55517        43.30017  23896217.59305   2155429.00405      -696.61205        33.60005
R05  20849508.08607 111515254.80207       953.12207        42.00007
E30  27400479.94206 -13283328.11006      -962.12106        41.40006  27400500.32825 -11647524.93425      -720.24125        31.10025
C34  25512013.80006    326925.92506     -2717.28506        38.70006  25512032.08806 -11042076.92606     -2048.48506        37.70006
R15  20250489.17816 108275137.10916      2087.81616        38.00016
E12  26246186.04326 -16132033.95526       925.57126        36.70026                                                                
R04  20681910.01216 110813484.80616     -1200.62616        35.80016
R14  20652168.80126 110150190.73126     -1939.00626        35.80026
C09  38041979.28616  -2807912.41216     -1066.23016        35.50016                                                                
C22  24042342.43325 -14573377.43125     -2210.41325        34.60025  24042288.17014 -10990162.49514     -1674.75014        27.40014
R19  23061736.29215 123427467.20015     -4338.06015        33.90015
E26  26197452.68125 -15878290.36025     -3533.29325        32.40025  26197463.17414 -11641681.18514     -2645.86314        25.50014
C26  23216816.53225   -444486.23025      2091.76725        31.90025  23216741.28424 -12304740.03024      1574.43824        24.30024
E27  26192145.45525 -10911154.19825      1124.97525        31.80025  26192101.38606 -11046469.40706       835.67706        37.70006
C21  22333308.67225    -46755.71625      -210.50825        33.70025  22333306.27425   2039730.83425      -153.71425        30.10025
R16  23682660.43525 126571161.56925      3929.57725        29.50025
E07  26560074.74324 -13850497.80824     -2209.16224        29.00024  26560087.33424 -10350771.37424     -1647.72824        27.00024
C36  25492445.74724 -14347145.76024     -3183.03024        29.10024  25492450.54424 -10819781.63624     -2398.97124        26.30024
C13  40374542.68625    114024.13225     -1427.41025        29.90025                                                                
R21  23365185.91824 125094579.87024       846.43724        26.70024
R03  23562626.53324 126195358.25724     -2710.92424        26.50024
R20  21791929.96125 116593949.21325     -2109.44725        30.50025
E19  24446288.48724 -15517195.78724       535.22424        24.10024                                                                
C14  26311590.26523 -10537109.10423      1839.54323        19.60023                                                                
> 2025 10 05 09 11 26.0000108  0 35                      
G07  21679947.58507   -927288.65707      1265.43407        46.60007                                                                
G09  20755243.44407    -85761.05607       174.45707        45.30007  20755253.63706  -6426592.37206       130.42706        38.60006
G06  22488803.22525     -5151.43025      -387.43525        34.10025  22488696.49924    -11498.11424      -290.83624        25.40024
G16  22692603.93726    -43420.95126      -112.47626        36.90026                                                                
G01  24546600.24225 -16471630.11325     -4108.76825        29.90025  24546519.29824 -11019802.01424     -3072.79724        23.50024
G30  23968593.78825 -11149580.66225      2560.07525        30.10025  23968415.41124 -11398218.28424      1907.20324        24.90024
G11  24681228.04124   -554172.56724      1739.30124        26.10024  24681222.04623 -11882338.05023      1299.46123        21.00023
G04  21410053.72806 -13354901.11906     -1695.32106        39.70006  21410060.32425  -7398037.99925     -1266.75225        32.30025
G03  21301163.11225    413796.71425     -2734.84925        34.90025  21301148.72225    301121.84325     -2039.18225        30.80025
R05  20849315.91908 111514333.14608       950.66308        48.40008
E33  24332165.89207 -13339910.02007     -1837.07007        44.50007  24332168.59016   2260795.45716     -1371.70716        37.60016
E29  23896370.78707     99043.23507      -934.90107        43.10007  23896374.98415   2156125.96715      -698.06715        33.50015
C34  25512520.15006    329645.04106     -2721.07506        39.00006  25512533.94006 -11040027.78506     -2050.37406        36.70006
R15  20250082.36006 108273069.64906      2083.85906        37.90006
E12  26245994.47626 -16132955.62426       919.02326        36.70026                                                                
C09  38042162.15906  -2806844.21906     -1070.06106        36.00006                                                                
R14  20652499.17216 110152056.33016     -1942.97716        36.10016
R04  20682124.06316 110814736.78516     -1203.65216        35.90016
C22  24042739.65825 -14571162.12225     -2218.07725        34.50025  24042692.29004 -10988491.67604     -1672.40904        27.10004
C13  40374802.30625    115452.49725     -1429.75225        29.90025                                                                
R19  23062539.13625 123431867.46825     -4349.30225        33.70025
C26  23216361.74725   -446573.29325      2084.85825        31.90025  23216323.67424 -12306308.19024      1568.16024        24.10024
E27  26191883.43625 -10912277.18725      1121.30825        31.80025  26191868.14706 -11047304.26206       833.51406        37.40006
C21  22333335.35425    -46542.01825      -215.85925        33.30025  22333328.45825   2039884.68925      -152.58225        29.80025
E26  26198032.48025 -16723168.50725     -3534.79825        31.70025  26197966.82524 -11639037.00424     -2645.93924        29.00024
R16  23681863.28724 126567009.74924      3918.53424        29.40024
E07  26560468.37024 -13848286.36524     -2212.93024        29.10024  26560489.65624 -10349123.83224     -1646.97524        26.60024
C36  25493029.74324 -14343956.41124     -3192.59524        29.10024  25493043.23324 -10817384.04324     -2397.48924        26.10024
R21  23365038.72024 125093898.42924       846.28224        26.90024
R03  23563257.59624 126198842.50124     -2717.88324        26.50024
R20  21792250.43925 116595769.45925     -2108.65225        29.80025
C16  39975000.58324 -16522883.00324     -1379.51324        24.50024                                                                
E19  24446167.07124 -15517731.17424       536.05224        24.20024                                                                
C14  26311221.52023 -10538952.97523      1846.89623        19.50023                                                                
E30                                                                  27400668.81225 -11646801.93125      -725.69725        30.30025
> 2025 10 05 09 11 27.0000111  0 34                      
G07  21679708.65007   -928550.77307      1259.60007        46.60007                                                                
G09  20755206.86907    -85932.30207       168.79407        45.30007  20755219.16106  -6426720.06106       125.73106        38.50006
G04  21410375.40606 -13353202.32106     -1701.34906        40.00006  21410382.30125  -7396770.91325     -1267.92025        32.10025
G06  22488828.10825     -4759.76325      -395.05625        34.10025  22488773.24624    -11209.83224      -287.77224        25.20024
G03  21301701.83925    416528.20825     -2731.92625        34.80025  21301667.66225    303162.77925     -2042.61425        30.80025
G16  22692627.92116    -43309.30816      -112.72016        36.30016                                                                
G30  23968105.12625 -11152139.59625      2557.85225        30.00025  23967928.54824 -11400121.95924      1900.11424        24.90024
G11  24680866.19224   -555907.62424      1731.35824        26.50024  24680880.58223 -11883636.01523      1296.75423        20.90023
R05  20849136.04308 111513380.89008       944.58908        51.10008
E33  24332501.66007 -13338069.28607     -1843.40607        44.70007  24332517.84806   2262170.00706     -1376.55806        37.40006
E29  23896551.26207     99981.88707      -941.27407        43.00007  23896552.76115   2156826.89515      -702.90915        33.50015
C34  25513037.29206    332368.68606     -2725.91006        39.70006  25513055.27926 -11037975.74426     -2053.49026        36.30026
R15  20249704.62106 108271060.29206      2076.51106        37.80006
C09  38042364.81906  -2805771.31706     -1075.25706        36.40006                                                                
R14  20652859.22306 110153985.99006     -1950.38606        36.30006
C13  40375078.71516    116886.82816     -1437.31416        37.20016                                                                
R04  20682338.41526 110815893.74726     -1212.02526        36.00026
C22  24043183.95025 -14568943.75225     -2219.90125        34.50025  24043117.99624 -10986817.18924     -1676.31924        26.90024
R19  23063362.06725 123436279.97525     -4352.90325        33.70025
E12  26245842.78126 -16133872.43026       914.37526        36.60026  26245857.77123 -12091436.18923       676.34023        19.90023
E26  26198744.48725 -16719624.00325     -3548.12425        31.40025  26198599.98724 -11636393.34124     -2643.40324        27.40024
E27  26191701.46225 -10913394.98325      1115.19925        31.70025  26191651.69706 -11048135.46706       829.37906        36.70006
C21  22333380.32325    -46322.50425      -222.42125        33.00025  22333367.43125   2040044.80725      -163.25025        29.50025
R16  23681160.87324 126563266.83524      3917.14624        29.40024
E30  27401143.38326 -16809810.23526      -965.08826        36.60026  27400848.38725 -11646071.24825      -734.52325        29.50025
C36  25493621.83324 -14340758.40624     -3202.33224        29.00024  25493655.70924 -10814982.61724     -2403.34324        25.90024
E07  26560870.09224 -16799804.76724     -2216.65824        28.60024  26560907.26724 -10347475.60424     -1648.57224        26.40024
R21  23364909.51024 125093216.21424       832.22124        27.20024
R03  23563710.28324 126201274.34024     -2734.20424        26.70024
C16  39975229.92424 -16521496.40324     -1386.60024        25.90024                                                                
R20  21792692.63324 116598144.42024     -2126.58624        29.20024
E19  24446060.34524 -15518258.16324       522.79024        24.60024                                                                
C14  26310887.55223 -10540798.07223      1845.71023        19.50023                                                                
G01                                                                  24547298.45923 -11016727.19723     -3077.02623        23.20023
> 2025 10 05 09 11 28.0000115  0 35                      
G07  21679476.31107   -929805.73207      1251.38007        46.50007                                                                
G09  20755190.08107    -86096.44607       160.59207        45.20007  20755197.87606  -6426842.73906       120.17206        37.90006
G04  21410707.27606 -13351496.84706     -1708.81106        40.40006  21410718.06825  -7395498.35225     -1275.29825        31.90025
G06  22488886.56825     -4364.93125      -396.41425        34.10025  22488861.08524    -10912.03524      -302.55424        25.10024
G03  21302249.56025    419266.09825     -2741.08725        34.60025  21302200.09425    305208.91425     -2048.73425        30.70025
G16  22692673.78926    -43189.67926      -123.62226        35.80026                                                                
G30  23967600.27625 -11154686.64725      2541.10825        29.80025  23967395.81724 -11402021.12324      1896.90724        24.40024
G11  24680542.11624   -557634.65524      1723.01724        26.60024  24680566.10023 -11884940.28023      1307.41423        20.80023
R05  20848969.65908 111512437.05608       936.68608        51.50008
E33  24332863.80907 -13336221.63307     -1851.11107        44.80007  24332879.99816   2263549.72716     -1382.30416        37.10016
E29  23896735.33407    100927.99907      -949.84307        42.80007  23896743.12905   2157533.25405      -709.07505        33.50005
C34  25513571.82206    335098.79506     -2733.34006        40.50006  25513591.30826 -11035916.26826     -2063.19326        35.90026
R15  20249314.89106 108268922.49306      2069.06706        37.80006
C09  38042585.46606  -2804691.86606     -1082.72406        36.60006                                                                
R14  20653232.76406 110155921.76006     -1957.18806        36.40006
R04  20682563.85926 110817046.12126     -1219.19526        36.10026
C13  40375363.81706    118327.58706     -1443.97106        37.00006                                                                
C22  24043631.84025 -14566718.21425     -2229.12125        34.90025  24043557.19224 -10985135.89324     -1684.70124        26.70024
R19  23064143.62625 123440406.99825     -4360.19425        33.70025
C26  23215523.52725   -450717.15225      2063.98425        31.70025                                                                
E27  26191496.10525 -10914504.28125      1105.04925        31.70025  26191450.83606 -11048961.80306       823.90306        36.50006
C21  22333429.48825    -46097.10325      -228.34425        32.80025  22333421.99424   2040211.57824      -170.09724        29.20024
E26  26199393.23725 -16716071.62725     -3552.37425        31.40025  26199294.60624 -11633732.20124     -2669.87724        26.10024
R16  23680416.78925 126559238.07225      3909.70025        29.70025
C36  25494260.09124 -14337558.38824     -3201.02324        29.00024  25494279.57824 -10812574.01924     -2412.18124        25.80024
E12  26245660.20825 -16134784.50225       909.70425        35.20025  26245696.18323 -12092110.32923       674.14023        20.20023
R21  23364723.63824 125092167.25324       826.00424        27.40024
C16  39975508.73124 -16520099.98424     -1401.32824        26.80024                                                                
R03  23564276.29124 126204249.99924     -2738.70024        26.70024
E07  26561268.21724 -16797583.89224     -2220.87524        28.20024  26561250.82924 -10345821.31724     -1657.31524        25.80024
R20  21793097.65224 116600254.65124     -2129.77024        28.70024
E19  24445976.10324 -15518774.18724       510.54124        25.00024                                                                
E30  27401346.94225 -16808839.79825      -970.43725        34.90025  27401042.95324 -11645344.31324      -725.06024        28.70024
C14  26310538.29323 -10542637.19023      1836.12823        19.60023                                                                
G01                                                                  24548094.10823 -11013653.41423     -3073.26423        22.90023
> 2025 10 05 09 11 29.0000119  0 35                      
G07  21679241.27407   -931057.44507      1250.08907        46.50007                                                                
G09  20755169.39507    -86257.64907       159.73407        45.10007  20755177.49006  -6426963.09906       119.20006        37.80006
G04  21411042.74406 -13349788.28106     -1710.11206        40.80006  21411054.73525  -7394222.74925     -1277.12325        31.80025
G06  22488972.60825     -3964.89925      -402.63225        34.00025  22488933.03624    -10602.76724      -315.00524        24.90024
G16  22692711.56325    -43064.32625      -128.21425        35.40025                                                                
G01  24549047.74825 -16459303.77225     -4116.07225        30.30025  24548882.56223 -11010578.95023     -3074.80323        22.50023
G30  23967101.72125 -11157223.82025      2532.23325        29.70025  23966923.34424 -11403916.64124      1893.69424        23.90024
G11  24680244.72224   -559359.68124      1724.02424        26.60024  24680249.51923 -11886227.56823      1278.79823        20.70023
R05  20848805.07308 111511503.92808       935.64808        51.50008
E33  24333232.25407 -13334370.48607     -1852.89307        44.90007  24333237.05126   2264933.18126     -1385.32126        36.30026
E29  23896915.51007    101876.51407      -949.71507        42.70007  23896932.59825   2158241.08025      -708.56025        33.00025
C34  25514105.75216    337832.13516     -2734.95416        40.80016  25514121.34125 -11033852.06025     -2066.57325        34.20025
C09  38042802.21606  -2803609.34406     -1084.05806        37.30006                                                                
R15  20248941.35006 108266874.91306      2066.73006        37.70006
R14  20653623.69406 110157953.63006     -1959.85306        36.90006
R04  20682797.99716 110818247.53116     -1218.16816        36.70016
C22  24044072.83525 -14564486.68825     -2234.51825        35.10025  24043996.68724 -10983454.60724     -1681.28024        26.50024
C13  40375653.11706    119771.31506     -1445.21206        36.80006                                                                
R19  23064930.58115 123444563.10615     -4367.13715        33.60015
E26  26200058.47715 -16712516.13015     -3557.05515        32.00015  26199982.03024 -11631065.58724     -2669.35024        24.90024
E27  26191289.54825 -10915610.59725      1104.82525        31.80025  26191252.67306 -11049785.26506       822.02306        36.30006
C26  23215173.67025   -452779.53325      2062.38025        31.90025                                                                
C21  22333463.96525    -45866.44625      -233.28625        32.60025  22333475.65724   2040383.79324      -174.93724        28.90024
R16  23679662.81125 126555158.09825      3904.88125        30.30025
C36  25494914.53824 -14334352.95224     -3208.14424        28.90024  25494908.54224 -10810163.22924     -2411.88624        25.60024
E19  24445894.55924 -15519286.15724       509.94324        27.00024                                                                
E12  26245486.62825 -16135687.11225       897.88025        34.10025  26245530.99723 -12092785.39623       675.52923        23.00023
C16  39975796.53224 -16518700.54524     -1400.94824        27.70024                                                                
R21  23364594.42824 125091423.02724       829.85024        28.00024
E07  26561742.18924 -16795356.86724     -2230.09924        27.90024  26561690.32424 -10344156.16524     -1670.58424        24.70024
R03  23564830.30724 126207162.85324     -2735.12024        26.70024
R20  21793565.92824 116602705.36524     -2136.46624        28.20024
C14  26310217.21623 -10544468.32123      1827.13723        20.10023                                                                
G03                                                                  21302731.62625    307255.52225     -2046.84325        29.90025
E30                                                                  27401246.21224 -11644615.98224      -729.03024        28.00024
> 2025 10 05 09 11 30.0000122  0 35                      
G07  21678991.84627   -932303.38427      1243.05127        46.50027                                                                
G09  20755114.23307    -86413.46007       153.11407        45.10007  20755127.72406  -6427079.42406       114.30806        37.70006
G04  21411349.43106 -13348074.50206     -1716.38506        41.00006  21411356.02725  -7392944.23525     -1279.96925        31.90025
G06  22489008.28425     -3561.28225      -405.41125        33.90025  22488993.29424    -10291.53424      -312.21424        24.70024
G01  24549801.42625 -16455186.39525     -4117.37625        30.50025                                                                
G03  21303297.33425    424760.23525     -2749.81725        31.20025  21303236.47625    309312.14725     -2061.63325        29.80025
G30  23966592.97325 -11159760.67225      2536.69125        29.50025  23966414.29723 -11405813.08023      1896.90023        23.40023
G11  24679885.27124   -561080.05024      1718.03924        26.60024  24679898.76224 -11887511.18724      1281.78524        24.40024
G16  22692694.47525    -42933.46225      -133.61925        35.10025                                                                
R05  20848607.50908 111510554.73908       929.43808        51.40008
E33  24333552.13207 -13332513.75907     -1859.51607        45.00007  24333573.71716   2266319.68716     -1388.03316        36.10016
R04  20683011.44907 110819496.44507     -1225.06907        44.70007
C34  25514618.39706    340570.61306     -2741.04606        41.30006  25514627.39125 -11031786.60625     -2066.07725        33.40025
E29  23897096.58417    102829.77017      -955.62617        42.50017  23897093.28725   2158951.51925      -711.74525        32.80025
R15  20248522.54026 108264742.46426      2064.41226        37.60026
C09  38042991.98506  -2802521.33906     -1090.74606        37.50006                                                                
R14  20653972.65206 110159918.38306     -1965.75806        37.20006
C13  40375903.44426    121220.61326     -1452.08326        36.50026                                                                
C22  24044475.75625 -14562253.02925     -2234.72425        35.10025  24044414.29824 -10981759.04724     -1702.69724        26.20024
R19  23065790.98525 123449271.82825     -4370.83225        33.60025
C26  23214829.50825   -454845.36325      2067.55525        32.50025                                                                
E26  26200737.50705 -16708955.64205     -3562.98305        32.40005  26200672.75224 -11628395.65524     -2671.59124        24.50024
E27  26191021.23325 -10916712.41725      1099.57125        31.80025  26191024.23106 -11050604.69706       817.41706        36.80006
E19  24445768.34725 -15519794.45025       506.45525        30.10025  24445774.34323 -12354644.94123       392.51323        19.40023
C21  22333495.74325    -45632.94825      -234.91825        32.50025  22333499.64024   2040559.55424      -177.53424        28.60024
R16  23678917.22725 126551279.90725      3900.38425        33.00025
C36  25495505.72925 -14331144.25525     -3210.32625        29.70025  25495504.23024 -10807748.07524     -2417.33624        25.40024
E07  26562158.30024 -16793123.14324     -2237.07224        27.90024  26562090.24824 -10342489.18824     -1667.88924        26.10024
C16  39976039.36424 -16517294.10124     -1409.94624        28.30024                                                                
E12  26245288.46525 -16136587.49725       899.27125        33.20025  26245341.22823 -12093463.67823       679.88923        22.60023
R21  23364410.65524 125090546.34124       819.90024        28.10024
R03  23565357.04324 126210088.72824     -2743.65624        26.70024
R20  21793914.28724 116604674.04724     -2136.29924        27.80024
C14  26309807.99923 -10546289.73723      1816.55823        20.40023                                                                
E30                                                                  27401416.19424 -11643889.81824      -725.07924        27.30024
> 2025 10 05 09 11 31.0000126  0 34                      
G07  21678783.49017   -933547.48317      1243.17917        46.40017                                                                
G09  20755116.33207    -86567.50507       153.16307        45.00007  20755124.72606  -6427194.44206       114.36406        37.50006
G04  21411706.18406 -13346358.91606     -1716.48806        41.00006  21411711.58125  -7391664.32325     -1280.61125        31.40025
G06  22489130.59925     -3156.84025      -404.85325        33.80025  22489104.51724     -9979.37824      -312.61724        24.50024
G01  24550629.45325 -16451064.10825     -4124.73925        30.60025                                                                
G03  21303853.74925    427509.89825     -2749.66225        30.90025  21303788.69425    311374.86925     -2065.76925        29.60025
G30  23966120.80024 -11162300.25624      2540.94824        29.40024  23965966.70623 -11407694.08823      1873.29223        22.90023
G11  24679583.38024   -562801.46624      1721.94024        26.60024  24679604.06624 -11888792.48224      1280.13324        24.00024
G16  22692757.13125    -42800.25425      -134.38125        34.80025                                                                
R05  20848464.80808 111509640.72408       929.18708        51.40008
E33  24333953.25507 -13330654.95407     -1859.84307        45.00007  24333955.65306   2267707.87906     -1389.03406        35.60006
R04  20683265.67307 110820707.04207     -1225.47207        44.60007
C34  25515167.31707    343310.98207     -2741.31407        42.30007  25515186.20425 -11029721.02325     -2065.64725        33.30025
E29  23897299.24407    103784.72107      -955.79907        42.30007  23897304.64025   2159664.28525      -713.93025        32.90025
C09  38043226.42206  -2801431.70306     -1090.45106        37.60006                                                                
R15  20248175.08016 108262735.40016      2058.22816        37.60016
R14  20654386.96526 110161976.94126     -1966.05826        37.30026
C22  24044939.23525 -14560018.20325     -2235.41025        35.00025  24044872.08124 -10980062.24024     -1697.42924        26.00024
C13  40376208.63216    122670.66916     -1450.43416        36.20016                                                                
C26  23214472.15525   -456909.52225      2063.32225        33.10025                                                                
R19  23066637.29925 123453647.59625     -4364.17325        33.50025
E19  24445708.68825 -15520302.02125       507.21025        32.20025  24445702.09324 -12355027.97124       383.02924        23.90024
E26  26201381.76125 -16705391.91125     -3565.35125        32.40025  26201379.06324 -11625730.04924     -2663.44124        24.20024
E27  26190860.54525 -10917808.89425      1093.80425        31.80025  26190844.35606 -11051422.68306       817.26306        38.40006
C21  22333571.89025    -45399.44725      -233.50325        32.30025  22333574.58824   2040739.10624      -181.44724        28.30024
R16  23678243.29325 126547529.34925      3905.99525        32.60025
C36  25496155.67925 -14327933.75025     -3211.40825        30.20025  25496146.98524 -10805338.15324     -2407.30424        25.20024
E07  26562621.78024 -16790890.75724     -2231.71624        28.80024  26562545.03324 -10340818.92824     -1671.90124        25.30024
E12  26245131.07425 -16137487.67625       900.07625        32.50025  26245194.03023 -12094151.05023       691.91823        22.30023
R21  23364335.10724 125089990.46124       813.17924        28.10024
C16  39976350.84824 -16515886.31124     -1408.46324        28.30024                                                                
R03  23565871.48724 126212690.60124     -2748.39024        26.70024
R20  21794272.23924 116606437.66524     -2144.24624        27.40024
C14  26309483.62323 -10548108.27023      1817.09023        20.60023                                                                
> 2025 10 05 09 11 32.0000129  0 34                      
G07  21678527.16807   -934788.63707      1239.68107        46.40007                                                                
G09  20755068.66507    -86718.44907       149.39207        45.00007  20755077.05906  -6427307.25406       111.70906        37.30006
G04  21412007.47626 -13344638.70426     -1723.27526        41.00026  21412020.66725  -7390381.70225     -1283.97625        31.20025
G06  22489202.54925     -2745.86825      -414.23825        33.80025  22489160.87824     -9668.72524      -309.90224        24.30024
G16  22692754.43325    -42663.64625      -138.30825        34.50025                                                                
G01  24551403.81725 -16446938.24125     -4127.65725        30.70025  24551426.30123 -12806961.88423     -3075.86723        23.40023
G03  21304411.06325    430260.36725     -2750.87025        30.70025  21304297.14224    313441.18024     -2068.10624        29.20024
G30  23965615.05024 -11164837.05524      2535.40624        29.20024  23965464.25423 -11409580.00023      1888.36523        22.50023
G11  24679259.00524   -564517.58324      1713.46624        26.70024  24679255.40724 -11890073.12224      1280.31124        23.60024
R05  20848269.64308 111508703.00508       925.52608        51.40008
E33  24334281.52707 -13328793.16407     -1863.28207        45.50007  24334287.52325   2269100.28725     -1394.51425        35.00025
R04  20683477.92607 110821949.06007     -1228.89607        44.50007
C34  25515673.96607    346053.52707     -2743.63307        43.00007  25515694.05325 -11027656.38025     -2064.17225        33.10025
E29  23897458.73407    104742.95907      -959.88007        42.10007  23897467.72725   2160381.88825      -720.02125        33.10025
C09  38043419.48906  -2800339.58606     -1093.35806        38.20006                                                                
R15  20247784.75016 108260755.10216      2057.54816        37.60016
R14  20654719.73526 110163857.03126     -1972.61626        37.30026
C22  24045346.65325 -14557778.47825     -2242.17325        35.10025  24045278.30024 -10978372.74724     -1685.83624        25.70024
C13  40376476.64726    124124.80326     -1456.17226        35.90026                                                                
C26  23214048.54925   -458968.24525      2056.00425        33.10025                                                                
R19  23067459.33015 123458150.42815     -4368.77715        33.30015
E27  26190644.39425 -10918903.35725      1093.45625        31.90025  26190617.11306 -11052238.51506       814.75406        39.20006
E26  26202048.79925 -16701821.87625     -3573.18625        32.30025  26202036.20824 -11623060.18224     -2671.99724        23.90024
E19  24445571.98325 -15520812.55325       512.01125        32.10025  24445588.17124 -12355408.23024       378.87324        23.70024
C21  22333617.15925    -45163.53425      -237.11825        32.10025  22333605.16724   2040923.71824      -187.14224        28.00024
C36  25496718.98925 -14324717.31325     -3219.40325        30.20025  25496743.87224 -10802922.46124     -2418.57624        24.90024
E12  26244960.19225 -16138384.48925       895.13025        32.00025  26245014.75423 -12094832.52823       678.53023        21.90023
R16  23677487.81625 126543599.94825      3895.01125        32.30025
R21  23364147.43724 125089092.33524       812.76224        28.20024
C16  39976588.28424 -16514479.53424     -1406.27024        28.20024                                                                
R03  23566437.49524 126215827.87424     -2749.84724        26.70024
R20  21794605.60924 116608326.77424     -2148.74624        27.00024
C14  26309128.96923 -10549926.94223      1818.74123        21.10023                                                                
E07  26563032.49524 -16788655.38824     -2236.86124        29.00024  26562947.95424 -10339161.39724     -1651.16624        24.50024
> 2025 10 05 09 11 33.0000133  0 35                      
G07  21678296.32807   -936032.62307      1245.40207        46.30007                                                                
G09  20755050.97707    -86873.16407       156.60207        44.90007  20755057.57306  -6427422.22006       116.04306        37.20006
G04  21412355.53526 -13342924.50726     -1710.93826        40.90026  21412357.33325  -7389098.76325     -1283.09725        31.10025
G06  22489281.39426     -2338.61326      -405.39626        38.80026  22489249.01724     -9360.03824      -307.70424        24.20024
G16  22692797.30325    -42533.88425      -126.33925        34.20025                                                                
G01  24552203.06425 -16442819.03325     -4115.87525        30.70025                                                                
G03  21304977.67125    433006.76425     -2744.36025        30.60025  21304830.77324    315512.23324     -2073.42324        28.80024
G30  23965123.39024 -11167375.29924      2538.96624        29.10024  23964986.08523 -11411472.38323      1895.61623        22.00023
G11  24678928.63324   -566229.73524      1710.17024        27.40024  24678900.75323 -11891354.57023      1281.85123        22.90023
R05  20848105.95708 111507775.99408       931.92808        51.70008
E33  24334646.07507 -13326934.19407     -1857.56007        45.80007  24334647.57425   2270488.30825     -1385.82725        33.90025
R04  20683718.36007 110823184.18307     -1223.48707        44.40007
C34  25516205.49927    348792.08527     -2736.56327        43.30027  25516231.88025 -11025593.51925     -2061.97025        32.80025
E29  23897650.30127    105698.90827      -954.80527        41.70027  23897660.19425   2161094.99725      -710.86125        33.10025
C09  38043634.14006  -2799250.64006     -1087.36006        38.70006                                                                
R15  20247400.41626 108258648.64626      2062.60926        37.50026
R14  20655087.88026 110165766.10526     -1963.28726        37.20026
C22  24045786.44825 -14555543.01125     -2233.33725        35.10025  24045716.29724 -10976688.57024     -1681.51824        25.30024
C13  40376759.35126    125575.64826     -1449.20026        35.60026                                                                
C26  23213666.31325   -461030.70525      2064.32825        33.10025                                                                
E27  26190464.51925 -10920004.43825      1104.38925        32.30025  26190418.65006 -11053056.64806       819.28406        39.50006
R19  23068303.54625 123462614.22425     -4366.90425        33.20025
E19  24445490.13925 -15521322.60125       509.80825        32.00025  24445498.83325 -12355788.00825       379.53725        30.90025
C21  22333653.43325    -44928.10625      -235.18525        32.00025  22333658.53024   2041104.84024      -179.37724        27.30024
E12  26244791.40925 -16139284.06625       900.95925        31.80025                                                                
C36  25497357.54725 -14321503.84825     -3211.97725        30.20025  25497368.93924 -10800503.28824     -2420.91324        24.60024
R16  23676816.88125 126539962.51925      3904.95325        31.80025
E07  26563475.88824 -16786422.01024     -2232.38024        29.00024  26563389.24824 -10337489.86124     -1678.53724        23.80024
R21  23363964.56424 125088060.98324       820.98924        28.20024
C16  39976866.49124 -16513073.63024     -1405.46624        28.10024                                                                
R03  23566929.75424 126218409.07324     -2749.41524        26.70024
R20  21795025.61824 116610519.63524     -2137.85924        26.70024
C14  26308767.12023 -10551750.02123      1825.28223        21.50023                                                                
E10  28261387.64822 -16972747.84122      1766.74522        16.00022                                                                
E26                                                                  26202873.82824 -11620407.33424     -2644.33724        23.70024
> 2025 10 05 09 11 34.0000137  0 36                      
G07  21678070.28407   -937276.89407      1244.41407        46.20007                                                                
G09  20755034.48907    -87027.17107       153.65207        44.80007  20755038.98506  -6427537.33106       115.18306        37.20006
G06  22489377.32816     -1929.54316      -409.97816        38.60016  22489338.95524     -9057.12824      -300.02124        24.20024
G16  22692846.16925    -42403.84325      -130.18025        34.10025                                                                
G04  21412677.51226 -13341207.80526     -1717.95426        39.60026  21412688.60425  -7387815.52925     -1283.38225        30.00025
G03  21305521.79425    435755.97825     -2750.62025        30.60025                                                                
G01  24553006.20825 -16438700.25425     -4118.56325        30.70025                                                                
G11  24678576.97724   -567944.42724      1715.96124        27.60024  24678579.67524 -11892638.78424      1285.59724        23.70024
G30  23964609.84624 -11169908.05524      2530.01124        28.90024  23964509.41523 -11413367.77223      1896.89223        21.50023
R05  20847944.36808 111506858.92708       930.29008        51.70008
E33  24335013.02107 -13325075.36407     -1858.75907        45.90007  24335015.71925   2271876.94025     -1388.93625        33.90025
C34  25516755.91717    351530.81417     -2738.81417        43.60017  25516774.20525 -11023529.59125     -2064.46025        32.60025
R04  20683951.29807 110824378.69707     -1224.15907        44.20007
E12  26244631.32025 -16140184.05425       900.19225        33.90025  26244636.41625 -13049604.29025       674.17625        29.60025
C09  38043855.68706  -2798161.81106     -1088.76906        38.80006                                                                
E29  23897847.86426    106654.44126      -954.57526        41.30026  23897852.66125   2161808.68225      -713.97425        33.10025
R15  20247013.08516 108256525.37216      2059.35416        37.50016
R14  20655457.82416 110167685.09516     -1968.43916        37.10016
C22  24046218.74915 -14553307.71915     -2235.20515        35.00015  24046154.89324 -10975009.94124     -1675.85524        25.00024
E19  24445389.70925 -15521831.07225       507.68125        32.40025  24445412.49325 -12356169.48225       382.32325        29.90025
C26  23213238.50925   -463095.44825      2065.88425        33.00025                                                                
E27  26190242.37225 -10921104.73525      1099.90425        32.80025  26190219.28806 -11053874.95006       818.38606        39.30006
R19  23069127.07625 123466967.03825     -4364.95225        33.00025
C21  22333714.59125    -44693.23925      -234.58725        31.80025  22333705.89724   2041283.59424      -177.57024        27.10024
C36  25497990.40925 -14318293.46125     -3208.84625        30.10025  25497999.40224 -10798082.44124     -2421.68424        24.30024
R16  23676109.97025 126536133.24425      3907.68825        31.40025
R21  23363829.35824 125087284.59924       819.14624        28.70024
E07  26563886.30424 -16784188.48024     -2233.60524        29.00024  26563823.94723 -10335824.02623     -1662.98523        23.10023
C16  39977164.48524 -16511665.23024     -1409.64824        28.20024                                                                
C13  40377055.24625    127023.91625     -1446.97925        34.90025                                                                
R03  23567468.78124 126221242.26724     -2743.23324        26.60024
R20  21795501.08924 116613009.36824     -2138.45024        26.40024
C14  26308412.76523 -10553577.76823      1830.08123        21.60023                                                                
E10  28261045.58522 -16974511.08122      1763.23922        16.10022                                                                
E21                                                                  27463067.01424 -12972802.13024      1614.88624        24.60024
E26                                                                  26203411.05623 -11617766.16623     -2635.32723        23.30023
> 2025 10 05 09 11 35.0000140  0 36                      
G07  21677819.05807   -938521.09107      1244.15807        46.20007                                                                
G09  20754982.62507    -87181.74907       154.86407        44.80007  20754991.31806  -6427652.89806       115.79406        37.40006
G06  22489418.69926     -1518.73426      -411.67926        38.30026  22489402.21124     -8753.17624      -304.47324        24.60024
G16  22692842.87225    -42269.94725      -135.82425        34.00025                                                                
G03  21306007.75825    438504.58725     -2748.30825        30.70025                                                                
G04  21413018.07626 -13339490.94426     -1716.94026        38.20026  21413001.28825  -7386534.60325     -1279.77025        29.90025
G01  24553773.07725 -16434577.72225     -4124.40725        30.60025                                                                
G11  24678226.81924   -569661.58824      1718.39424        28.00024  24678234.61423 -11893921.19523      1281.50923        23.10023
G30  23964114.28924 -11172437.65724      2528.02324        28.80024  23964007.26323 -11415269.74923      1905.27123        21.10023
R05  20847747.70508 111505913.56008       931.36108        51.70008
E33  24335349.38807 -13323216.42807     -1858.98907        46.30007  24335352.08625   2273264.52125     -1387.05525        33.90025
C34  25517262.86707    354269.55307     -2738.74307        43.70007  25517284.15225 -11021465.66525     -2063.92525        32.30025
R04  20684154.85807 110825573.97807     -1223.67207        44.10007
C09  38044050.55206  -2797073.72906     -1087.70806        38.70006                                                                
E29  23898010.95126    107607.98526      -953.55026        40.80026  23898011.25125   2162520.99525      -711.62625        32.90025
E12  26244442.15126 -16141084.80826       901.13726        38.00026  26244446.64825 -13050277.23925       672.94825        30.70025
R15  20246618.25816 108254521.37416      2060.96516        37.40016
R14  20655802.58526 110169628.49126     -1967.88926        37.00026
C22  24046625.26805 -14551072.53405     -2235.12905        34.90005  24046566.80824 -10973329.35824     -1681.56024        24.60024
E19  24445287.77915 -15522338.20315       506.46115        33.20015  24445292.57624 -12356550.22324       380.37324        29.40024
E26  26204184.52125 -17569336.33925     -3561.48025        31.40025  26204072.69823 -11615107.12123     -2667.98223        22.90023
C26  23212788.22125   -465153.33525      2054.45925        33.00025                                                                
E27  26190003.13825 -10922203.76225      1098.39225        32.80025  26189990.24706 -11054693.14706       818.14306        38.60006
R19  23069931.71925 123471377.25725     -4368.84425        32.90025
C21  22333746.06925    -44456.78825      -237.24325        31.60025  22333741.27324   2041463.31424      -180.20324        26.80024
C36  25498598.08825 -14315081.23725     -3213.14225        30.10025  25498592.09224 -10795663.53824     -2417.93024        24.00024
E07  26564296.72024 -16781955.95624     -2232.02224        29.10024  26564229.26723 -10334153.28623     -1673.19123        22.60023
R21  23363669.26824 125086533.48224       819.22224        29.30024
C16  39977418.10924 -16510260.66224     -1402.65124        28.90024                                                                
R16  23675403.65925 126532466.00725      3898.69325        31.10025
R03  23567994.61724 126224162.77724     -2743.26424        26.60024
C13  40377323.86025    128472.68625     -1449.02125        33.50025                                                                
R20  21795814.97124 116614792.88724     -2138.47024        26.10024
C14  26308040.72223 -10555403.02723      1824.01423        22.10023                                                                
E10  28260655.85522 -16976269.69022      1756.29422        16.10022                                                                
E21                                                                  27462641.90924 -12974408.74724      1606.61624        25.10024
> 2025 10 05 09 11 36.0000144  0 36                      
G07  21677594.21407   -939759.83807      1236.02207        46.20007                                                                
G06  22489491.84926     -1104.40526      -416.08826        38.10026  22489498.14424     -8443.95724      -311.85224        25.40024
G16  22692877.94825    -42129.69925      -143.42525        34.00025                                                                
G04  21413329.56026 -13337771.84226     -1720.22326        37.10026  21413337.95525  -7385248.58025     -1288.57225        31.10025
G03  21306529.39725    441257.47525     -2755.02525        30.70025                                                                
G01  24554584.91525 -16430452.02625     -4127.27525        30.50025                                                                
G11  24677920.43124   -571372.70324      1708.09324        28.50024  24677921.33123 -11895199.53823      1276.30923        22.60023
G09  20754962.23907    -87331.38007       147.15707        44.70007  20754973.63106  -6427764.54206       109.68306        37.70006
R05  20847583.41808 111504981.96208       923.54008        51.80008
E33  24335710.63807 -13321352.11307     -1867.00307        46.70007  24335716.03426   2274656.54626     -1394.24726        38.10026
C34  25517799.19507    357013.53307     -2746.59907        43.70007  25517812.38625 -11019396.50025     -2071.78325        31.90025
R04  20684394.39207 110826803.73707     -1231.44807        44.00007
E29  23898197.12216    108567.66916      -961.75416        40.50016  23898205.51725   2163236.07725      -716.46725        33.30025
C09  38044266.70226  -2795981.51826     -1094.27626        38.60026                                                                
E12  26244277.26526 -16141978.57826       890.27826        37.90026  26244286.55825 -13050946.85825       667.95425        31.70025
R15  20246250.11306 108252500.55706      2052.34706        37.40006
R14  20656175.82716 110171565.78516     -1976.41716        37.00016
C22  24047067.46225 -14548827.32625     -2250.22025        34.90025  24047005.70424 -10971644.52624     -1686.95524        24.10024
E19  24445190.34725 -15522840.87625       500.44425        33.40025  24445204.73724 -12356931.28524       381.22424        28.70024
E27  26189814.26925 -10923295.01125      1087.36025        32.80025  26189794.48306 -11055507.62806       812.62306        38.60006
C26  23212493.22525   -467209.54825      2055.37425        32.90025                                                                
R19  23070762.14425 123475766.04525     -4371.15425        32.70025
E26  26204885.73525 -17565769.22825     -3567.10925        31.70025  26204762.22123 -11612441.95623     -2668.22423        22.60023
C21  22333786.24225    -44218.45325      -239.27725        31.40025  22333785.64224   2041645.93224      -184.06724        26.60024
C36  25499233.04825 -14311864.16825     -3219.49125        30.10025  25499219.55824 -10793244.24424     -2419.48824        23.60024
E07  26564732.01925 -16779717.01625     -2242.14725        29.70025  26564756.30223 -10332471.80923     -1686.84623        23.30023
C16  39977703.81224 -16508850.51824     -1412.93224        29.20024                                                                
R21  23363565.24024 125085924.01424       809.74124        29.30024
R16  23674759.40525 126528972.27225      3888.56025        30.70025
R03  23568531.24524 126226982.95324     -2745.64124        26.60024
C13  40377642.54025    129919.36425     -1445.63225        32.30025                                                                
R20  21796237.97824 116617002.58724     -2149.76724        25.80024
C14  26307703.75623 -10557220.89823      1814.17623        22.40023                                                                
E10  28260323.38522 -16978015.91422      1740.03022        16.10022                                                                
G30                                                                  23963532.09223 -11417171.71723      1901.96223        20.70023
E21                                                                  27462243.48424 -12976016.52024      1608.35024        26.80024
> 2025 10 05 09 11 37.0000148  0 36                      
G07  21677363.97307   -940993.47707      1231.08507        46.10007                                                                
G09  20754942.75207    -87476.82907       142.60807        44.70007  20754956.24306  -6427872.85906       106.65406        38.20006
G06  22489573.09316      -685.90016      -420.59216        38.60016  22489590.48024     -8131.04224      -314.76324        26.80024
G16  22692888.74025    -41985.14925      -146.70125        34.10025                                                                
G04  21413676.42026 -13336048.15726     -1725.97426        36.20026  21413671.62425  -7383959.49225     -1290.62025        29.80025
G03  21307068.42325    444016.43025     -2761.98925        30.60025                                                                
G01  24555387.45925 -16426324.06725     -4129.09025        30.30025                                                                
G11  24677605.64924   -573079.64524      1704.85424        28.50024  24677609.84623 -11896476.04423      1275.58823        22.20023
G30  23963203.22024 -11177492.88524      2524.25124        27.30024  23963059.01923 -11419067.13923      1892.14923        20.40023
R05  20847423.62908 111504073.31208       919.38908        51.80008
E33  24336073.08707 -13319483.03407     -1871.45907        46.70007  24336080.58216   2276052.50416     -1397.92416        37.80016
C34  25518338.22207    359761.95507     -2750.64307        43.90007  25518357.70925 -11017323.74625     -2074.54725        31.70025
R04  20684639.62207 110828062.61307     -1236.00507        43.90007
E29  23898391.38806    109531.07806      -965.52106        40.30006  23898398.28315   2163955.61615      -721.76615        33.80015
E12  26244120.17416 -16142867.06616       886.59616        37.90016  26244124.67115 -13051610.77415       661.06515        32.40015
R14  20656563.75806 110173578.58906     -1982.23306        37.30006
R15  20245870.87506 108250419.33606      2046.42106        37.40006
C22  24047526.14415 -14546581.49415     -2246.14315        34.80015  24047447.89824 -10969952.78324     -1695.19824        23.70024
E27  26189597.21915 -10924381.51015      1084.12315        33.30015  26189599.31806 -11056318.36606       808.86706        38.50006
E19  24445110.60225 -15523338.25725       495.48425        33.40025  24445121.09524 -12357303.84624       368.31024        27.90024
C09  38044488.24926  -2794884.39226     -1099.58226        37.60026                                                                
C26  23212101.69625   -469262.39725      2051.16725        32.80025                                                                
E26  26205504.80725 -17562197.69225     -3573.74825        31.60025  26205453.84223 -11609775.45923     -2667.16123        22.20023
C21  22333851.59625    -43975.57725      -245.14625        31.30025  22333850.09724   2041835.04024      -192.35324        26.30024
C36  25499838.62925 -14308641.14125     -3226.00425        30.10025                                                                
E07  26565156.82525 -16777474.17825     -2244.78625        29.70025  26565187.70324 -10330794.33224     -1675.47624        24.50024
C16  39977979.92024 -16507437.06424     -1415.10824        29.40024                                                                
R21  23363382.66724 125084891.89624       806.28724        29.30024
R16  23673989.23825 126524803.63725      3892.36225        30.30025
R03  23568980.03524 126229330.54924     -2756.67224        26.50024
R20  21796657.08824 116619190.09724     -2161.27824        25.50024
C13  40377959.12125    131366.56325     -1447.45925        31.00025                                                                
C14  26307377.58123 -10559034.79523      1811.90923        22.40023                                                                
E10  28259975.02622 -16979748.83522      1726.26822        16.10022                                                                
E30  27402786.84523 -17519293.00823     -1022.08223        19.00023                                                                
E21                                                                  27461842.66215 -12977621.31215      1603.30215        31.30015
> 2025 10 05 09 11 38.0000152  0 37                      
G07  21677120.54207   -942219.32707      1221.95507        46.00007                                                                
G09  20754907.97607    -87614.15907       133.52007        44.60007  20754919.06906  -6427975.43406        99.70306        38.10006
G06  22489656.43506      -259.50006      -430.34706        39.40006  22489661.23225     -7812.83525      -320.85325        32.00025
G16  22692929.21225    -41830.77625      -159.28425        34.30025                                                                
G03  21307616.44425    446781.89725     -2768.72125        30.80025                                                                
G04  21414004.09325 -13334320.75025     -1729.26725        35.30025  21413996.89825  -7382658.36625     -1307.14425        29.60025
G01  24556142.33625 -16422187.46925     -4140.91525        30.20025                                                                
G11  24677295.36424   -574776.00724      1691.07124        28.40024  24677272.58024 -11897744.77824      1264.84624        23.80024
G30  23962714.55824 -11180015.51224      2522.62624        27.30024  23962637.51123 -11420956.64623      1886.54923        21.70023
R05  20847240.45608 111503138.65408       909.91808        51.90008
E33  24336430.44007 -13317605.73707     -1881.40607        46.60007  24336431.63906   2277454.30006     -1404.71406        37.50006
R04  20684862.36807 110829300.79707     -1245.67807        43.80007
C34  25518865.85707    362517.82007     -2759.58407        43.80007  25518881.74625 -11015250.17925     -2073.97425        31.50025
E27  26189383.46706 -10925459.86606      1074.28506        35.70006  26189382.86806 -11057123.04006       801.64106        37.90006
E29  23898581.15726    110502.81226      -975.89626        40.10026  23898575.16105   2164680.91305      -728.17805        33.80005
E12  26243945.69406 -16143748.16306       877.15206        38.00006  26243950.19125 -13052268.35525       654.41325        32.30025
R14  20656923.50906 110175541.05106     -1992.50206        37.70006
R15  20245480.24606 108248377.87406      2037.49206        37.30006
C22  24047924.26825 -14544327.99925     -2257.32625        34.80025  24047872.70423 -10968253.26623     -1703.40423        23.30023
E19  24445009.27225 -15523828.11425       485.84525        33.40025  24445020.66424 -12357667.44424       359.11624        27.40024
E21  27461419.95525 -17813208.36425      2141.04025        30.20025  27461427.44925 -12979221.36925      1597.68925        31.70025
C26  23211674.19225   -471304.03425      2036.03025        32.80025                                                                
E26  26206134.07125 -17558619.01225     -3582.25025        31.60025  26206130.17423 -11607104.38923     -2673.35623        21.90023
C21  22333914.55325    -43724.47825      -255.21125        31.20025  22333892.96824   2042030.87724      -199.20224        26.10024
C16  39978234.74425 -16506014.03725     -1427.81425        29.80025                                                                
C09  38044705.29926  -2793784.66626     -1101.02626        36.50026                                                                
C36  25500444.80925 -14305412.82025     -3230.96725        30.00025                                                                
R21  23363181.50624 125083861.30824       799.56324        29.30024
R16  23673195.38825 126520607.48225      3885.82125        30.00025
R19  23072350.44424 123484252.76724     -4390.60424        29.40024
R03  23569494.77824 126232130.80624     -2766.90124        26.50024
R20  21797110.67424 116621659.17224     -2166.79224        25.30024
C13  40378258.31325    132822.94625     -1460.97425        29.90025                                                                
C14  26307000.44323 -10560840.12123      1801.04023        22.50023                                                                
E30  27402982.31023 -17518273.02223     -1019.98523        20.00023                                                                
E10  28259648.85222 -16981465.40022      1708.38822        16.00022                                                                
E07                                                                  26565610.71024 -10329111.17724     -1685.99424        24.60024
> 2025 10 05 09 11 39.0000155  0 37                      
G06  22489722.08908       174.87208      -438.35808        47.80008  22489723.88825     -7488.32325      -327.66425        31.80025
G07  21676870.51507   -943438.30907      1215.54707        45.90007                                                                
G16  22692939.70525    -41670.46525      -163.28125        34.30025                                                                
G03  21308128.19025    449554.55825     -2776.25825        31.20025                                                                
G04  21414314.67825 -13332580.39725     -1746.82625        34.50025  21414313.17924  -7381357.03424     -1301.43524        29.30024
G01  24556904.10925 -16418039.41425     -4153.78425        30.00025                                                                
G11  24676952.70124   -576462.96124      1682.25024        28.40024  24676930.51623 -11899008.02723      1260.50823        23.30023
G30  23962236.68924 -11182530.08224      2510.54224        27.20024                                                                
G09  20754866.00507    -87744.64807       127.06907        44.60007  20754869.30306  -6428073.00106        95.06306        37.30006
R05  20847054.88408 111502253.71408       903.52008        51.90008
E33  24336771.00407 -13315721.46007     -1887.76607        46.50007  24336771.60406   2278861.47906     -1409.87006        37.30006
R04  20685070.42407 110830520.59607     -1251.91407        43.70007
C34  25519368.30907    365280.91107     -2766.70407        43.70007  25519391.39325 -11013169.79825     -2083.78725        30.70025
E27  26189167.31706 -10926530.66406      1067.01806        40.40006  26189164.31906 -11057922.69906       797.15106        37.80006
E29  23898734.95026    111479.66726      -979.41526        39.90026  23898741.54605   2165411.03705      -732.53705        33.70005
E12  26243756.82506 -16144622.49106       870.94306        38.20006  26243763.12125 -13052921.52425       650.96225        32.10025
R14  20657277.86406 110177536.31206     -1998.69506        38.00006
R15  20245085.11926 108246372.34826      2028.93326        37.30026
C22  24048297.81025 -14542061.87925     -2272.43125        34.80025  24048287.01723 -10966550.30623     -1704.68123        23.00023
E19  24444898.34925 -15524308.56025       475.74125        33.40025  24444912.73924 -12358021.10024       348.68524        26.90024
C26  23211272.17125   -473339.18425      2031.90625        32.70025                                                                
E26  26206884.15225 -17555030.19525     -3593.88425        31.60025  26206793.61423 -11604426.66423     -2681.05223        21.60023
C16  39978501.85925 -16504583.99225     -1433.55225        30.30025                                                                
C21  22333932.84025    -43462.17925      -267.89925        31.00025  22333922.34724   2042229.42824      -199.90724        25.80024
E21  27460987.95425 -17815345.27125      2136.90625        30.20025  27461001.44425 -12980814.71825      1589.99525        32.10025
C36  25501065.68025 -14302176.92325     -3239.68425        29.90025  25501296.52024 -13303753.34224     -2449.09024        26.70024
C09  38044914.55425  -2792675.95225     -1113.20825        35.40025                                                                
R21  23363041.20324 125083216.61924       781.22524        29.20024
R19  23073178.47124 123488788.51124     -4392.18324        29.10024
R16  23672422.82325 126516586.36225      3876.08525        29.80025
R03  23569985.53924 126234862.89824     -2768.58424        26.40024
R20  21797486.61424 116623776.28824     -2171.74324        25.10024
C13  40378527.82724    134289.14624     -1471.10824        29.00024                                                                
C14  26306650.58523 -10562638.16423      1794.40123        22.50023                                                                
E30  27403154.39123 -17517255.84023     -1015.78023        20.60023                                                                
E10  28259293.29822 -16983162.35022      1687.14222        16.00022                                                                
E07                                                                  26566025.02424 -10327421.54824     -1692.86524        24.40024
> 2025 10 05 09 11 40.0000159  0 37                      
G06  22489809.62928       615.35528      -443.53928        47.50028  22489827.01725     -7159.28625      -331.30025        31.70025
G09  20754855.51307    -87868.62807       120.72507        44.90007  20754861.20906  -6428165.54806        90.03706        37.60006
G07  21676648.96807   -944650.25507      1208.42807        45.80007                                                                
G16  22692978.67825    -41503.48925      -170.30825        34.20025                                                                
G04  21414659.44025 -13330832.48125     -1751.69725        33.80025  21414655.54224  -7380052.15424     -1306.65324        29.00024
G01  24557706.05425 -16413887.35125     -4154.06425        29.90025  24557705.45423 -12999704.99023     -3095.78323        22.70023
G11  24676644.81424   -578148.88424      1685.40724        29.10024  24676621.73023 -11900267.81323      1258.05323        22.90023
G30  23961740.83224 -11185037.04524      2503.15824        27.10024                                                                
G03  21308643.23325    452335.54525     -2785.14825        31.20025  21308677.41024 -13376577.60124     -2076.57724        24.50024
R05  20846895.39508 111501348.12208       897.21908        52.00008
E33  24337135.25207 -13313830.41107     -1894.43407        46.40007  24337140.94806   2280273.59806     -1414.58806        37.10006
R04  20685316.25427 110831784.06927     -1258.34527        43.60027
E27  26188969.75406 -10927594.76906      1060.75906        40.30006  26188976.94926 -11058717.15626       791.85526        37.70026
E29  23898933.71216    112463.08016      -987.44216        39.70016  23898939.40915   2166145.79115      -737.06815        33.60015
R14  20657669.39306 110179570.47106     -2005.77006        38.30006
E12  26243601.53306 -16145489.90006       863.94906        38.40006  26243605.73025 -13053569.31925       645.10825        31.60025
R15  20244770.93726 108244640.54526      2022.37626        37.20026
C22  24048737.90525 -14539793.30025     -2269.80825        34.70025  24048738.80523 -10964837.64723     -1717.50823        22.80023
C26  23210882.44025   -475370.41425      2029.26825        32.60025                                                                
C34  25519926.82227    368048.30327     -2769.54127        42.30027  25519935.21625 -11011083.19825     -2089.70825        30.40025
E26  26207637.23025 -17551437.67625     -3594.36925        31.70025  26207626.13824 -11601747.13224     -2680.43524        25.20024
C16  39978787.56125 -16503148.49325     -1438.22625        30.40025                                                                
C21  22333980.50725    -43195.09725      -269.47425        30.90025  22333979.00824   2042433.74824      -207.20424        25.50024
E21  27460592.22825 -17817478.67025      2131.64525        30.00025  27460606.31825 -12982403.72725      1586.83825        32.00025
C09  38045158.28525  -2791557.31525     -1123.59825        34.40025                                                                
C36  25501715.63025 -14298934.16525     -3246.18725        29.80025  25501932.97924 -13301301.65824     -2451.68324        27.60024
R21  23362911.39324 125082468.56524       781.97224        29.10024
R19  23074008.89624 123493177.29824     -4405.02424        29.00024
R16  23671748.88925 126512934.41125      3870.27225        29.50025
R03  23570499.38324 126237561.29224     -2776.77524        26.40024
R20  21797880.54124 116625829.90124     -2180.41724        24.90024
C13  40378833.61524    135765.69924     -1481.72924        28.20024                                                                
C14  26306303.12523 -10564430.05023      1788.80723        23.10023                                                                
E30  27403377.13723 -17516237.49223     -1018.93123        20.60023                                                                
E10  28258960.52922 -16984839.37322      1667.05822        16.00022                                                                
E19                                                                  24444835.09324 -12358366.94924       341.94424        23.60024
E07                                                                  26566364.68824 -10325727.02124     -1696.97524        24.40024
> 2025 10 05 09 11 41.0000163  0 36                      
G07  21676427.12207   -945856.29507      1203.08707        45.70007                                                                
G09  20754843.22117    -87986.81817       115.29617        45.10017  20754850.41606  -6428253.71206        85.97306        37.80006
G06  22489909.46027      1062.05227      -449.80327        47.20027  22489927.44725     -6824.35025      -337.88525        32.00025
G16  22693020.64925    -41330.42225      -176.11325        34.20025                                                                
G03  21309191.25425    455123.76025     -2791.82725        31.10025  21309213.73824 -13374496.10924     -2081.49124        24.20024
G04  21415014.99425 -13329082.06425     -1751.66725        33.20025  21415000.60424  -7378740.48724     -1315.06024        28.60024
G01  24558516.09325 -16409729.94525     -4160.07725        29.90025  24558507.09923 -12996602.27923     -3102.71023        22.70023
G11  24676329.43324   -579829.19324      1677.50224        29.20024  24676312.34423 -11901524.81523      1255.61023        22.50023
G30  23961259.06624 -11187536.68224      2495.97424        27.00024                                                                
R05  20846736.80408 111500446.35408       891.94008        52.00008
E33  24337510.89227 -13311933.55927     -1899.75327        46.30027  24337508.79316   2281690.36116     -1419.08516        36.40016
E29  23899135.47306    113453.94806      -993.59506        39.50006  23899136.07225   2166884.24325      -740.30125        33.10025
R14  20658056.12506 110181578.69906     -2012.64606        38.60006
E12  26243444.74106 -16146351.32306       858.43006        38.60006  26243452.83625 -13054214.57525       643.98525        31.50025
E27  26188817.45926 -10928654.94126      1058.95426        40.00026  26188787.18026 -11059508.12926       789.23126        37.40026
C34  25520462.85127    370821.32027     -2775.82927        41.50027  25520477.84125 -11008993.21825     -2091.67125        30.60025
R15  20244449.55926 108242869.75026      2025.11526        37.10026
C22  24049236.16025 -14537522.35425     -2272.12725        34.70025  24049182.19823 -10963125.34923     -1712.11623        22.50023
C26  23210518.49225   -477397.64225      2025.22725        32.50025                                                                
E26  26208246.10925 -17547840.56825     -3599.40125        31.70025  26208322.25624 -11599049.28524     -2707.00224        25.10024
R04  20685572.87627 110833105.00727     -1264.67127        42.90027
C21  22334074.94225    -42926.72925      -269.01025        30.80025  22334044.36324   2042642.51624      -210.99224        25.30024
C16  39979080.15925 -16501709.97625     -1440.02625        30.50025                                                                
C09  38045374.43525  -2790433.62025     -1126.22325        33.60025                                                                
R19  23074836.92324 123497553.84024     -4403.97224        29.00024
E21  27460190.80525 -17819607.28525      2126.22225        29.90025  27460212.09125 -12983990.97625      1586.36725        31.60025
C36  25502363.78125 -14295682.81925     -3255.63925        29.60025  25502570.33824 -13298849.87624     -2451.83024        28.40024
R21  23362784.28124 125081735.82524       772.85324        29.00024
R03  23571047.40324 126240441.21024     -2778.54724        27.00024
C13  40379145.99924    137244.79624     -1480.36824        27.60024                                                                
R20  21798305.34724 116628048.01424     -2188.56024        24.80024
C14  26305979.05024 -10566218.77424      1787.14124        23.60024                                                                
E30  27403517.44023 -17515217.32123     -1021.08123        20.80023                                                                
E10  28258670.62922 -16986497.93922      1649.33722        16.00022                                                                
E19  24444730.46525 -15525253.06425       467.55825        30.90025  24444753.84924 -12358709.80524       341.36024        23.70024
E07                                                                  26566805.68324 -10324029.22424     -1699.43124        25.40024
> 2025 10 05 09 11 42.0000166  0 37                      
G07  21676182.49107   -947055.51507      1195.80907        45.60007                                                                
G09  20754801.85007    -88098.46107       108.36807        45.10007  20754808.44506  -6428337.16906        81.10306        37.80006
G06  22489998.79827      1518.44627      -461.24127        46.20027  22489998.19815     -6485.04415      -341.49215        33.40015
G16  22693045.23225    -41150.42525      -183.46125        34.10025                                                                
G03  21309680.21525    457914.33425     -2791.75325        31.10025  21309725.78424 -13372406.63924     -2093.45824        24.00024
G04  21415314.18625 -13327325.02525     -1760.34825        32.70025  21415316.28524  -7377429.18024     -1311.12624        28.20024
G01  24559289.25825 -16405568.79925     -4163.01425        29.80025  24559277.26624 -12993490.80524     -3115.85424        24.60024
G11  24676004.75724   -581502.02724      1669.09624        29.30024  24675976.57723 -11902781.14623      1255.99523        22.20023
G30  23960796.48624 -11190034.15824      2496.39524        26.90024                                                                
R05  20846549.73408 111499553.00208       884.92808        52.00008
E33  24337837.06617 -13310029.17117     -1907.40617        46.10017  24337845.76015   2283112.10115     -1424.22815        34.80015
R14  20658425.47006 110183654.04406     -2019.32906        38.80006
E29  23899301.85816    114450.08816      -999.77616        39.40016  23899306.95425   2167626.91925      -744.78725        33.00025
E12  26243267.56406 -16147205.76606       850.95406        38.60006  26243269.66225 -13054852.99725       635.00525        30.90025
E27  26188608.20416 -10929712.23416      1054.85516        39.70016  26188555.44026 -11060293.28826       782.25326        35.60026
R04  20685814.80827 110834506.39627     -1272.05527        41.90027
C34  25520978.19426    373601.93326     -2784.41026        40.80026  25520993.18425 -11006897.56625     -2098.48625        30.40025
C22  24049663.36515 -14535245.09315     -2280.41915        34.80015  24049598.60923 -10961411.49723     -1714.63023        22.30023
C26  23210120.96815   -479416.51415      2014.69415        32.50015                                                                
E26  26208950.62125 -17544236.42525     -3607.66025        31.60025                                                                
C21  22334105.52025    -42653.82325      -275.17625        30.80025  22334071.64424   2042852.34624      -210.36224        25.00024
R15  20244086.21126 108241033.96726      2012.94126        36.50026
C16  39979299.90725 -16500263.89125     -1449.86925        30.50025                                                                
R19  23075631.67325 123501911.24625     -4409.43625        29.60025
C09  38045579.19425  -2789306.28325     -1129.15725        32.90025                                                                
E19  24444626.43725 -15525719.51225       466.44825        30.40025  24444650.12124 -12359045.71824       332.44124        23.60024
C36  25502925.59224 -14292427.90224     -3256.70224        29.40024  25503178.91724 -13296391.92524     -2461.03624        29.10024
R21  23362656.27024 125081156.98324       767.91824        28.90024
R16  23670310.48524 126505303.37924      3861.44224        27.80024
R03  23571519.87624 126243076.79624     -2789.87124        27.40024
C13  40379437.39724    138726.53824     -1483.06324        27.20024                                                                
C14  26305614.20224 -10568004.42124      1784.10924        23.80024                                                                
R20  21798683.98524 116630178.14024     -2194.08324        24.60024
E30  27403667.93523 -17514193.48923     -1025.66323        21.10023                                                                
E10  28258342.35722 -16988141.56222      1636.15122        16.10022                                                                
E21                                                                  27459790.28314 -12985571.74914      1577.53514        29.10014
E07                                                                  26567216.99825 -10322326.13225     -1705.74025        30.90025
> 2025 10 05 09 11 43.0000170  0 37                      
G07  21675963.34307   -948250.82107      1193.34907        45.60007                                                                
G09  20754789.55807    -88206.20707       105.79807        45.00007  20754797.95206  -6428417.49306        78.75806        37.60006
G06  22490092.33327      1977.58327      -460.51027        45.30027  22490094.13206     -6142.45006      -344.23806        37.30006
G16  22693072.51315    -40967.86315      -183.84515        34.10015                                                                
G03  21310242.32625    460710.53225     -2799.00925        31.20025  21310118.81224 -13370312.73824     -2096.11624        24.70024
G04  21415663.74425 -13325563.41125     -1763.90125        32.30025  21415662.84524  -7376114.17524     -1316.85424        27.80024
G01  24560064.82125 -16401404.97425     -4165.16325        29.70025  24560084.60724 -12990372.85024     -3121.19524        24.30024
G11  24675713.95924   -583169.99824      1665.53824        29.30024  24675675.58523 -11904029.60623      1244.52523        21.90023
G30  23960317.11824 -11192528.46224      2492.71724        26.90024                                                                
R05  20846396.24008 111498678.76808       882.13608        51.90008
R14  20658795.41406 110185573.03506     -2023.43706        38.80006
E12  26243108.37406 -16148056.23906       848.48706        38.60006  26243118.56725 -13055489.92525       636.18225        30.80025
E29  23899509.31406    115450.27106     -1001.95406        39.30006  23899507.21525   2168371.95225      -746.21125        32.90025
E27  26188390.55406 -10930765.14306      1050.96506        39.30006  26188365.97125 -11061072.17825       775.75425        34.60025
R04  20686070.53126 110835823.50326     -1273.13426        41.10026
C34  25521523.21726    376384.54526     -2783.61026        40.00026  25521520.21924 -11004802.14324     -2095.30824        29.40024
C22  24050087.87125 -14532961.53925     -2286.70025        34.80025  24050046.19923 -10959692.90323     -1720.96323        22.30023
E33  24338234.29127 -13308120.99127     -1910.32427        44.40027  24338224.69825   2284537.73525     -1427.58025        34.70025
C26  23209746.82725   -481432.07625      2013.90525        32.90025                                                                
E26  26209601.47025 -17540627.11925     -3611.88625        31.50025                                                                
C21  22334143.29425    -42375.62225      -280.84725        30.70025  22334134.30124   2043065.73024      -215.16024        24.80024
R19  23076455.80225 123506267.12225     -4416.63825        29.80025
C16  39979599.99925 -16498811.18325     -1456.01825        30.40025                                                                
C09  38045807.93525  -2788174.03425     -1134.70625        32.40025                                                                
R15  20243707.27325 108238956.56625      2002.62425        35.40025
E19  24444545.19325 -15526181.93625       460.41225        30.10025  24444556.28624 -12359385.27524       341.37924        24.40024
C36  25503574.34324 -14289169.97824     -3259.42624        29.20024  25503817.17525 -13293930.93225     -2462.51225        30.10025
R21  23362527.95824 125080416.58624       759.83924        28.80024
R03  23572020.53024 126245703.95624     -2792.68324        27.80024
R16  23669617.36524 126501548.24424      3861.06724        27.80024
C13  40379739.58824    140211.45024     -1486.49824        26.90024                                                                
C14  26305289.82724 -10569780.28424      1770.96924        24.30024                                                                
R20  21799100.09724 116632350.34624     -2204.75524        24.50024
E30  27403926.05723 -17513169.67723     -1023.80223        21.10023                                                                
E10  28258059.95222 -16989772.35222      1624.37222        16.10022                                                                
E07  26567887.03524 -18191701.44624     -2287.44924        24.20024  26567660.99125 -10320623.41025     -1702.53625        34.10025
E21                                                                  27459397.55524 -12987151.17224      1578.74724        29.00024
> 2025 10 05 09 11 44.0000174  0 36                      
G07  21675733.10207   -949439.92807      1186.00707        45.50007                                                                
G09  20754766.17407    -88307.39107        97.90407        44.90007  20754770.67106  -6428493.08906        73.23206        38.10006
G06  22490188.86627      2441.42127      -466.18727        44.20027  22490140.89916     -5794.93516      -349.97516        35.90016
G16  22693121.67925    -40777.61225      -194.09525        34.00025                                                                
G03  21310768.46225    463512.09925     -2804.25025        31.50025  21310650.04424 -13368217.58724     -2095.77524        24.70024
G01  24560835.28825 -16397239.08025     -4166.92725        29.70025  24560871.86224 -12987253.44824     -3120.12224        24.20024
G11  24675375.79324   -584832.76024      1660.15724        29.30024  24675353.00923 -11905268.21023      1233.67523        21.60023
G30  23959853.93824 -11195019.43724      2489.30924        26.80024                                                                
G04  21416013.90225 -13323793.97225     -1773.35125        31.90025  21415988.42024  -7374794.01224     -1322.74224        27.40024
R05  20846222.66008 111497794.59108       874.20308        51.90008
E12  26242949.18426 -16148899.37526       839.46826        38.60026  26242951.28325 -13056119.23125       625.49425        30.80025
R14  20659181.54626 110187673.54626     -2032.12726        38.80026
E29  23899685.29226    116456.23426     -1008.85326        39.10026  23899690.38925   2169121.72025      -752.13525        32.60025
R04  20686303.77026 110837115.32126     -1280.25526        40.30026
C34  25522085.62826    379174.85326     -2794.15626        39.20026  25522055.34924 -11002703.78924     -2099.81924        29.20024
C22  24050511.77715 -14530672.71515     -2291.45715        34.80015  24050479.99923 -10957970.80923     -1723.84423        22.20023
E33  24338564.36327 -13306206.40927     -1917.78427        42.90027  24338582.35025   2285967.81225     -1432.29825        34.50025
C26  23209324.11925   -483441.15425      2005.83625        32.90025                                                                
E26  26210296.38925 -17537013.91325     -3615.15425        31.50025                                                                
C16  39979897.39325 -16497355.02625     -1457.88225        30.40025                                                                
C09  38046018.68925  -2787034.90525     -1142.56825        32.10025                                                                
E27  26188184.59726 -10931812.81726      1045.05626        37.90026  26188164.21125 -11061850.98925       778.77225        34.50025
C21  22334181.66825    -42092.78025      -285.16425        30.60025  22334182.86724   2043279.34824      -213.73624        24.60024
R19  23077288.62625 123510764.59225     -4418.19825        29.90025
R15  20243270.17625 108236664.31625      2006.42025        34.50025
E19  24444457.35425 -15526638.09025       453.01825        30.00025  24444459.75324 -12359732.69124       351.34524        24.20024
R21  23362399.04824 125079770.36224       764.21124        28.60024
R16  23668919.44824 126497863.42424      3849.94024        27.80024
C13  40380008.20224    141704.05724     -1496.45324        26.70024                                                                
C14  26304923.78024 -10571551.23224      1768.49024        24.70024                                                                
R20  21799506.31624 116634566.92624     -2201.33024        24.40024
E30  27404127.21723 -17512144.40323     -1026.00523        21.10023                                                                
E10  28257729.28122 -16991388.87822      1609.39322        16.00022                                                                
C36  25504232.98724 -14285904.51124     -3269.23724        29.10024  25504265.66424 -13291466.01924     -2466.87224        29.20024
E07                                                                  26568087.29615 -10318915.88415     -1709.92715        33.80015
E21                                                                  27458988.33824 -12988730.76824      1579.68224        29.00024
> 2025 10 05 09 11 45.0000178  0 36                      
G07  21675517.25207   -950624.30007      1182.00407        45.40007                                                                
G06  22490275.80617      2911.78817      -473.63317        43.30017  22490229.33815     -5443.86015      -352.85415        34.20015
G16  22693134.87025    -40581.68225      -198.76925        33.90025                                                                
G03  21311291.30025    466317.88225     -2807.89025        31.50025  21311193.86724 -13366121.40424     -2096.69924        24.30024
G01  24561639.33125 -16393064.43625     -4179.01725        29.90025  24561674.40724 -12984134.42324     -3118.83724        24.00024
G04  21416362.56125 -13322019.52125     -1776.95625        31.60025  21416331.68224  -7373471.59924     -1323.53724        26.70024
G11  24675084.39524   -586491.74724      1657.09924        29.20024  24675038.82623 -11906506.63123      1238.32823        21.30023
G30  23959374.87024 -11197497.89924      2472.20524        26.70024                                                                
G09  20754754.18317    -88405.66717        96.82117        43.90017  20754763.17606  -6428565.73406        71.17006        38.10006
R05  20846068.26708 111496915.76908       871.76508        51.80008
E12  26242791.19426 -16149737.52526       835.65526        38.60026  26242803.18525 -13056741.20825       618.31325        30.70025
E29  23899907.13926    117467.93826     -1014.57426        39.00026  23899892.44925   2169873.53025      -752.83125        32.50025
R14  20659607.25226 110189891.51926     -2029.25426        38.70026
R04  20686556.49526 110838415.57226     -1284.82726        39.60026
C34  25522638.44526    381969.45726     -2796.75026        38.50026  25522599.47224 -11000603.09124     -2101.86924        28.90024
C26  23208925.99515   -485445.09015      2001.36315        32.90015  23208988.65124 -13735433.99724      1512.18824        29.10024
E33  24338938.20426 -13304288.30026     -1919.87026        41.40026  24338960.08925   2287405.86025     -1442.03425        34.30025
E26  26210976.61825 -17533394.01225     -3623.24825        31.50025  26211063.55824 -13727473.16324     -2703.19024        29.30024
C16  39980182.49625 -16495894.18625     -1463.18025        30.90025                                                                
E07  26568565.46524 -18522291.10924     -2291.21024        28.30024  26568534.28605 -10317205.17005     -1712.30705        35.00005
R15  20242978.47825 108235051.79325      1997.92325        33.90025
C09  38046236.03925  -2785891.31325     -1145.82325        31.80025                                                                
E19  24444387.50325 -15527086.96825       445.23925        30.30025  24444385.40424 -12360079.35224       346.28324        23.90024
C21  22334260.21325    -41800.99725      -296.25225        30.50025  22334243.72524   2043493.32124      -214.14924        24.30024
R19  23078137.33825 123515251.35125     -4423.74625        29.90025
R03  23573111.77424 126251536.55224     -2804.88024        28.80024
E27  26187999.32526 -10932858.03926      1043.99526        36.60026  26187978.93925 -11062619.86925       763.91325        34.30025
C36  25504846.96224 -14282633.69124     -3273.49624        28.90024  25504908.12024 -13288998.26024     -2469.18124        28.30024
R16  23668128.89524 126493586.25524      3848.33624        27.80024
R21  23362267.43924 125079013.12024       751.25524        28.50024
C13  40380330.47924    143204.42124     -1504.24224        26.70024                                                                
C14  26304603.90224 -10573318.81424      1765.89824        25.50024                                                                
R20  21799883.45524 116636530.25324     -2210.00424        24.30024
E30  27404308.29223 -17511112.89723     -1034.62123        21.10023                                                                
E21                                                                  27458599.80724 -12990300.41824      1564.67624        28.60024
C22                                                                  24050933.88523 -10956244.21923     -1728.83823        22.20023
> 2025 10 05 09 11 46.0000182  0 35                      
G07  21675297.20407   -951804.84707      1178.63507        45.40007                                                                
G09  20754747.58707    -88499.02907        90.90507        43.90007  20754755.68206  -6428635.47506        68.28906        38.10006
G06  22490346.25727      3388.70427      -480.18927        42.40027  22490327.37025     -5088.96525      -356.80525        32.90025
G16  22693192.73025    -40384.57525      -197.69725        33.80025                                                                
G03  21311825.23025    469129.20825     -2814.09725        31.40025  21311737.39124 -13364019.69924     -2104.46624        26.50024
G11  24674762.11824   -588144.81124      1650.10124        29.20024  24674735.43623 -11907739.73723      1230.44923        21.10023
G30  23958925.18124 -11199966.34424      2463.43624        26.60024  23958920.68423 -13471575.54223      1847.64023        21.20023
G01  24562462.56125 -16388883.69225     -4183.79225        29.90025  24562478.15024 -12981012.86924     -3122.81724        23.90024
G04  21416695.03125 -13320244.31725     -1775.58025        31.30025  21416678.84224  -7372141.56124     -1333.85024        26.10024
R05  20845919.57008 111496067.53908       867.97408        51.60008
E12  26242643.39626 -16150573.65526       834.37026        38.50026  26242654.48825 -13057364.80825       624.41125        29.80025
R14  20660015.26916 110192011.10216     -2040.60316        38.60016
E29  23900108.59926    118482.24326     -1015.60526        38.80026  23900095.10825   2170629.27525      -757.71325        32.20025
R04  20686804.12426 110839686.70626     -1292.67626        38.90026
C34  25523191.56226    384766.52426     -2798.29726        37.80026                                                                
C26  23208586.33025   -487447.09025      2001.03225        33.40025  23208614.21124 -13736942.39424      1508.39724        28.90024
E33  24339369.90526 -13302365.17126     -1925.63926        40.10026  24339332.13125   2288850.19525     -1447.47725        34.00025
E26  26211666.44125 -17529770.49625     -3625.32125        31.60025  26211636.46224 -13724767.38624     -2705.77624        28.50024
C16  39980475.69325 -16494430.31825     -1465.38225        31.40025                                                                
C09  38046473.17525  -2784743.84525     -1149.40425        31.60025                                                                
R15  20242621.12525 108233088.31625      1992.77625        33.40025
E19  24444296.96525 -15527533.55525       445.44325        30.40025  24444312.25524 -12360422.83124       341.88824        23.60024
C21  22334322.87025    -41503.42725      -300.46425        30.50025  22334308.48024   2043704.94724      -210.45224        24.10024
R19  23078947.97725 123519533.74825     -4432.14625        29.90025
E07  26569065.81824 -18519998.49024     -2292.61824        28.30024  26568980.67706 -10315492.01206     -1714.37906        38.70006
C36  25505478.62524 -14279359.82724     -3275.38424        28.90024  25505545.47824 -13286527.11224     -2472.84124        27.60024
E27  26187817.95125 -10933897.66125      1036.82225        35.30025  26187793.66825 -11063385.13425       763.45825        34.10025
R21  23362177.20124 125078475.62524       736.11624        28.40024
R16  23667404.29724 126489661.44024      3835.52624        27.80024
C22  24051408.15725 -14526081.17625     -2298.07525        31.20025  24051386.87123 -10954513.54523     -1732.71423        22.20023
C13  40380620.97824    144708.28924     -1505.61924        26.90024                                                                
C14  26304256.14224 -10575080.22724      1758.32924        25.50024                                                                
R20  21800394.60124 116639209.73924     -2212.42424        24.10024
E30  27404531.33823 -17510075.13823     -1040.88523        21.00023                                                                
E21                                                                  27458208.27824 -12991866.49724      1564.29424        25.40024
> 2025 10 05 09 11 47.0000186  0 36                      
G07  21675072.65907   -952982.14607      1175.67307        45.30007                                                                
G09  20754720.60607    -88589.47507        88.98907        43.80007  20754729.30006  -6428703.26906        66.82106        38.30006
G06  22490457.48027      3866.08827      -477.61927        41.50027  22490410.71325     -4730.20025      -360.70025        31.80025
G16  22693224.50825    -40182.39825      -204.71225        33.70025                                                                
G03  21312327.68325    471942.94625     -2814.94325        31.40025  21312263.52724 -13361917.64224     -2102.23124        25.90024
G01  24563245.31925 -16384700.20225     -4184.86225        29.90025  24563268.10324 -12977891.04024     -3121.96524        23.80024
G04  21417026.00125 -13318461.77325     -1786.21325        31.10025  21417010.41224  -7370810.44824     -1331.65124        25.90024
G11  24674414.65824   -589792.78324      1645.42624        29.10024  24674412.56023 -11908968.25223      1226.21923        20.80023
G30  23958444.91424 -11202434.05724      2467.34524        26.50024  23958445.21423 -13473415.59723      1836.26323        21.30023
R05  20845745.69108 111495181.83008       866.25008        51.40008
E29  23900281.87926    119498.77026     -1017.63826        38.70026  23900280.38025   2171388.29025      -760.65025        32.20025
R14  20660382.51506 110194013.98706     -2040.32906        38.40006
R04  20687020.27426 110840889.64526     -1289.33826        38.30026
E12  26242472.81416 -16151405.06016       829.29216        37.80016  26242488.70325 -13057984.92225       618.37225        29.70025
C26  23208164.52225   -489446.69225      1998.40225        33.40025  23208222.98224 -13738448.60924      1505.12224        28.50024
E33  24339774.92426 -13300437.88026     -1929.37126        38.90026  24339694.28025   2290293.15325     -1442.27025        33.60025
C09  38046695.92025  -2783595.37025     -1148.98025        31.60025                                                                
E26  26212316.69125 -17526144.68525     -3626.95925        31.60025  26212320.88824 -13722060.34624     -2707.67224        27.60024
C16  39980759.59625 -16492964.54025     -1466.73325        31.40025                                                                
R15  20242184.32725 108230799.12625      1989.40925        33.00025
C34  25523738.08426    387566.48026     -2801.40126        36.90026                                                                
E19  24444200.13225 -15527979.49725       445.61925        30.40025  24444219.31923 -12360758.60823       331.92623        23.40023
C21  22334372.03625    -41206.22525      -297.01825        30.40025  22334363.94224   2043925.40624      -224.87524        23.80024
R19  23079819.47325 123524240.93825     -4432.02325        29.80025
E27  26187618.58925 -10934932.96025      1033.13625        34.40025  26187598.80325 -11064158.57225       777.52425        33.70025
R03  23574179.33524 126257241.23624     -2812.24324        29.10024
E07  26569496.02124 -18517702.65924     -2297.43624        29.20024  26569409.38106 -10313776.97806     -1715.97206        40.80006
C22  24051862.94225 -14523779.48625     -2301.68925        30.70025  24051821.57023 -10952782.27323     -1731.57023        22.60023
R21  23362000.02424 125077572.90224       748.14124        28.30024
R16  23666777.13124 126486357.25424      3843.49424        27.70024
C13  40380891.99024    146216.60924     -1510.54624        27.00024                                                                
C14  26303930.56824 -10576839.80824      1758.66324        25.50024                                                                
R20  21800760.94724 116641213.61324     -2213.63824        24.10024
E30  27404742.69123 -17509029.54023     -1049.51723        21.00023                                                                
C36  25506114.78424 -14276083.73424     -3277.20724        29.10024  25506168.44724 -13284053.76224     -2474.45024        27.10024
E21                                                                  27457800.56024 -12993432.92424      1566.60024        27.40024
> 2025 10 05 09 11 48.0000190  0 35                      
G07  21674853.51107   -954155.18307      1170.90707        45.30007                                                                
G09  20754716.10917    -88675.95517        84.49617        43.70017  20754721.80506  -6428767.74606        62.81806        39.10006
G06  22490554.91326      4347.01626      -482.69926        40.70026  22490513.84125     -4370.12425      -360.73125        31.20025
G16  22693280.86915    -39977.38315      -206.43415        33.70015                                                                
G03  21312887.39525    474762.62025     -2822.64025        31.40025  21312812.44724 -13359813.80624     -2104.72624        25.30024
G01  24564049.96225 -16380514.98725     -4186.07525        30.10025  24563927.64723 -12974765.05923     -3128.05623        23.00023
G04  21417388.45125 -13316674.97925     -1788.91925        30.90025  21417358.77124  -7369472.04624     -1342.04524        25.50024
G30  23957977.53724 -11204905.33924      2473.06624        26.50024  23957848.92623 -13475247.09123      1827.21223        21.00023
G11  24674155.63724   -591434.97124      1639.29424        28.50024  24674107.97023 -11910203.90723      1239.22423        20.70023
R05  20845592.79608 111494312.95108       860.75108        50.30008
E29  23900477.34426    120519.86826     -1023.38226        38.50026  23900484.83925   2172149.85225      -762.83525        32.10025
R14  20660765.05006 110196000.85806     -2047.37606        38.30006
R04  20687295.48326 110842309.42326     -1296.69326        37.80026
E12  26242341.20506 -16152232.85306       825.98706        37.20006  26242337.00824 -13058603.18124       617.33124        29.10024
C26  23207787.98315   -491439.89815      1990.00715        33.40015  23207852.43824 -13739954.53624      1505.78424        28.00024
E33  24340167.65326 -13298509.54026     -1928.86426        37.90026  24340072.61825   2291742.75525     -1452.92325        33.10025
C09  38046924.36225  -2782443.39525     -1153.72325        31.60025                                                                
E26  26213001.41725 -17522514.88825     -3631.78825        31.60025  26213143.21924 -13719351.97124     -2709.03924        27.00024
C16  39981035.40525 -16491495.86025     -1470.13025        31.30025                                                                
C22  24052316.82825 -14521475.92925     -2304.49025        30.70025  24052273.65724 -10951048.91424     -1734.40224        23.80024
C21  22334444.58625    -40902.86725      -306.43525        30.40025  22334431.39524   2044152.45824      -230.34824        23.70024
R15  20241828.17425 108228842.52925      1981.95425        32.60025
E27  26187430.31925 -10935963.75525      1028.54325        33.70025                                                                
E19  24444146.47025 -15528421.05825       439.37025        30.40025  24444147.36923 -12361081.02823       315.74223        23.10023
R19  23080626.21525 123528503.43425     -4434.29125        29.80025
R03  23574730.05424 126260136.47024     -2815.25624        29.30024
E07  26569914.83124 -18515403.83124     -2300.32524        29.20024  26569857.57006 -10312058.72306     -1719.86406        39.80006
C36  25506732.35724 -14272802.81524     -3283.33024        29.10024  25506807.60524 -13281577.27924     -2478.04824        26.70024
R21  23361877.10924 125076862.36524       740.94424        28.20024
R16  23665984.48024 126482070.14824      3841.77824        27.60024
C13  40381144.71524    147729.94124     -1515.83724        27.10024                                                                
C14  26303614.58724 -10578597.37824      1756.56424        25.50024                                                                
R20  21801212.13524 116643573.27624     -2221.78424        24.10024
E30  27404921.66823 -17507977.07023     -1055.90623        21.00023                                                                
E21                                                                  27457411.72924 -12994995.66224      1560.89324        27.40024
> 2025 10 05 09 11 49.0000194  0 35                      
G07  21674631.06507   -955326.05107      1170.53207        45.40007                                                                
G09  20754693.62507    -88760.50607        83.58707        43.50007  20754695.72306  -6428831.06006        62.73306        38.70006
G06  22490630.16126      4834.58426      -490.88826        40.10026  22490594.18625     -4009.60425      -360.74225        31.60025
G16  22693330.33425    -39767.09125      -212.92925        33.80025                                                                
G03  21313431.81825    477585.36525     -2824.28025        31.40025  21313343.37924 -13357707.37224     -2107.73124        24.90024
G04  21417699.33525 -13314892.47125     -1780.36425        30.70025  21417693.63924  -7368129.76024     -1344.22824        25.20024
G30  23957480.78124 -11207373.02124      2465.88024        26.50024  23957367.46024 -13477077.95924      1830.55524        24.30024
G11  24673844.15324   -593075.20824      1639.26224        28.00024                                                                
G01  24564818.03025 -16376331.52725     -4182.58125        30.10025                                                                
R05  20845425.51208 111493461.65808       860.76108        49.30008
E29  23900658.71826    121541.99326     -1022.63926        38.40026  23900671.90925   2172911.78925      -762.12525        32.00025
R14  20661152.68216 110198108.99716     -2047.58816        38.10016
R04  20687500.24226 110843449.53426     -1292.24126        37.30026
E12  26242175.72006 -16153058.51306       824.59306        36.70006  26242170.02424 -13059218.74724       614.22024        28.70024
C26  23207449.21725   -493430.44625      1989.21925        33.50025  23207311.61224 -13741456.64524      1500.19924        26.50024
C22  24052750.92725 -14519170.46925     -2306.41025        31.50025  24052700.56224 -10949316.00224     -1732.68724        24.70024
E33  24340571.47326 -13296575.15826     -1937.40226        37.00026  24340433.56825   2293189.95525     -1445.99725        32.60025
C09  38047142.61125  -2781288.75225     -1155.97825        31.60025                                                                
E26  26213689.14125 -17518881.56825     -3635.08125        31.50025  26213700.53324 -13716642.80924     -2709.55524        26.10024
C21  22334479.06225    -40593.79425      -311.93125        30.70025  22334475.46424   2044382.02624      -230.82524        24.70024
R15  20241483.71225 108227044.96925      1985.24425        32.30025
C16  39981313.91225 -16490022.32025     -1475.97025        31.20025                                                                
E27  26187248.64525 -10936993.32725      1028.96025        33.20025                                                                
E19  24444046.33925 -15528859.13225       436.33125        30.30025                                                                
R19  23081448.54625 123532945.79725     -4437.04125        29.80025
R03  23575162.95425 126262497.08325     -2815.29125        29.80025
E07  26570348.33124 -18513103.59524     -2300.93924        29.30024  26570287.17306 -10310339.27706     -1720.04006        39.30006
C36  25507358.02324 -14269518.00024     -3286.76124        29.10024  25507432.07224 -13279098.44324     -2480.01224        26.80024
R21  23361750.59724 125076228.39224       735.00724        28.10024
C13  40381454.40124    149247.02524     -1518.95924        27.10024                                                                
R16  23665277.56924 126478337.17524      3836.77224        27.50024
C14  26303252.73724 -10580355.53424      1758.44824        25.40024                                                                
R20  21801599.46724 116645687.32824     -2219.97924        24.10024
E30  27405121.92923 -17506915.37523     -1066.30723        21.00023                                                                
E21                                                                  27457006.11024 -12996557.20824      1560.95124        27.30024
> 2025 10 05 09 11 50.0000198  0 36                      
G07  21674410.11807   -956493.63707      1165.69507        45.40007                                                                
G09  20754684.93107    -88842.31307        80.43507        43.40007  20754691.82606  -6428891.95006        59.67706        38.60006
G06  22490735.68816      5322.56016      -488.18016        39.50016  22490696.41515     -3645.48815      -365.91415        32.10015
G16  22693369.90715    -39554.82115      -213.26015        33.80015                                                                
G03  21313992.73025    480409.61525     -2825.00125        31.50025  21313891.10024 -13355600.14524     -2107.62324        24.50024
G01  24565631.96725 -16372145.25425     -4187.67925        30.10025                                                                
G04  21418059.38625 -13313108.47725     -1784.73625        30.50025  21418038.70024  -7366786.01224     -1344.47924        24.80024
G30  23957031.99224 -11209837.64624      2463.09624        26.90024  23957073.66324 -13478910.63624      1833.58124        24.10024
G11  24673562.34824   -594714.48124      1638.79024        27.70024                                                                
R05  20845275.91608 111492608.07708       856.71808        48.80008
E29  23900862.57716    122567.25416     -1026.82716        38.20016  23900877.26725   2173676.09425      -765.48725        31.90025
R04  20687753.86626 110844755.91426     -1299.90326        36.80026
C26  23207020.21415   -495417.89315      1985.89515        33.50015  23206981.54124 -13742950.17124      1489.23424        25.30024
E12  26242026.12306 -16153881.66606       821.90006        36.30006  26242027.62224 -13059833.19724       613.89224        28.50024
C22  24053187.72515 -14516862.52715     -2309.18215        32.60015  24053161.64324 -10947576.89624     -1742.20224        24.60024
R14  20661549.30726 110200171.37626     -2056.25026        36.90026
C09  38047375.25025  -2780129.23525     -1161.95225        31.70025                                                                
R15  20241143.74825 108225176.30525      1983.78825        32.10025
C21  22334534.52325    -40286.42525      -306.51725        30.80025  22334540.51924   2044614.53624      -233.98224        25.10024
R03  23575687.89125 126265254.45025     -2817.08125        30.20025
C16  39981584.92525 -16488548.38825     -1474.12825        31.10025                                                                
E19  24443948.60725 -15529294.79425       434.45525        30.30025                                                                
E27  26187061.57525 -10938019.07925      1023.84325        32.70025                                                                
R19  23082364.11225 123537789.99525     -4444.06825        29.80025
C34  25525360.56125    395983.47425     -2812.55125        30.70025                                                                
E07  26570763.54324 -18510797.78424     -2308.59824        29.40024  26570736.26206 -10308617.67306     -1722.68306        38.50006
E21  27456608.28624 -18967955.20424      2086.30124        28.40024  27456618.77825 -12998117.40225      1559.51625        29.80025
C36  25507998.98024 -14266234.36324     -3283.04624        29.10024  25508070.63024 -13276618.26524     -2480.84724        26.70024
R21  23361674.15024 125075765.16624       732.43624        28.00024
C13  40381779.67624    150762.77724     -1515.08624        27.10024                                                                
R16  23664523.89124 126474257.20124      3837.61924        27.40024
C14  26302939.15424 -10582111.08124      1754.24224        25.40024                                                                
R20  21802003.88724 116647797.55724     -2220.83824        24.40024
E30  27405320.09223 -17505845.85223     -1073.43723        20.90023                                                                
E33                                                                  24340813.40625   2294634.52225     -1443.25125        32.00025
E26                                                                  26214409.54224 -13713930.84824     -2713.36024        25.30024
> 2025 10 05 09 11 51.0000202  0 35                      
G07  21674186.77307   -957655.49207      1158.98807        45.50007                                                                
G09  20754661.84707    -88917.96107        72.56807        43.40007  20754668.74206  -6428948.61606        54.55506        38.20006
G06  22490784.25416      5816.14616      -496.39116        39.00016  22490780.65705     -3276.55305      -371.34405        32.10005
G16  22693404.68305    -39336.80605      -220.88605        34.10005                                                                
G03  21314537.15325    483239.53225     -2832.75025        31.80025  21314415.73724 -13353487.88824     -2114.77224        24.10024
G04  21418403.24825 -13311316.60425     -1795.81225        30.30025  21418376.26724  -7365444.91924     -1339.76524        24.50024
G01  24566377.25125 -16367953.24625     -4194.87325        30.00025                                                                
G30  23956534.03724 -11212295.14424      2453.93324        27.10024  23956578.70624 -13480745.76824      1836.35824        23.90024
G11  24673251.76324   -596352.76424      1637.78724        27.40024                                                                
R05  20845109.23108 111491761.37708       849.54508        48.50008
E29  23901055.64326    123600.98826     -1037.22026        38.10026  23901064.93725   2174445.96925      -772.66125        31.50025
R04  20687994.30026 110846085.27626     -1305.21626        36.40026
C26  23206583.71625   -497398.93725      1977.84325        34.10025  23206596.60724 -13744440.83324      1489.22824        24.40024
C22  24053642.21005 -14514548.09805     -2317.67305        33.00005  24053598.74024 -10945831.44124     -1748.62824        25.20024
E12  26241855.24216 -16154697.83416       813.42416        35.70016  26241865.73424 -13060444.59824       609.87624        28.30024
C21  22334595.68125    -39975.70425      -312.39725        31.50025  22334594.48224   2044851.60024      -239.34024        24.90024
C09  38047582.40725  -2778966.26525     -1164.69725        31.70025                                                                
R14  20661940.23626 110202297.82126     -2058.04626        36.10026
R15  20240754.31725 108223137.90225      1970.95425        32.00025
E19  24443871.86025 -15529726.04325       429.04325        30.50025  24443853.57224 -14171158.47924       318.95224        27.90024
R03  23576198.43725 126268030.19825     -2828.08225        30.50025
E21  27456193.37325 -18970037.08725      2081.88225        30.50025  27456214.95825 -12999673.29525      1553.74225        30.40025
C16  39981886.81625 -16487069.62325     -1481.18125        31.00025                                                                
E27  26186846.92325 -10939039.19425      1017.29525        32.30025                                                                
R19  23083167.55625 123542131.32525     -4443.68625        29.90025
E07  26571223.72524 -18508486.19724     -2314.47324        29.40024  26571167.96316 -10306891.84616     -1727.93716        37.00016
C34  25525904.98425    398796.83625     -2813.36125        30.50025                                                                
C36  25508628.84424 -14262943.37824     -3294.65924        29.00024  25508691.50024 -13274132.71124     -2488.24224        26.20024
E33  24341331.44725 -13292697.75225     -1940.51625        33.30025  24341178.25325   2296088.92425     -1459.31925        31.40025
C13  40382039.89624    152280.61224     -1518.87524        27.10024                                                                
R16  23663893.72724 126470934.67424      3825.20124        27.30024
C14  26302602.18724 -10583863.35424      1750.63624        25.30024                                                                
R20  21802446.68024 116650208.48224     -2230.20724        24.50024
E30  27405557.52723 -17504772.69823     -1074.96923        20.90023                                                                
E26                                                                  26215094.86724 -13711213.50024     -2720.04124        24.70024
> 2025 10 05 09 11 52.0000206  0 35                      
G07  21673976.01907   -958812.90107      1155.18707        45.90007                                                                
G09  20754654.05207    -88988.95407        68.66507        43.30007  20754665.44406  -6429001.67906        51.26106        38.20006
G03  21315081.57626    486073.81226     -2836.46026        37.20026  21314976.94924 -13351363.72824     -2130.11024        23.90024
G06  22490888.58216      6316.32616      -503.47616        38.60016  22490885.88425     -2901.76125      -377.72125        34.90025
G16  22693459.84505    -39112.78805      -227.02005        34.30005                                                                
G04  21418765.09725 -13309514.54025     -1807.15825        30.20025  21418731.52124  -7364100.33224     -1346.33224        24.40024
G01  24567174.39925 -16363751.03925     -4207.30425        29.90025                                                                
G11  24672964.56224   -597982.23524      1625.06324        27.10024                                                                
G30  23956081.05024 -11214746.29624      2447.98024        27.30024                                                                
R05  20844956.93708 111490894.79208       844.90008        48.40008
E29  23901276.89026    124636.79026     -1037.08626        37.90026  23901272.69325   2175219.47025      -775.31325        31.40025
C26  23206202.38025   -499372.31825      1969.54925        34.20025  23206224.86524 -13745928.08624      1485.54824        23.60024
C22  24054091.89905 -14512228.92005     -2321.55105        33.60005  24054051.12725 -10944083.00425     -1749.92825        31.60025
E26  26215838.65325 -19155476.78425     -3650.37125        31.80025  26215802.37824 -13708491.24724     -2724.70524        24.10024
R04  20688256.31826 110847436.09626     -1313.26826        36.00026
C21  22334659.53715    -39659.07315      -319.58715        32.20015  22334666.43224   2045091.60224      -241.47124        24.80024
R14  20662336.26225 110204357.14925     -2066.36225        35.40025
C09  38047814.74625  -2777797.29625     -1171.96725        31.70025                                                                
R15  20240392.76825 108221153.78225      1964.86725        31.90025
R03  23576727.87125 126270810.54425     -2829.87225        30.90025
E19  24443782.22225 -15530151.69425       422.85225        31.00025  24443778.32424 -14171475.66524       317.18624        27.70024
E21  27455834.22125 -18972117.92025      2080.30825        30.60025  27455829.12525 -13001225.78025      1550.78025        31.30025
C16  39982207.59425 -16485585.04525     -1487.48425        30.90025                                                                
R19  23083939.22125 123546207.06525     -4451.11625        29.90025
E07  26571715.68425 -18506169.96625     -2318.55325        29.60025  26571618.85126 -10305161.35126     -1732.82926        36.40026
C34  25526430.82025    401617.82125     -2824.79525        30.30025                                                                
E12  26241705.04625 -16155510.87425       811.22625        35.10025  26241718.53624 -13061048.63824       600.35824        28.10024
C13  40382364.87124    153809.60224     -1534.56824        27.00024                                                                
R16  23663151.44124 126466917.37524      3808.75724        27.20024
R20  21802862.49224 116652378.39324     -2240.69224        24.70024
C14  26302283.80824 -10585609.11524      1742.50324        25.20024                                                                
E30  27405755.69023 -17503695.58723     -1079.08923        20.80023                                                                
E27  26186673.64325 -10940053.39625      1011.24525        31.90025  26186671.84424 -14165732.50024       758.00524        28.40024
C36  25509276.39524 -14259643.40524     -3304.46424        29.00024  25509336.65424 -13271643.64424     -2490.82324        28.40024
E33                                                                  24341564.68525   2297546.43125     -1459.06025        30.80025
> 2025 10 05 09 11 53.0000210  0 36                      
G07  21673741.28107   -959966.81807      1152.16907        46.00007                                                                
G09  20754634.56507    -89054.50207        62.82707        43.30007  20754645.05806  -6429050.43806        46.60806        38.10006
G06  22490972.82416      6821.44916      -507.59516        38.30016  22490975.22215     -2525.46115      -377.05415        34.40015
G16  22693477.53205    -38883.06205      -232.58005        34.40005                                                                
G04  21419071.48525 -13307712.49425     -1802.03625        30.20025  21419051.39924  -7362756.83624     -1342.95124        24.10024
G01  24567970.94825 -16359541.29825     -4213.50825        29.80025                                                                
G30  23955609.77624 -11217195.67124      2448.48524        27.40024                                                                
G11  24672632.99224   -599605.30224      1619.86624        26.90024                                                                
G03  21315639.79026    488914.48826     -2843.87426        40.10026  21315499.78724 -13349232.74424     -2134.39524        25.00024
R05  20844789.95208 111490045.79808       838.71608        48.50008
C21  22334718.29606    -39335.20206      -327.48906        37.40006  22334719.49524   2045334.20324      -243.90024        25.70024
R03  23577255.20616 126273678.96916     -2834.08816        37.50016
E29  23901446.27316    125678.24416     -1045.03016        37.80016  23901462.46225   2175998.37425      -781.60525        31.60025
C26  23205779.67325   -501343.91625      1970.70625        34.70025  23205784.76924 -13747413.31524      1484.21624        27.80024
C22  24054541.58705 -14509904.73305     -2326.69105        34.90005  24054489.72325 -10942335.07125     -1747.67925        30.90025
R04  20688505.74616 110848816.02816     -1316.19116        35.70016
R14  20662714.90025 110206419.52625     -2074.40625        35.00025
C09  38048031.19625  -2776626.18125     -1172.18825        31.70025                                                                
E26  26216477.51025 -19151825.57625     -3651.20725        31.90025  26216619.91224 -13705743.76824     -2760.09024        27.30024
R15  20240023.72325 108219225.48025      1962.59225        31.80025
E19  24443688.98625 -15530573.55625       419.96825        31.10025  24443687.48724 -14171791.24724       314.77924        27.60024
E21  27455386.93125 -18974198.54625      2080.52225        30.60025  27455424.40526 -13002776.07726      1549.20226        37.10026
E27  26186467.38625 -10941061.80125      1005.50625        31.70025  26186467.38624 -14166485.84924       751.02124        28.30024
E12  26241550.65325 -16156319.10925       805.83225        34.40025  26241556.64824 -13061651.78624       602.70224        27.80024
C16  39982495.39425 -16484095.77825     -1491.61025        30.80025                                                                
R19  23084768.74725 123550688.46225     -4462.26825        29.90025
E07  26572135.99325 -18503850.43925     -2321.17425        29.60025  26572054.15026 -10303431.09826     -1730.13226        35.80026
C34  25526991.43225    404440.04025     -2822.83625        30.10025                                                                
C36  25509910.15724 -14256341.96624     -3302.17224        28.90024  25509958.12314 -13269153.86014     -2490.14014        28.70014
R21  23361194.78124 125073235.40324       714.57624        27.60024
C13  40382667.66124    155342.78024     -1535.27024        27.00024                                                                
R16  23662354.89324 126462706.69824      3822.06124        27.10024
R20  21803252.82224 116654511.57524     -2242.66724        24.80024
C14  26301950.43924 -10587352.55224      1742.27624        25.00024                                                                
E30  27405969.74223 -17502615.13823     -1082.11723        20.80023                                                                
E33                                                                  24341928.03425   2299002.81725     -1455.82425        30.10025
> 2025 10 05 09 11 54.0000214  0 36                      
G07  21673526.63027   -961116.76527      1147.21227        46.00027                                                                
G06  22491045.97307      7329.90707      -510.12407        42.90007  22491061.56206     -2145.72706      -381.45006        38.50006
G09  20754620.17507    -89114.55907        57.31107        43.30007  20754625.57206  -6429095.50206        43.21706        38.10006
G03  21316111.36316    491761.05116     -2849.50516        39.80016  21316035.51625 -13347111.82425     -2115.88825        29.90025
G16  22693548.88305    -38646.88005      -239.40905        34.70005                                                                
G04  21419393.16325 -13305903.77825     -1812.05125        30.20025  21419393.46224  -7361410.28024     -1348.08524        23.90024
G01  24568796.27625 -16355331.35925     -4210.03525        29.60025                                                                
G30  23955133.70624 -11219638.33024      2439.29924        28.10024                                                                
G11  24672340.99424   -601226.10024      1619.66124        26.60024                                                                
R05  20844631.66208 111489243.46008       831.88808        48.50008
C26  23205387.84417   -503309.44517      1962.49317        42.10017  23205395.93915 -13748893.84615      1478.18215        34.00015
E21  27455007.09426 -18976272.94926      2071.29026        39.40026  27455022.08426 -13004325.79826      1549.43226        36.90026
C21  22334771.06007    -39005.92307      -331.98307        42.30007  22334774.65724   2045581.92724      -250.28524        25.70024
R03  23577783.74006 126276551.22506     -2839.92506        40.70006
E29  23901643.53606    126725.40906     -1049.77006        37.80006  23901654.92925   2176782.33725      -786.49125        31.50025
E19  24443591.55426 -15530990.79726       414.93126        37.30026  24443605.34424 -14172103.19424       310.12924        28.50024
C22  24054970.59026 -14507573.62526     -2334.56826        35.50026  24054859.96724 -10940580.34024     -1758.13024        29.00024
R14  20663094.43715 110208485.71615     -2077.16815        34.90015
R04  20688702.40926 110849913.99726     -1323.45126        35.50026
E12  26241386.36625 -16157120.18025       797.48825        34.00025  26241396.55924 -13062251.39624       597.84024        27.40024
E26  26217221.89525 -19148169.45325     -3658.57925        32.20025                                                                
C09  38048253.04325  -2775446.11625     -1184.53925        32.10025                                                                
E33  24342306.07224 -19349177.14424     -1956.42524        28.80024  24342292.88125   2300461.97625     -1460.54625        29.50025
R15  20239538.35925 108216676.32325      1954.25625        31.80025
E27  26186255.13325 -10942064.62925      1000.03925        31.50025  26186271.32224 -14167237.81824       751.27824        28.10024
R19  23085593.47625 123555143.07025     -4459.29125        30.30025
E07  26572563.19725 -18501525.71325     -2327.32525        30.10025  26572488.84925 -10301693.36825     -1741.46825        35.10025
C16  39982782.89525 -16482598.61525     -1501.11125        30.70025                                                                
C36  25510519.03525 -14253033.52925     -3311.93425        29.80025  25510598.18024 -13266666.44724     -2486.22724        27.90024
C34  25527507.07525    407263.01725     -2823.35425        30.00025                                                                
R21  23361079.66124 125072662.68324       713.04124        27.60024
C13  40382964.45524    156875.60324     -1532.64624        27.00024                                                                
R16  23661647.98224 126458972.96124      3811.92124        27.10024
R20  21803689.62024 116656890.36224     -2245.58924        25.20024
C14  26301599.68124 -10589090.70024      1735.50224        24.90024                                                                
E30  27406153.21523 -17501533.00823     -1082.97023        21.50023                                                                
> 2025 10 05 09 11 55.0000218  0 36                      
G07  21673324.86917   -962264.60217      1147.03217        45.90017                                                                
G09  20754617.17807    -89172.78807        58.06607        43.50007  20754624.37306  -6429139.40306        43.31906        38.40006
G06  22491144.90407      7840.51507      -510.93407        44.00007  22491170.38706     -1764.70506      -381.66606        37.70006
G03  21316588.03316    494609.03316     -2848.68916        39.60016  21316586.83425 -13344984.03025     -2131.23025        33.70025
G16  22693582.16005    -38409.59905      -237.08205        34.70005                                                                
G04  21419768.50325 -13304092.22025     -1812.97825        30.50025  21419749.31624  -7360060.19124     -1351.85524        23.70024
G01  24569612.91125 -16351119.11025     -4213.40425        29.50025                                                                
G30  23954690.61324 -11222078.91824      2439.55324        28.50024                                                                
G11  24672115.85024   -602841.47424      1612.66224        26.40024                                                                
R05  20844477.86808 111488369.22308       834.23008        48.40008
C26  23205007.70707   -505272.48407      1961.79407        44.40007  23205029.59205 -13750373.21605      1478.78905        34.00005
C21  22334846.90707    -38674.49607      -332.50207        42.20007  22334849.90524   2045832.01024      -251.26324        25.70024
E21  27454609.56917 -18978344.22417      2070.46117        41.50017  27454637.75016 -13005872.88516      1545.77016        37.90016
R03  23578338.65606 126279469.43606     -2838.27306        40.60006
E29  23901850.39306    127774.35306     -1049.83306        38.30006  23901864.78325   2177566.02825      -783.55525        30.90025
E19  24443510.91016 -15531408.13616       416.63616        37.50016  24443536.69224 -14172413.63524       309.68824        28.70024
E07  26572996.99725 -18499198.88225     -2327.88225        33.90025  26572940.93625 -10299951.96125     -1743.24525        34.50025
C22  24055425.67516 -14505243.74116     -2329.27016        35.80016  24055315.35224 -10938824.52724     -1756.35224        28.10024
R14  20663497.95805 110210584.70505     -2078.51405        34.80005
R20  21804093.14025 116658995.23425     -2246.00925        32.20025
R04  20688977.31925 110851333.00925     -1322.03825        35.30025
E12  26241250.56015 -16157919.72215       798.02715        33.90015  26241249.36124 -13062853.73424       603.70324        27.10024
E26  26217961.18325 -19144511.34025     -3659.10625        32.60025                                                                
R15  20239181.30615 108214715.14015      1958.43515        32.10015
C09  38048474.28925  -2774265.71525     -1180.56825        32.10025                                                                
E27  26186070.76025 -10943065.30725       999.60325        31.50025  26186091.44624 -14167985.40024       745.38824        29.40024
E33  24342694.90325 -19347219.83225     -1957.31125        31.10025  24342677.81524   2301923.86224     -1463.24924        29.00024
R19  23086433.49525 123559584.67025     -4459.42225        30.40025
C36  25511141.10525 -14249721.12825     -3314.38325        30.10025  25511242.73424 -13264174.48724     -2494.23424        27.20024
C16  39983086.28525 -16481100.60725     -1498.43025        30.60025                                                                
C34  25528092.26925    410088.36525     -2826.53225        29.90025                                                                
R21  23361005.91224 125072215.53624       703.97324        27.60024
C13  40383287.93224    158411.04924     -1536.75624        27.00024                                                                
R16  23660961.15724 126455252.22124      3810.02124        27.00024
C14  26301257.61824 -10590825.79524      1733.56824        24.80024                                                                
E30  27406404.44123 -17500449.39523     -1084.35523        22.20023                                                                
> 2025 10 05 09 11 56.0000222  0 36                      
G06  22491251.93007      8343.98307      -500.14807        44.60007  22491257.92606     -1388.83606      -373.29206        37.00006
G09  20754591.69507    -89238.40207        69.05607        44.10007  20754603.38706  -6429188.28106        51.36606        39.60006
G03  21317137.25306    497449.59306     -2836.84806        39.50006  21317119.86525 -13342861.37325     -2120.08725        34.60025
G07  21673065.84927   -963419.49627      1158.42227        44.90027                                                                
G16  22693611.24025    -38178.80925      -228.54325        34.70025                                                                
G04  21420082.68525 -13302290.23925     -1797.19225        30.70025  21420083.88424  -7358714.96924     -1342.78924        23.50024
G01  24570401.36524 -16346915.37424     -4199.47624        29.40024  24570279.35023 -14141942.64423     -3139.08423        21.00023
G30  23954219.93924 -11224528.41824      2453.95424        28.70024                                                                
G11  24671819.35524   -604459.96624      1620.05124        26.30024  24671616.99523 -14178937.83323      1209.78323        18.50023
R05  20844330.67028 111487625.00428       845.11828        48.30028
C26  23204625.47207   -507241.61707      1972.17907        44.30007  23204642.26005 -13751857.22005      1486.32105        33.90005
E29  23902045.55806    128816.70406     -1039.05306        40.30006  23902054.25225   2178344.78525      -776.28925        31.50025
C21  22334898.77107    -38349.44507      -321.86207        42.10007  22334902.66924   2046078.37724      -244.50924        25.60024
E21  27454225.53506 -18980423.35806      2082.06306        41.40006  27454234.22906 -13007424.56106      1553.96906        38.80006
E19  24443438.95906 -15531832.27606       427.79206        38.10006  24443445.55525 -14172729.92625       319.21725        30.20025
E07  26573448.78416 -18496879.34116     -2315.14616        36.20016  26573375.33525 -10298217.23425     -1731.38625        33.80025
C22  24055869.36826 -14502920.95726     -2319.23326        35.80026  24055756.04724 -10937072.37424     -1750.32324        26.80024
R14  20663871.49925 110212618.85925     -2067.37425        34.80025
R04  20689221.65025 110852684.59125     -1311.56325        35.10025
E12  26241077.28005 -16158725.84505       809.66405        33.80005  26241088.07324 -13063454.89624       600.57324        26.70024
E26  26218666.29525 -19140862.36625     -3644.40325        33.20025  26218564.96524 -14562414.26924     -2723.52524        25.60024
R20  21804518.24625 116661311.27725     -2239.03525        33.50025
R15  20238860.52825 108213043.73025      1963.46425        32.40025
E33  24343070.54325 -19345267.28525     -1950.16425        32.00025  24343039.66424   2303378.89324     -1451.60224        28.30024
C09  38048687.14225  -2773092.57525     -1169.50925        32.20025                                                                
E27  26185879.49325 -10944072.35925      1010.23825        31.70025  26185889.38624 -14168738.42224       755.74124        29.10024
R19  23087244.13325 123563963.50425     -4451.36025        30.50025
C36  25511779.06325 -14246414.20125     -3304.18825        30.10025  25511867.20224 -13261690.81424     -2479.52724        26.50024
C16  39983332.71525 -16479602.75125     -1497.77925        30.40025                                                                
C34  25528597.42025    412908.51825     -2817.55525        29.80025                                                                
R03  23578828.21726 126282132.58526     -2828.88326        39.50026
R21  23360898.58624 125071684.16024       719.78424        27.50024
R16  23660228.76424 126451383.19624      3824.17924        27.10024
C13  40383532.86224    159945.42624     -1533.84324        27.00024                                                                
C14  26300902.06424 -10592567.60824      1745.17024        24.80024                                                                
E30  27406591.21223 -17499370.51123     -1076.51823        22.50023                                                                
> 2025 10 05 09 11 57.0000226  0 35                      
G06  22491329.57707      8836.63107      -487.98707        44.60007  22491341.26806     -1020.55406      -364.48706        36.10006
G09  20754574.00707    -89314.58407        81.46607        44.10007  20754580.90306  -6429245.11606        60.81306        39.50006
G07  21672867.68627   -964584.57127      1170.16427        43.90027                                                                
G03  21317645.40106    500279.72806     -2824.92206        39.40006  21317648.99926 -13340748.15026     -2108.50626        37.50026
G16  22693634.62425    -37958.51425      -214.79825        34.80025                                                                
G04  21420429.84525 -13300500.79825     -1783.17125        31.10025  21420416.05523  -7357383.19323     -1325.05123        23.40023
G01  24571204.50924 -16342728.89124     -4177.85624        29.30024  24571076.49823 -14138804.87823     -3137.76523        21.00023
G30  23953743.26924 -11226996.50524      2477.38024        28.70024                                                                
G11  24671529.75524   -606092.07124      1638.91024        26.30024  24671568.12923 -14180148.21623      1210.38223        22.80023
R05  20844151.69418 111486713.28318       857.52718        48.10018
C26  23204230.64507   -509221.12607      1984.69707        44.30007  23204253.13005 -13753348.99705      1495.66405        33.80005
E29  23902239.22407    129848.32207     -1026.25107        42.60007  23902241.02325   2179115.52625      -766.73425        31.30025
C21  22334954.53307    -38034.79307      -309.45207        42.10007  22334953.33424   2046313.06424      -228.84724        25.30024
E21  27453804.02706 -18982511.94106      2094.30606        41.30006  27453828.31007 -13008984.34007      1563.83007        43.40007
E19  24443348.72206 -15532267.25306       440.39506        39.60006  24443355.01715 -14173054.87115       329.27115        30.20015
C22  24056307.06526 -14500608.63326     -2307.09226        35.80026  24056191.34524 -10935330.40524     -1736.87524        26.30024
E07  26573911.06426 -18494570.67526     -2303.47826        36.00026  26573805.23715 -10296493.33015     -1718.49215        33.10015
E12  26240928.28305 -16159542.44605       821.83905        34.20005  26240926.78424 -13064070.36424       622.62124        26.40024
R14  20664237.54615 110214614.87815     -2055.82515        34.70015
R04  20689451.29125 110853958.02125     -1294.70425        34.90025
E26  26219346.52425 -19137223.59125     -3633.67425        33.90025  26219246.09424 -14559697.25424     -2717.01324        25.60024
E33  24343473.76425 -19343329.16125     -1930.91125        32.90025  24343400.91424   2304825.40124     -1442.24724        27.80024
R15  20238464.50325 108210971.67425      1981.17225        32.80025
C09  38048913.78525  -2771930.96325     -1155.84825        32.20025                                                                
E27  26185679.53125 -10945095.39825      1031.03225        31.70025  26185678.93224 -14169516.77324       791.01524        28.80024
R20  21804949.94725 116663664.81025     -2220.98125        33.30025
R19  23088103.33925 123568604.86825     -4434.82825        30.70025
C36  25512438.60625 -14243122.29625     -3284.39325        30.00025  25512489.87124 -13259220.18324     -2464.10924        25.90024
C16  39983602.82825 -16478123.00925     -1470.68425        30.30025                                                                
R03  23579379.23526 126285128.15126     -2815.72426        37.80026
R21  23360756.18524 125070967.49424       734.34724        27.50024
C13  40383793.38224    161465.21124     -1512.48824        27.40024                                                                
R16  23659534.14524 126447716.71924      3841.21024        27.20024
C14  26300559.10224 -10594328.09824      1769.82824        24.80024                                                                
E30  27406800.16723 -17498307.51623     -1055.05023        22.80023                                                                
> 2025 10 05 09 11 58.0000230  0 35                      
G06  22491437.50207      9317.00707      -473.99007        44.60007  22491443.19806      -661.84806      -353.91906        35.60006
G09  20754559.91707    -89403.95907        95.97207        44.10007  20754572.80806  -6429311.94706        71.83006        39.40006
G07  21672673.12127   -965763.89827      1186.45427        43.30027                                                                
G03  21318200.31706    503097.05306     -2810.92006        39.60006  21318194.92116 -13338644.49216     -2098.87416        37.40016
G16  22693701.77715    -37751.04215      -201.06115        34.90015                                                                
G04  21420775.50625 -13298723.06225     -1771.88325        31.10025  21420765.01323  -7356063.51623     -1313.62823        23.20023
G01  24572029.83824 -16338553.04824     -4170.52224        29.20024  24571885.03823 -14135667.20123     -3137.63023        20.90023
G30  23953296.57824 -11229473.64824      2481.67024        28.70024                                                                
G11  24671202.38224   -607737.83624      1652.59424        26.60024  24671276.43123 -14181353.77723      1203.15123        22.00023
R05  20843997.00108 111485832.92208       873.09308        47.90008
C26  23203871.49407   -511214.29607      1999.99907        44.10007  23203881.08715 -13754851.04915      1507.18815        33.00015
E29  23902439.78507    130866.33407     -1011.20907        42.70007  23902444.88225   2179876.45325      -756.01925        31.00025
C21  22335025.28407    -37734.17907      -293.59507        42.00007  22335024.98424   2046540.15824      -223.29824        25.40024
E21  27453418.49406 -18984614.75106      2109.67306        41.30006  27453437.98007 -13010554.67707      1575.61507        43.30007
E19  24443279.77026 -15532715.29126       454.56826        39.60026  24443280.06905 -14173389.71705       339.79805        29.70005
C13  40384065.29325    162969.03725     -1495.84625        30.10025                                                                
C22  24056769.04526 -14498307.37826     -2295.72026        35.70026  24056634.43924 -10933617.46624     -1698.42424        25.40024
E12  26240773.89005 -16160372.03205       836.07805        34.80005  26240778.68724 -13064695.13624       629.42324        26.10024
R14  20664637.76905 110216695.56105     -2042.97905        34.60005
R04  20689711.21115 110855297.34715     -1284.85315        34.80015
E26  26220062.72815 -19133597.51915     -3618.97015        34.00015  26219947.30814 -14556990.35514     -2701.84114        26.70014
E33  24343810.73115 -19341403.81315     -1918.96015        33.70015  24343790.34524   2306265.75824     -1437.28024        27.30024
R15  20238173.40425 108209364.49225      1990.37225        33.00025
C09  38049146.12415  -2770781.55515     -1143.30615        32.30015                                                                
E27  26185481.06925 -10946127.74925      1037.00725        31.80025  26185465.47924 -14170379.17524       904.42824        28.40024
R19  23088924.47025 123572944.67025     -4423.89525        30.90025
R20  21805343.27525 116665716.12125     -2209.35825        33.00025
C16  39983865.44625 -16476657.57425     -1458.28225        30.20025                                                                
C36  25513090.95525 -14239843.80825     -3271.77925        30.00025  25513123.93224 -13256766.95824     -2444.52024        25.30024
R03  23579899.37526 126287859.46826     -2801.43426        36.50026
R21  23360575.11024 125069945.32924       744.00824        27.60024
R16  23658808.64824 126443788.84524      3847.49824        27.30024
C14  26300223.93424 -10596102.86024      1781.89824        25.10024                                                                
E30  27406991.13523 -17497260.67423     -1038.76623        22.80023                                                                
E07                                                                  26574251.32925 -10294778.14625     -1710.82425        32.40025
> 2025 10 05 09 11 59.0000234  0 34                      
G09  20754534.13507    -89503.97607       105.33807        44.00007  20754545.82706  -6429386.87806        78.98006        39.30006
G06  22491508.85227      9788.52927      -467.09627        44.50027  22491524.14205      -310.39005      -347.83405        35.10005
G03  21318720.45706    505903.81006     -2801.47106        40.00006  21318720.75706 -13336548.63006     -2091.96406        39.40006
G07  21672421.89527   -966949.38027      1188.55827        42.60027                                                                
G04  21421104.67825 -13296956.73225     -1760.62625        31.70025  21421091.78723  -7354751.01023     -1308.91923        23.10023
G01  24572804.80124 -16334382.48124     -4167.92724        29.10024  24572671.99323 -14132531.08323     -3135.33723        20.80023
G30  23952813.31224 -11231960.00824      2490.96624        28.70024  23952757.25123 -14391740.83423      1857.12423        20.10023
G16  22693742.24906    -37553.03606      -193.27306        35.50006                                                                
R05  20843827.01908 111484967.85808       882.30008        47.70008
C26  23203475.46807   -513217.66007      2008.46107        44.00007  23203488.35905 -13756360.71805      1513.47705        32.50005
E29  23902619.36107    131873.65607     -1001.97707        42.90007  23902629.25425   2180629.66325      -749.35225        31.00025
C21  22335061.85807    -37443.52107      -285.67907        41.90007  22335069.65324   2046759.05124      -214.79224        25.20024
E21  27453003.58106 -18986728.60006      2119.36806        41.20006  27453026.96507 -13012133.19907      1582.61307        44.00007
E19  24443174.24326 -15533173.20226       462.84826        39.60026  24443183.53624 -14173730.51924       343.78024        29.00024
E12  26240606.90605 -16161211.96005       845.10005        35.30005  26240611.10324 -13065325.17024       632.66624        28.30024
C22  24057187.25626 -14496017.72826     -2283.84626        35.70026  24057060.74324 -10931914.38224     -1698.15524        24.50024
R14  20664999.31905 110218664.88405     -2032.40905        34.80005
R04  20689944.15015 110856588.39915     -1273.95915        34.70015
E26  26220736.06225 -19129980.45225     -3612.81225        34.10025  26220626.93824 -14554290.47624     -2696.36724        26.50024
E33  24344169.28225 -19339487.28825     -1911.36225        33.70025  24344152.49424   2307699.93824     -1431.09124        26.80024
R15  20237742.30325 108207103.58225      1998.50025        33.00025
C09  38049356.87805  -2769642.53005     -1133.83305        32.50005                                                                
E27  26185272.41325 -10947170.95525      1048.63425        32.30025                                                                
C13  40384348.89725    164463.15525     -1489.26325        32.30025                                                                
R19  23089724.61625 123577267.63025     -4411.01225        31.20025
R20  21805734.80425 116667852.35925     -2201.84225        32.60025
C16  39984154.74625 -16475203.00125     -1449.14125        30.10025                                                                
R03  23580442.00025 126290806.78125     -2786.86325        35.20025
C34  25530198.01224    421288.05424     -2776.44724        28.70024                                                                
R21  23360434.20824 125069234.78824       754.75324        27.80024
R16  23658102.33724 126440059.69224      3861.04424        27.40024
E07  26574776.56525 -18489991.97525     -2281.19325        32.10025  26574677.63325 -10293069.51325     -1705.35625        31.70025
C14  26299886.66724 -10597889.16024      1792.06824        25.10024                                                                
C36  25513682.44525 -14236578.39825     -3258.86825        29.90025  25513734.30924 -13254334.95624     -2421.39024        24.80024
> 2025 10 05 09 12 00.0000238  0 35                      
G09  20754528.13907    -89612.81507       113.24907        44.00007  20754535.03406  -6429467.89606        84.06106        39.10006
G03  21319272.97406    508702.23906     -2794.26506        40.50006  21319263.98106 -13334458.74706     -2086.89206        38.50006
G07  21672221.03427   -968145.62027      1201.62027        42.00027                                                                
G06  22491616.77827     10251.16127      -458.18627        42.80027  22491623.07325        35.58525      -343.23325        34.70025
G16  22693786.61816    -37362.64116      -186.59016        35.80016                                                                
G11  24670371.95725 -19986680.09625      1669.45625        32.20025                                                                
G04  21421452.13725 -13295197.41525     -1755.80925        32.00025  21421444.64223  -7353442.86923     -1305.95923        23.00023
G30  23952343.83724 -11234449.07724      2490.42424        28.70024  23952298.26923 -14393595.80723      1854.97223        20.10023
G01  24573588.45924 -16330217.42724     -4162.29624        29.00024  24573474.53823 -14129399.18923     -3129.78123        20.80023
R05  20843668.42908 111484067.61408       890.49908        47.60008
E29  23902820.22207    132872.16107      -994.09607        43.10007  23902827.41725   2181376.40225      -743.50425        32.80025
C26  23203092.03407   -515229.36407      2015.87207        43.80007  23203112.12015 -13757876.65815      1519.07615        32.00015
E12  26240454.31106 -16162060.11306       852.26506        37.10006  26240463.30524 -13065958.12724       634.41724        27.90024
C21  22335129.91107    -37161.33607      -277.95007        41.80007  22335134.40824   2046973.69224      -212.51524        25.60024
E21  27452611.15306 -18988851.14906      2126.89806        41.20006  27452633.63707 -13013718.21507      1588.26207        43.50007
E19  24443099.89416 -15533641.06116       472.83216        39.50016  24443104.09124 -14174078.62824       351.76224        28.40024
C22  24057641.14226 -14493738.08026     -2274.64626        35.70026  24057514.03024 -10930204.44824     -1713.35824        23.80024
R04  20690182.78505 110857813.56105     -1265.82405        34.90005
R14  20665398.04315 110220738.70415     -2025.56815        35.00015
C13  40384639.39625    165950.03425     -1483.25925        33.20025                                                                
E26  26221429.78215 -19126374.61715     -3600.21915        34.10015  26221323.05624 -14551597.06824     -2690.17224        26.30024
R15  20237301.00815 108204692.05015      2007.36115        33.30015
E33  24344534.72925 -19337582.14925     -1899.69525        33.60025  24344523.93725   2309123.57725     -1418.36925        30.20025
C09  38049579.92425  -2768513.43125     -1124.13625        32.90025                                                                
E27  26185083.54415 -10948221.47615      1054.92715        32.80015                                                                
R19  23090582.62225 123581804.13925     -4405.77725        31.50025
R03  23580937.85625 126293407.89425     -2781.01125        34.40025
R20  21806187.49125 116670219.67225     -2201.98925        32.20025
C16  39984468.02925 -16473753.16625     -1447.46525        30.00025                                                                
C36  25514308.41225 -14233318.53125     -3257.09525        29.70025  25514364.17324 -13251907.89424     -2424.59124        24.20024
C34  25530759.52324    424061.42224     -2773.36724        28.70024                                                                
E07  26575190.87825 -18487714.79625     -2277.17825        31.40025  26575119.82725 -10291371.78925     -1692.26925        31.00025
R21  23360388.34024 125068936.94524       756.18724        27.80024
R16  23657388.23124 126436192.20124      3871.64424        27.40024
C14  26299550.90024 -10599682.09724      1796.25424        25.00024                                                                
> 2025 10 05 09 12 01.0000242  0 35                      
G09  20754493.06327    -89727.75527       117.24127        44.00027  20754505.65506  -6429553.38206        87.72006        39.10006
G03  21319774.82716    511495.85416     -2791.20616        41.00016  21319786.51906 -13332373.12506     -2083.49106        38.60006
G06  22491724.70317     10707.98917      -453.92617        42.10017  22491703.71825       376.56125      -338.47625        34.30025
G07  21671976.10327   -969345.83327      1202.19827        41.50027                                                                
G16  22693811.20126    -37177.20726      -182.95326        35.80026                                                                
G04  21421758.22525 -13293444.62125     -1749.53225        32.00025  21421769.61723  -7352136.23423     -1305.88123        22.80023
G11  24670052.67825 -19988352.19125      1672.09425        32.00025                                                                
G30  23951864.76924 -11236945.37024      2499.90424        28.60024  23951809.60723 -14395464.19523      1875.09623        20.00023
G01  24574379.31124 -16326059.89424     -4153.77224        29.00024  24574259.09423 -14126287.41023     -3101.72123        20.80023
R05  20843493.65007 111483176.54607       894.95007        47.40007
E12  26240284.92907 -16162913.96807       856.70407        43.30007  26240294.22224 -13066595.38324       639.40624        27.80024
C26  23202719.69107   -517246.58507      2019.98007        43.70007  23202716.99305 -13759396.98705      1522.52205        31.70005
E29  23903004.89407    133864.89707      -989.85207        43.10007  23903008.49225   2182116.81725      -737.25225        32.70025
C21  22335174.58007    -36884.86807      -273.60807        41.80007  22335180.27624   2047185.58724      -210.52124        25.50024
E21  27452198.33926 -18990979.77726      2131.66726        41.10026  27452220.22307 -13015307.78207      1591.84207        43.10007
R15  20236897.48706 108202579.47406      2012.07306        39.10006
E19  24443005.45926 -15534112.96326       473.92426        39.40026  24443007.25824 -14174429.98824       352.98524        28.20024
C22  24058051.85726 -14491460.28826     -2276.86326        35.80026  24057944.53223 -10928490.08523     -1716.57823        23.10023
R04  20690431.31205 110859188.13005     -1261.61205        35.20005
R14  20665747.60105 110222643.96005     -2021.36105        35.00005
E26  26222111.21015 -19122774.85515     -3597.47215        34.10015  26221999.08824 -14548911.44324     -2681.73224        26.10024
E33  24344857.90615 -19335681.41715     -1899.27815        33.60015  24344879.19124   2310543.72824     -1418.40624        29.40024
C13  40384952.07925    167432.58225     -1480.38225        33.80025                                                                
C09  38049788.87925  -2767390.27825     -1120.17925        33.00025                                                                
E27  26184889.87825 -10949278.09425      1059.41625        32.90025                                                                
R03  23581456.49725 126296228.82925     -2779.11225        34.00025
R19  23091380.67025 123586117.14925     -4400.33325        31.80025
C16  39984724.05225 -16472310.12825     -1439.63825        30.00025                                                                
R20  21806534.05125 116672116.42325     -2195.47625        31.80025
C34  25531255.97924    426831.54124     -2768.49324        28.70024                                                                
C36  25514930.78125 -14230057.40825     -3261.75025        29.60025  25514976.34924 -13249477.43724     -2432.15424        23.60024
E07  26575613.88525 -18485445.67325     -2265.09325        30.90025  26575532.94125 -10289679.07525     -1690.20825        30.10025
R21  23360200.37024 125067973.73424       766.55824        27.90024
R16  23656606.37224 126432058.72024      3873.74024        27.40024
C14  26299210.33624 -10601482.38524      1803.96324        24.90024                                                                
> 2025 10 05 09 12 02.0000246  0 35                      
G09  20754485.56927    -89845.27627       119.06127        44.00027  20754493.06306  -6429641.51006        89.44906        39.00006
G06  22491826.33307     11161.80307      -452.30707        42.00007  22491796.65325       717.81525      -341.39225        33.40025
G03  21320322.54806    514285.52806     -2787.70306        41.30006  21320326.74506 -13330289.79006     -2082.19006        38.40006
G07  21671768.64726   -970549.26726      1205.04426        41.10026                                                                
G16  22693867.56216    -36995.71316      -179.52516        35.80016                                                                
G04  21422117.97625 -13291692.09625     -1752.39125        32.00025  21422118.87623  -7350821.52723     -1318.74223        22.70023
G01  24575175.86024 -16321910.23424     -4145.72124        28.90024  24575051.14623 -14123178.86423     -3106.92723        20.70023
G30  23951399.19124 -11239441.30524      2495.75524        28.60024  23951347.02723 -14397334.94823      1871.93323        19.90023
G26  24548282.97724 -20148964.23224     -2806.14124        25.30024                                                                
G11  24669748.38925 -19990026.94725      1676.08725        31.50025                                                                
R05  20843337.75807 111482289.30707       897.15807        47.30007
E12  26240126.33907 -16163771.05007       858.69707        43.80007  26240136.53125 -13067236.87925       643.61625        31.00025
C26  23202324.86507   -519266.85607      2021.79507        43.70007  23202336.85605 -13760919.46005      1523.54405        31.60005
E29  23903206.05507    134853.93907      -987.19407        43.10007  23903207.25425   2182855.27525      -737.47925        32.50025
C21  22335237.53707    -36611.93907      -271.16007        41.70007  22335245.33124   2047395.66824      -209.17524        25.50024
R15  20236530.24206 108200564.00506      2011.36506        40.10006
E21  27451797.51626 -18993111.92426      2133.90626        41.00026  27451824.19807 -13016899.79307      1593.23207        42.70007
E33  24345248.83506 -19333783.52906     -1896.21406        37.10006  24345247.93624   2311965.70024     -1422.88224        28.50024
E19  24442942.80326 -15534587.11426       475.27626        39.30026  24442926.91424 -14174778.49824       347.08524        28.00024
R04  20690683.73805 110860486.84805     -1259.15305        35.40005
C22  24058471.26726 -14489190.26026     -2266.14626        35.70026  24058396.31923 -10926781.26623     -1706.04623        22.50023
R14  20666152.92005 110224752.86505     -2020.06205        35.00005
E26  26222803.73105 -19119178.01605     -3595.12705        34.00005  26222691.60824 -14546233.08624     -2674.72324        25.80024
C13  40385227.28915    168911.17215     -1476.61015        33.90015                                                                
C09  38050013.72425  -2766267.86825     -1122.03825        33.00025                                                                
R03  23581966.74425 126298907.30225     -2775.21025        33.80025
E27  26184715.69925 -10950337.04825      1059.37225        32.90025                                                                
R19  23092256.96315 123590751.62915     -4397.74115        32.10015
R20  21806966.95125 116674378.14725     -2184.41225        31.50025
C16  39985035.83625 -16470870.67225     -1437.66425        29.90025                                                                
E07  26576059.67725 -18483179.66725     -2264.44725        30.60025  26575979.33225 -10287987.62425     -1690.81925        29.70025
C34  25531804.59924    429601.36124     -2769.66924        28.70024                                                                
C36  25515567.24024 -14226798.69624     -3257.50424        29.40024  25515793.58424 -13247041.41924     -2438.79824        24.50024
R16  23655867.98324 126428061.29324      3874.64124        27.90024
C14  26298891.05724 -10603282.95224      1800.70724        24.80024                                                                
> 2025 10 05 09 12 03.0000250  0 35                      
G09  20754472.07817    -89964.21017       119.64117        44.10017  20754480.47206  -6429730.38706        89.25106        40.90006
G06  22491915.97107     11614.97907      -452.85707        42.30007  22491907.27725      1061.02425      -344.18625        33.10025
G03  21320858.57707    517074.59107     -2788.75607        41.50007  21320869.06916 -13328207.31116     -2082.05216        37.70016
G16  22693891.84616    -36814.70716      -180.76116        35.90016                                                                
G04  21422457.64125 -13289944.10525     -1745.72225        32.40025  21422466.03523  -7349512.10723     -1306.77623        22.60023
G11  24669432.70725 -19991701.04025      1673.76025        31.00025                                                                
G30  23950912.92824 -11241938.77224      2498.23124        28.50024  23950939.01023 -14399187.25123      1843.07923        19.70023
G01  24575976.00624 -16317762.03224     -4147.47124        28.90024  24575851.29223 -14120080.66023     -3093.03223        21.00023
G26  24548800.41924 -20146161.38024     -2802.85124        25.30024                                                                
G07  21671538.70626   -971752.97526      1203.84426        40.70026                                                                
R05  20843176.46907 111481373.00607       897.10707        47.10007
E12  26239978.24107 -16164628.75807       858.02007        44.10007  26239985.43625 -13067877.92925       640.82625        30.70025
C26  23201987.29807   -521287.94807      2021.50207        43.70007  23201959.41805 -13762442.62005      1523.50405        31.40005
E29  23903386.53007    135841.99107      -987.55607        43.10007  23903406.01625   2183593.08525      -737.48525        32.30025
C21  22335305.88907    -36339.88207      -271.62007        41.60007  22335308.88724   2047605.80024      -210.15724        26.70024
R15  20236167.19306 108198569.94606      2011.39406        40.70006
E21  27451417.37926 -18995244.38026      2132.60926        40.90026  27451429.07107 -13018492.64907      1593.27807        42.40007
E33  24345614.58226 -19331886.96426     -1895.90426        37.30026  24345619.37824   2313383.29424     -1415.40424        27.70024
C22  24058949.13626 -14486918.12026     -2273.19426        35.70026  24058845.10823 -10925071.12723     -1710.79823        22.00023
R04  20690909.18206 110861639.22106     -1258.29606        35.50006
R14  20666533.35705 110226726.00705     -2018.83805        35.00005
C13  40385523.48405    170388.02605     -1475.98605        34.60005                                                                
E26  26223492.95405 -19115582.54305     -3594.78805        34.20005  26223388.62624 -14543553.47324     -2680.24024        25.70024
C09  38050235.87015  -2765148.10915     -1118.43415        33.20015                                                                
R03  23582515.66425 126301790.28325     -2773.75125        33.60025
E27  26184504.04525 -10951396.18825      1059.48325        32.80025  26184518.43524 -14892276.35624       787.69924        24.60024
R19  23093182.12315 123595647.10915     -4393.77415        32.10015
E07  26576497.07425 -18480915.02625     -2263.95825        30.40025  26576418.22924 -10286298.67224     -1687.70124        29.10024
R20  21807371.67125 116676488.37725     -2182.15325        31.10025
E30  27408170.81824 -20255070.13924     -1031.85524        26.60024                                                                
C34  25532352.02124    432370.50424     -2768.80424        28.70024                                                                
C36  25516219.58924 -14223547.41524     -3247.56524        29.30024                                                                
R16  23655206.94124 126424475.07424      3878.98624        28.00024
E19  24442846.56926 -15535061.70426       475.55826        38.90026  24442853.46524 -14175128.80524       351.20624        27.80024
C14  26298570.27924 -10605081.31924      1797.26524        24.70024                                                                
> 2025 10 05 09 12 04.0000253  0 34                      
G09  20754429.50707    -90084.43007       120.86207        44.70007  20754437.90206  -6429820.23306        90.33106        40.60006
G03  21321365.82607    519862.64607     -2787.55107        41.60007  21321376.91826 -13326125.22726     -2081.88526        37.30026
G07  21671285.68116   -972957.31116      1204.64916        40.40016                                                                
G16  22693894.54416    -36634.65816      -179.57116        36.00016                                                                
G04  21422772.12315 -13288196.35415     -1747.63215        32.90015  21422783.51623  -7348208.07823     -1301.33423        22.40023
G11  24669093.34225 -19993375.74325      1675.00725        30.80025                                                                
G01  24576768.95724 -16313614.44724     -4147.27624        28.90024  24576623.85723 -14116984.65823     -3094.90123        21.30023
G30  23950407.47824 -11244442.14824      2506.33024        28.40024  23950451.24823 -14401046.30723      1862.43023        19.60023
G26  24549299.87324 -20143360.04924     -2800.56924        25.80024                                                                
G06  22491978.32707     12067.68307      -452.46707        42.70007  22491962.73825      1404.62025      -343.79125        31.90025
R05  20842984.90207 111480455.93707       898.84807        47.00007
E12  26239795.36807 -16165487.48407       859.23407        44.40007  26239800.46425 -13068520.53225       643.38025        35.20025
C26  23201552.59907   -523310.28907      2022.96507        43.60007  23201551.70005 -13763966.71305      1524.55805        31.30005
E29  23903559.21007    136828.31407      -985.45907        43.10007  23903577.19825   2184331.58625      -738.84725        32.00025
C21  22335335.26917    -36068.37217      -271.23717        41.60017  22335337.66725   2047812.87425      -205.54425        30.50025
R15  20235781.06006 108196613.35006      2014.45306        41.00006
C13  40385736.93606    171863.10606     -1474.19206        35.80006                                                                
E33  24345966.23816 -19329990.83116     -1895.91716        37.10016  24345958.74324   2314800.71524     -1417.33424        27.20024
R04  20691128.93026 110862922.61426     -1259.91326        35.50026
C22  24059364.34926 -14484644.72226     -2274.02626        35.60026  24059261.22023 -10923358.56323     -1713.77623        21.50023
E26  26224159.39205 -19111988.31005     -3593.61305        34.80005  26224054.76524 -14540873.69624     -2679.85724        25.60024
R14  20666908.69725 110228834.14825     -2024.49225        34.90025
E21  27450982.38026 -18997379.20626      2136.01126        39.80026  27451001.86706 -13020086.97406      1595.05806        40.90006
E27  26184290.59325 -20390531.55925      1063.27325        32.70025  26184289.99324 -14893064.16724       787.81124        27.70024
C09  38050408.25125  -2764029.58525     -1117.90525        33.20025                                                                
R03  23583006.42425 126304524.67125     -2778.22325        33.50025
E19  24442735.64626 -15535538.05226       476.97826        37.80026  24442743.74124 -14175473.80324       342.34224        27.50024
R20  21807759.30225 116678668.23425     -2195.38225        30.80025
C36  25516850.05224 -14220295.70124     -3251.93024        29.10024                                                                
C34  25532862.86724    435140.17924     -2769.94024        28.60024                                                                
R16  23654434.37624 126420455.48224      3882.05224        28.00024
C14  26298229.41524 -10606876.43324      1793.48724        24.60024                                                                
E30  27408342.59924 -20254043.09124     -1027.04824        26.10024                                                                
E07  26576922.18025 -18478651.63725     -2262.76225        30.30025  26576828.04524 -10284611.11224     -1686.86324        28.60024
> 2025 10 05 09 12 05.0000257  0 35                      
G09  20754416.01707    -90207.05207       123.82307        45.20007  20754424.11106  -6429911.57506        92.09106        40.40006
G06  22492076.36007     12518.63307      -450.07407        43.00007  22492076.95925      1746.07225      -340.37925        31.70025
G07  21671066.53306   -974164.89206      1209.20306        40.20006                                                                
G16  22693948.80606    -36456.09806      -177.81606        36.00006                                                                
G04  21423108.19115 -13286449.67815     -1746.13815        33.10015  21423125.27923  -7346908.08723     -1297.97023        22.30023
G11  24668808.53925 -19995052.19225      1677.32225        31.00025  24668780.35924 -14938968.23824      1252.04624        29.00024
G01  24577599.08224 -16309469.49924     -4143.62824        28.90024  24577423.40424 -14113889.96424     -3094.03824        24.50024
G30  23949995.26324 -11246949.88524      2509.91624        28.30024  23949998.56123 -14402909.20023      1864.81123        19.30023
G26  24549833.20424 -20140558.00924     -2802.39324        25.80024                                                                
G03  21321917.14407    522648.88907     -2785.33607        41.70007  21321919.24226 -13324044.83926     -2079.54026        36.80026
R05  20842833.20707 111479592.40907       901.54007        46.90007
E12  26239639.17607 -16166348.20607       861.72107        44.70007  26239647.57025 -13069163.91825       643.77625        34.60025
E29  23903768.76507    137812.49007      -983.10207        43.10007  23903769.06525   2185064.70225      -730.42425        31.10025
C26  23201182.65527   -525336.19727      2027.69027        43.50027  23201172.76205 -13765492.38705      1526.46405        33.10005
R15  20235395.82707 108194502.30907      2013.80607        41.60007
C21  22335389.83107    -35799.80207      -267.09907        41.60007  22335398.82525   2048013.76525      -197.79925        30.30025
C13  40385982.46606    173335.89406     -1471.64206        37.00006                                                                
E33  24346327.48826 -19328096.63426     -1893.22726        37.00026  24346328.98724   2316220.93624     -1421.62024        26.80024
C22  24059828.72716 -14482376.18216     -2266.11016        35.60016  24059774.16524 -10921651.98824     -1703.58024        24.00024
R04  20691364.26716 110864130.92016     -1255.33016        35.90016
E26  26224834.22505 -19108396.33705     -3590.84105        35.00005  26224742.78824 -14538193.66524     -2680.15824        27.40024
R14  20667269.34715 110230704.32315     -2016.07815        34.90015
R03  23583552.04725 126307392.33125     -2770.54325        33.50025
C09  38050648.98425  -2762911.66325     -1117.62125        33.10025                                                                
E21  27450600.14526 -18999518.36526      2140.57526        38.80026  27450605.54106 -13021683.18306      1597.15106        40.60006
E19  24442660.39816 -15536019.38516       483.07516        37.00016  24442656.80124 -14175820.06124       346.88824        27.10024
R19  23094797.10525 123604340.29125     -4393.97925        31.70025
E07  26577330.19725 -18476393.18725     -2255.97925        30.20025  26577267.84024 -10282924.32724     -1686.39824        28.30024
E27  26184108.01925 -20391596.58425      1065.61025        32.20025  26184099.32524 -14893854.49024       791.57824        27.20024
R20  21808200.89725 116680976.63025     -2184.26125        30.50025
C34  25533396.79724    437905.34224     -2762.90624        28.50024  25533414.78523 -14803192.71923     -2172.33323        19.40023
R16  23653748.45124 126416738.56424      3873.63924        28.00024
E10  28251269.95323 -20411384.03023      1700.88623        22.50023                                                                
C14  26297894.24724 -10608672.21624      1796.11724        24.50024                                                                
C36  25517452.03624 -14217046.51724     -3247.91624        29.00024                                                                
