     4.01           OBSERVATION DATA    M                   RINEX VERSION / TYPE
GnssLogger          samsung 15          20250929 132201 UTC PGM / RUN BY / DATE
Google GnssLogger                                           MARKER NAME
Unknown                                                     MARKER NUMBER
Unknown             Unknown                                 OBSERVER / AGENCY
Unknown             GnssLogger          v3.1.0.3            REC # / TYPE / VERS
Unknown             Unknown                                 ANT # / TYPE
        0.0000        0.0000        0.0000                  ANTENNA: DELTA H/E/N
G    8 C1C L1C D1C S1C C5Q L5Q D5Q S5Q                      SYS / # / OBS TYPES
R    4 C1C L1C D1C S1C                                      SYS / # / OBS TYPES
C    8 C2I L2I D2I S2I C5P L5P D5P S5P                      SYS / # / OBS TYPES
E    8 C1C L1C D1C S1C C5Q L5Q D5Q S5Q                      SYS / # / OBS TYPES
  2025    09    29    13    22   01.0000000     GPS         TIME OF FIRST OBS
 6 R01  1 R07  5 R08  6 R10 -7 R11  0 R12 -1                GLONASS SLOT / FRQ #
samsung SM-S711B (Android 15) HW Year: 2021 HW Model:       COMMENT
S.LSI,K040,SPOTNAV_4.6.2_7_E23                              COMMENT
                                                            END OF HEADER
> 2025 09 29 13 22 01.9999999  0 28                      
G30  21013767.67107      3728.65407     -1649.91107        42.70007  21013782.36125     10181.07025     -1232.74625        33.20025
G14  20229676.68616     28907.97916      -436.82616        40.10016  20229685.38025     28965.91625      -325.68125        35.20025
G17  23638359.50416    113118.96516      1807.16216        39.80016                                                                
G13  22212830.17825     71797.79525      1632.21225        34.00025                                                                
G22  20742395.53825   1871877.92425       468.28125        32.50025                                                                
G05  22277962.78725     23968.89825     -1143.28225        32.20025                                                                
G21  21557517.74125    905377.13525     -2807.12525        29.70025                                                                
G09  23234820.26924    -49709.63824     -4234.04324        27.00024                                                                
G07  22457274.95228    -14709.16328     -2539.03928        48.10028                                                                
E30  25644210.28307     57378.43707     -3382.82307        43.10007  25644224.97225  -2038872.93925     -2525.73425        32.10025
E27  23517660.96207     94421.94907     -1029.53007        42.40007  23517669.95625     78224.37325      -762.63825        32.90025
R08  19263845.51706-103176590.73806     -2073.55106        39.10006
R10  21078779.46506-112381238.23906     -4144.57706        38.40006
E29  23790515.86926    115768.75626        39.05826        39.80026  23790515.26925  -1995948.45625        26.31925        33.40025
C24  24494135.96306    114739.59906       971.97606        37.20006  24494163.54324    323970.14524       734.41024        26.70024
E07  24335096.96306    457558.03606     -2290.15506        36.20006  24335116.74924    349218.90724     -1714.50624        25.00024
C07  38667653.94026    104621.89426      -468.62926        36.10026                                                                
C09  39221768.73505     89207.43005     -1237.16205        35.00005                                                                
E21  25667087.74505   1417487.50405      1313.63405        34.50005  25667096.13925   1172214.69825       980.29825        30.20025
C21  22371806.52126     47711.80926     -2838.39426        39.20026  22371815.51425     43635.24425     -2132.97125        34.60025
R12  22826940.33815-121956942.01015      1838.54415        34.30015
R01  20684293.96125-110588943.61125      1881.83425        31.50025
R07  22267583.37325-119219681.68425     -5062.13925        31.30025
C14  24421090.33125    151384.91425      1412.86225        31.90025                                                                
R11  19609449.56126-104806484.04126     -1097.18926        37.80026
C10  38602851.40224    447242.90924      -254.82924        29.40024                                                                
E19  26290438.10823    218720.31223      1229.97423        22.10023                                                                
C26                                                                  22052202.87825     65434.25925      -693.33025        30.60025
> 2025 09 29 13 22 02.9999998  0 28                      
G07  22457572.04617    -17248.28017     -2540.90517        47.00017                                                                
G30  21013870.80007      2077.13307     -1653.80607        42.30007  21013880.69325      8948.59425     -1233.24525        33.80025
G13  22212287.55315     73429.43715      1629.16915        33.80015                                                                
G22  20742091.84925   1872342.21325       462.29225        32.50025                                                                
G17  23637833.06926    114928.73026      1809.62026        38.00026                                                                
G05  22277943.90025     22829.20825     -1140.18125        31.80025                                                                
G21  21557826.82725    902571.95425     -2807.28225        29.70025                                                                
G09  23235405.46424    -53946.75624     -4241.20624        27.00024                                                                
G14  20229543.87806     28469.09906      -441.35706        40.00006  20229547.47625     28637.34625      -331.51925        34.00025
E30  25644636.88707     53994.67007     -3385.81807        43.20007  25644647.68025  -2041398.87225     -2527.37825        33.80025
E27  23517636.37907     93390.34907     -1034.11907        42.30007  23517645.97225     77458.98925      -767.30225        32.60025
R08  19264006.20606-103178627.31706     -2079.18506        39.20006
R10  21079326.88606-112385328.67506     -4147.98306        38.20006
E29  23790297.62016    115805.69116        34.29916        39.40016  23790279.63225  -1995925.30025        20.04525        32.20025
E07  24335317.91006    455265.86906     -2294.61106        36.70006  24335337.39624    347502.75724     -1718.48424        25.00024
C24  24493734.84006    115709.79706       967.87806        37.10006  24493760.02324    324710.77924       742.24824        26.00024
C09  39221792.11806     87969.41906     -1239.93406        36.00006                                                                
C07  38667570.29816    104153.00316      -470.90216        36.00016                                                                
E21  25666599.08305   1418800.43105      1310.94305        34.50005  25666504.94824   1173196.18624       980.56424        28.40024
C21  22372139.89026     44872.21426     -2841.64726        38.50026  22372146.18525     41491.09325     -2136.18825        33.90025
R12  22826362.93815-121955031.20415      1834.82115        34.20015
R01  20683706.66825-110586977.91825      1875.90625        31.80025
R07  22268396.71025-119225213.26625     -5066.90925        31.20025
C14  24420604.06825    152796.75325      1409.56425        31.70025                                                                
R11  19609441.16626-104807612.58726     -1105.60626        36.40026
C10  38602673.02624    446983.10424      -263.26024        29.30024                                                                
C26  22052159.70825     76050.10325      -910.39325        33.50025  22052159.10825     64739.63525      -696.29425        30.00025
E19  26289996.51423    219950.81023      1230.39023        22.10023                                                                
> 2025 09 29 13 22 04.0000001  0 27                      
G07  22457897.92107    -19791.68807     -2545.55307        46.30007                                                                
G14  20229467.43106     28025.36906      -446.15506        40.10006  20229470.12925     28305.67925      -333.21625        32.80025
G30  21014020.69627       420.88027     -1658.61827        41.80027  21014037.18525      7712.11925     -1238.47425        34.00025
G22  20741838.82425   1872802.55625       458.37025        32.50025                                                                
G17  23637292.54326    116733.83826      1802.77726        36.70026                                                                
G05  22278032.33925     21686.57025     -1144.11225        31.40025                                                                
G09  23236042.52224    -58187.48424     -4242.53024        27.30024                                                                
G13  22211831.86905     75056.84305      1625.28705        33.80005                                                                
G21  21558203.66625    899764.80925     -2808.12525        29.60025                                                                
E30  25645121.65207     50606.45007     -3390.44307        43.50007  25645133.34415  -2043928.92415     -2532.10815        33.60015
E27  23517677.15107     92354.09607     -1038.58007        42.30007  23517683.14715     76685.71715      -777.21615        32.70015
R08  19264239.74406-103180733.61906     -2083.95506        39.30006
R10  21079949.85406-112389500.72006     -4152.33806        38.10006
E07  24335594.31906    452969.24406     -2298.85106        37.10006  24335617.10324    345784.64424     -1719.09424        24.90024
C09  39221861.67006     86727.43706     -1243.96506        36.90006                                                                
E29  23790125.83906    115838.00006        29.99506        39.10006  23790118.34425  -1995903.73325        20.77225        31.60025
C24  24493374.78906    116675.84206       963.96706        37.10006                                                                
C07  38667458.47626    103680.57126      -474.20326        35.80026                                                                
C21  22372520.02726     42025.88526     -2849.69626        37.80026  22372533.21825     39345.75925     -2145.92325        33.20025
E21  25666190.76605   1420108.59005      1305.77505        34.50005  25666096.33124   1174173.75224       975.60524        26.80024
R12  22825873.67605-121953270.96905      1830.08905        34.10005
R01  20683209.61225-110585175.90625      1874.99425        31.90025
C14  24420181.66025    154205.50225      1407.20325        31.50025                                                                
R11  19609471.74525-104808631.03125     -1104.82625        35.30025
C10  38602572.59524    446718.51624      -266.97924        29.30024                                                                
C26  22052177.09525     75137.64825      -912.45525        32.10025  22052170.80024     64045.24124      -694.27924        29.40024
E19  26289627.47023    221181.70323      1231.08923        22.00023                                                                
> 2025 09 29 13 22 05.0000000  0 29                      
G07  22458128.46107    -22336.83207     -2546.00907        45.70007                                                                
G14  20229308.24106     27579.47006      -446.98206        40.40006  20229307.94225     27971.79925      -334.98525        32.70025
G30  21014088.14917     -1236.89517     -1658.53517        41.50017  21014102.83915      6474.32715     -1238.44915        34.70015
G13  22211259.56505     76682.23505      1624.38305        33.90005                                                                
G22  20741519.54525   1873260.69925       457.04325        32.50025                                                                
G17  23636688.46126    118529.33226      1790.68626        35.50026                                                                
G09  23236599.23724    -62427.66624     -4239.90724        27.70024                                                                
G05  22278035.33725     20538.86125     -1150.24425        30.20025                                                                
G21  21558487.86925    896954.23825     -2812.28225        29.60025                                                                
E30  25645517.37807     47216.33607     -3391.05907        43.90007  25645528.47005  -2046460.52605     -2532.37605        33.50005
E27  23517624.38707     91315.61007     -1039.60007        42.30007  23517631.58205     75910.25205      -776.56105        32.50005
R08  19264378.54806-103182813.86906     -2085.31006        39.40006
E07  24335781.98906    450670.66806     -2299.55206        37.60006  24335809.57024    344069.74724     -1713.28824        24.70024
C09  39221848.47906     85483.72106     -1244.58306        37.30006                                                                
R10  21080477.78906-112393646.06806     -4153.16906        37.90006
C24  24492941.88906    117639.87306       963.02506        37.00006                                                                
E21  25665700.90505   1421414.88305      1305.35805        34.50005  25665597.47724   1175149.60324       974.99224        25.50024
C21  22372821.91826     39179.74226     -2846.04626        37.30026  22372832.41025     37199.71525     -2146.39825        32.60025
R12  22825279.48805-121951431.24505      1829.07805        34.00005
R01  20682602.83225-110583266.04925      1871.49325        31.90025
C14  24419658.52225    155610.18325      1402.64625        31.40025                                                                
R11  19609435.47025-104809770.28125     -1105.19125        34.50025
C07  38667343.65525    103200.15225      -484.41225        35.20025                                                                
C10  38602372.93324    446454.59224      -263.59224        29.40024                                                                
C22  25554659.27824   2252396.91624     -4519.20924        26.30024                                                                
C26  22052078.46425     74226.37225      -910.68525        30.80025  22052088.65724     63351.74424      -693.04724        28.80024
E19  26289131.61323    222415.18123      1234.77123        22.00023                                                                
R07  22269867.19224-119235276.87324     -5059.68924        27.20024
E29  23789882.10706    115868.65406        29.82706        38.10006  23789856.02525  -1995880.92325        23.43225        30.70025
> 2025 09 29 13 22 06.0000001  0 28                      
G07  22458413.26407    -24885.82107     -2550.91007        45.30007                                                                
G14  20229179.03106     27129.21206      -452.43806        40.60006  20229181.12925     27635.46025      -337.57025        31.50025
G13  22210749.01805     78303.71505      1619.52305        34.20005                                                                
G22  20741244.03625   1873713.63425       450.32925        32.40025                                                                
G21  21558808.34825    894139.44025     -2816.90825        29.70025                                                                
G17  23636126.05025    120321.66725      1790.75425        34.50025                                                                
G09  23237208.71524    -66667.51724     -4239.68124        27.80024                                                                
G05  22278038.93524     19387.82324     -1152.70024        29.30024                                                                
G30  21014189.47906     -2898.54006     -1663.57806        41.20006  21014210.76505      5233.53005     -1242.29805        35.00005
E30  25645955.37507     43822.19607     -3396.15107        44.30007  25645966.16705  -2048995.13405     -2536.10805        33.50005
E27  23517612.99507     90273.05207     -1044.59307        42.30007  23517621.38905     75131.71005      -780.08105        32.50005
R08  19264552.72806-103184860.40506     -2090.90806        39.40006
E07  24336017.62606    448367.95406     -2304.78006        38.00006                                                                
C09  39221882.65606     84236.25906     -1249.33406        37.40006                                                                
R10  21081051.59206-112397813.53606     -4158.23906        37.80006
C24  24492543.46506    118599.94206       958.08606        36.80006                                                                
C21  22373165.48026     36326.96126     -2856.09926        36.90026  22373171.77525     35052.74425     -2147.43225        32.00025
E21  25665212.24305   1422717.36205      1300.57205        34.40005  25665262.60824   1176123.00124       972.17224        25.30024
R12  22824723.97205-121949575.46705      1823.96705        34.00005
E29  23789647.96906    115895.16206        24.43506        37.10006  23789646.77025  -1995862.75425        15.84925        31.00025
R01  20682040.72125-110581374.54425      1867.79325        31.90025
C07  38667213.84525    102722.58525      -476.14025        34.50025                                                                
C14  24419184.25125    157012.39225      1400.97125        31.40025                                                                
R11  19609435.77025-104810885.06525     -1113.68925        33.80025
C10  38602216.14225    446185.63425      -271.47425        29.60025                                                                
C26  22052036.49325     73313.31725      -913.94425        29.70025  22052056.87924     62657.60324      -694.46324        28.20024
R07  22270540.52624-119239995.03124     -5062.02324        26.20024
E19  26288676.22823    223652.16723      1238.73723        21.90023                                                                
> 2025 09 29 13 22 07.0000000  0 28                      
G07  22458653.09807    -27440.60807     -2557.68407        45.00007                                                                
G14  20229018.64226     26671.83326      -460.93926        40.60026  20229022.83925     27290.09625      -349.87525        31.40025
G13  22210183.61005     79918.25505      1611.82005        34.50005                                                                
G22  20740875.59125   1874158.65625       441.06725        32.30025                                                                
G21  21559098.84625    891315.33225     -2828.76225        29.70025  21559073.36423   1427776.31423     -2089.08723        18.60023
G09  23237773.52424    -70915.66324     -4252.29124        28.00024                                                                
G17  23635542.35525    122110.32525      1786.81925        33.50025                                                                
G05  22277991.86724     18228.56824     -1163.36424        28.50024                                                                
G30  21014259.33116     -4565.90116     -1670.21816        40.90016  21014276.11905      3988.23405     -1247.54505        34.60005
E30  25646354.99807     40422.29307     -3402.78207        44.60007  25646364.59105  -2051534.08605     -2541.12305        33.60005
E27  23517562.63007     89224.02407     -1052.26307        42.30007  23517572.22405     74348.20405      -785.98705        32.40005
R08  19264700.82506-103186991.99306     -2099.25506        39.40006
E07  24336201.99806    446058.79406     -2312.38206        38.10006                                                                
C09  39221890.75006     82983.41006     -1255.54206        37.50006                                                                
R10  21081589.12006-112402010.75006     -4164.52806        37.70006
C24  24492118.65906    119553.92806       950.94406        36.70006                                                                
C21  22373484.45926     33469.02226     -2860.51626        36.60026  22373464.37325     32900.99425     -2154.13825        31.60025
E21  25664748.46405   1424014.12305      1293.90105        34.40005  25664766.75224   1177093.68624       969.32724        27.20024
R12  22824165.15925-121947924.53325      1814.12125        33.90025
C07  38667011.18525    102238.97125      -486.63825        34.20025                                                                
E29  23789392.84616    115915.85916        17.79216        36.30016  23789394.04525  -1995852.21025         6.73025        30.40025
R01  20681449.53025-110579549.58725      1852.64425        31.80025
C14  24418665.31025    158411.77425      1397.96825        31.40025                                                                
R11  19609400.39525-104812029.66825     -1124.21525        33.30025
C10  38602008.38625    445909.01425      -280.45125        29.60025                                                                
C26  22051984.02924     72387.42724      -932.30724        28.80024  22051984.32924     61960.65824      -698.34724        27.60024
R07  22271260.92724-119245188.06924     -5070.16124        25.50024
E19  26288177.07423    224883.58623      1228.63523        21.80023                                                                
> 2025 09 29 13 22 08.0000000  0 28                      
G07  22458936.70207    -30000.05007     -2561.76807        44.90007                                                                
G14  20228877.44016     26209.92816      -464.16716        40.30016  20228897.52625     26938.81325      -354.24325        31.30025
G13  22209654.47625     81530.16625      1609.59425        34.50025                                                                
G22  20740551.21525   1874599.29325       438.44425        32.30025                                                                
G21  21559415.42725    888489.02025     -2827.41125        29.70025                                                                
G17  23634983.54125    123895.75025      1783.80725        32.70025                                                                
G09  23238380.00424    -75170.25324     -4257.80824        28.20024                                                                
G05  22278014.65124     17059.98424     -1173.24724        28.10024                                                                
G30  21014354.66506     -6238.52706     -1675.25706        40.70006  21014383.14525      2742.60625     -1245.79225        34.40025
E30  25646775.60707     37017.16207     -3407.74207        44.60007  25646793.89405  -2054076.97505     -2544.85505        33.60005
E27  23517538.04707     88169.20507     -1057.71307        42.30007  23517553.03725     73560.62725      -789.61225        31.90025
R08  19264872.00706-103189084.50606     -2105.14706        39.40006
E07  24336413.95106    443744.00606     -2317.60006        38.10006  24336448.12824   1818282.16124     -1726.84024        25.40024
C24  24491722.03406    120502.20906       945.42806        37.10006                                                                
C09  39221894.94706     81725.16406     -1260.94406        37.50006                                                                
R10  21082153.92906-112406192.71306     -4169.88206        37.60006
C21  22373782.15316     30605.40116     -2866.45916        36.30016  22373789.34825     30743.06525     -2161.01725        30.40025
E21  25664277.79005   1425305.65005      1288.90905        34.50005  25664180.95724   1178061.87324       966.93724        25.80024
C07  38666911.05415    101750.52815      -490.85715        34.20015                                                                
R12  22823624.63325-121946210.92625      1811.62125        33.80025
E29  23789169.50106    115931.82806        12.85506        35.70006  23789175.19725  -1995843.30825         8.08225        30.30025
R01  20680894.61525-110577756.75325      1852.44125        31.70025
C14  24418169.45325    159804.52725      1389.43725        31.30025                                                                
R11  19609401.59425-104813210.97325     -1120.74925        32.90025
C10  38601845.59825    445628.35325      -282.68325        29.50025                                                                
C26  22051935.76324     71455.08924      -935.56224        28.10024  22051951.35224     61261.08424      -700.88724        27.10024
R07  22271976.83124-119250195.75424     -5074.42724        25.00024
E19  26287721.98923    226106.72623      1218.99923        21.70023                                                                
> 2025 09 29 13 22 09.0000000  0 28                      
G07  22459199.32007    -32564.26307     -2566.59607        45.20007                                                                
G30  21014443.10406     -7916.07206     -1680.00406        40.50006  21014452.09825      1491.10525     -1254.43725        33.50025
G14  20228729.94206     25742.49106      -470.20306        40.10006  20228749.12825     26586.96325      -352.13425        31.00025
G13  22209126.54225     83137.11025      1604.71025        34.40025                                                                
G22  20740264.01425   1875034.53825       432.54825        32.20025                                                                
G21  21559710.12325    885656.54325     -2835.55725        29.60025                                                                
G17  23634429.82525    125675.27525      1776.57525        32.20025                                                                
G09  23238932.22224    -79427.77524     -4258.98524        28.20024                                                                
G05  22277961.28824     15888.39324     -1173.09524        27.80024                                                                
E30  25647196.51507     33606.69907     -3413.12707        44.50007  25647205.80905  -2056622.96005     -2547.53205        33.60005
E27  23517499.67407     87109.52007     -1062.11907        42.30007  23517521.25925     72767.97025      -795.19625        31.80025
R08  19265024.60106-103191176.24806     -2110.16006        39.40006
C24  24491297.82706    121445.22606       940.38506        37.90006                                                                
C09  39221905.44006     80462.10106     -1265.47106        37.60006                                                                
E07  24336622.30706    441424.16706     -2322.36306        38.00006  24336643.89224   1816551.43524     -1730.72424        28.80024
R10  21082691.75606-112410328.14506     -4174.80106        37.60006
E21  25663792.12605   1426592.08505      1283.88805        34.80005  25663685.40024   1179022.86124       957.38824        24.70024
C07  38666787.54005    101257.34005      -495.56005        34.20005                                                                
C21  22374095.43616     27737.50216     -2870.03616        36.00016  22374107.12825     28580.15125     -2165.40425        30.10025
R12  22823026.54715-121944287.12215      1805.61215        33.70015
E29  23788916.17605    115942.09105         7.66005        35.20005  23788935.36325  -1995829.51925        16.23325        30.20025
C14  24417680.49225    161190.48025      1382.55225        31.30025                                                                
R01  20680319.91225-110575957.03225      1843.36225        31.60025
R11  19609382.70725-104814382.33425     -1131.67925        32.50025
C10  38601678.01425    445340.38825      -291.61625        29.50025                                                                
C26  22051880.60124     70520.10424      -936.30824        27.70024  22051888.09624     60556.34324      -707.32524        26.60024
R07  22272635.47524-119254995.87524     -5093.58224        24.70024
E19  26287240.52223    227323.20723      1213.15223        21.60023                                                                
> 2025 09 29 13 22 10.0000000  0 29                      
G07  22459468.53307    -35130.57007     -2567.35407        46.00007                                                                
G30  21014541.43606     -9596.37706     -1681.68306        40.40006  21014553.12825       234.70425     -1258.85025        32.80025
G14  20228593.83626     25271.93026      -472.12326        39.70026  20228622.31625     26231.78225      -356.84625        30.70025
G22  20739948.93225   1875465.82525       429.30925        32.10025                                                                
G17  23633872.81025    127451.94125      1775.23425        31.80025                                                                
G21  21560029.10225    882819.57125     -2839.21825        29.60025                                                                
G09  23239532.70624    -83688.28224     -4261.99524        28.10024                                                                
G13  22208591.11225     84741.85425      1603.64325        34.00025                                                                
G05  22277968.78324     14714.09924     -1175.64324        27.70024                                                                
G08  24359616.38822   2109086.57022     -3102.73722        16.50022                                                                
E30  25647627.01707     30193.56807     -3413.71207        44.40007  25647633.61305  -2059171.55305     -2549.89605        33.20005
E27  23517484.68407     86046.10907     -1065.27207        42.30007  23517499.37425     71974.14625      -794.40825        33.80025
R08  19265206.57506-103193329.28606     -2113.65306        39.50006
C09  39221933.92006     79196.53906     -1266.80906        38.20006                                                                
C24  24490894.30726    122385.72426       939.23826        37.90026                                                                
E07  24336843.55406    439100.70506     -2325.27206        38.00006  24336867.53725   1814815.82525     -1738.05125        29.80025
R10  21083260.16306-112414531.45906     -4176.13806        37.60006
C07  38666625.95205    100760.89105      -498.07805        34.50005                                                                
E21  25663340.03915   1427875.89815      1282.50115        34.80015  25663230.01624   1179981.95524       958.14624        23.80024
R12  22822470.13305-121942490.19805      1802.85005        34.20005
C21  22374421.31026     24865.12526     -2874.61426        35.70026  22374438.09925     26417.60125     -2162.36725        29.70025
E29  23788706.92125    115949.59525         6.12425        34.90025  23788711.11825  -1995815.21625        14.56025        30.00025
C14  24417196.62725    162573.14925      1381.02625        31.30025                                                                
R07  22273418.23325-119260363.53425     -5093.36325        32.10025
R11  19609369.51625-104815486.41425     -1131.30625        32.10025
C10  38601501.13725    445050.35425      -291.06825        29.50025                                                                
R01  20679736.51625-110574015.05025      1845.27025        30.80025
C26  22051851.82124     69585.90924      -933.79924        27.40024  22051846.72424     59845.46424      -713.94824        26.10024
E19  26286810.02023    228535.70823      1210.50923        21.60023                                                                
> 2025 09 29 13 22 11.0000000  0 29                      
G07  22459741.04507    -37697.39307     -2567.07807        46.30007                                                                
G30  21014643.66506    -11277.45406     -1681.46306        40.30006  21014654.15825     -1020.31625     -1254.32825        32.80025
G14  20228465.52516     24798.69116      -474.57716        39.30016  20228475.11825     25878.75325      -351.95225        29.90025
G22  20739629.35325   1875894.96725       428.06825        32.10025                                                                
G17  23633312.49825    129228.65225      1776.73325        31.60025                                                                
G09  23240064.23824    -87944.76724     -4254.47124        28.00024                                                                
G05  22277984.37224     13534.23124     -1182.65424        27.50024                                                                
G13  22208079.96625     86346.95225      1605.27425        33.60025                                                                
G08  24359993.52722   2105980.05322     -3106.51522        16.90022                                                                
G21  21560346.28325    879978.90825     -2842.50625        29.50025                                                                
R12  22821905.92306-121940651.23606      1802.69706        35.50006
E27  23517463.39907     84981.46607     -1065.25907        42.20007  23517484.98425     71178.98725      -795.82625        33.50025
R08  19265385.85106-103195465.46906     -2114.20006        39.60006
E07  24337072.59506    436776.20506     -2325.01706        38.00006  24337086.08625   1813080.83225     -1734.68225        29.60025
C09  39221952.80706     77930.02306     -1266.99306        38.20006                                                                
R10  21083823.77306-112418707.31706     -4176.59306        37.50006
C24  24490509.37326    123324.72326       938.24826        37.80026  24490490.48623   1682677.04923       715.66723        19.10023
E30  25648048.22607     26779.49807     -3414.78707        43.30007  25648064.41405  -2061720.86105     -2549.66405        33.30005
C07  38666488.64705    100263.17905      -498.34405        35.10005                                                                
E21  25662871.46405   1429158.95405      1282.67605        34.80005  25662766.83623   1180941.36323       959.56423        22.90023
C21  22374780.46215     21992.38415     -2872.92015        35.40015  22374771.46824     24253.82324     -2164.39024        29.30024
E29  23788481.77715    115955.84915         6.37915        34.50015  23788491.07025  -1995798.92325        17.28725        29.70025
C14  24416707.36525    163953.08625      1378.57125        31.30025                                                                
R07  22274120.64725-119265299.99225     -5087.92725        31.80025
R11  19609341.93525-104816514.03425     -1134.99825        31.80025
C10  38601326.95725    444759.50225      -291.26225        29.50025                                                                
R01  20679167.21025-110572147.26025      1843.22025        30.50025
C26  22051804.75324     68649.63624      -937.31124        27.20024  22051802.65524     59137.21924      -706.92724        25.60024
E19  26286339.94623    229744.63823      1207.14423        21.60023                                                                
> 2025 09 29 13 22 12.0000000  0 29                      
G07  22459982.37807    -40268.69207     -2573.53607        46.30007                                                                
G30  21014720.71206    -12962.05506     -1686.36106        40.30006  21014735.40125     -2276.79925     -1257.21325        33.80025
G14  20228315.62806     24321.04706      -479.84706        38.90006  20228336.31425     25524.26825      -355.21325        31.20025
G13  22207526.84915     87944.00615      1593.03115        33.50015                                                                
G22  20739318.76825   1876319.71025       422.54425        32.10025                                                                
G17  23632747.98925    131002.86425      1772.96225        31.40025                                                                
G21  21560672.45725    877135.33225     -2845.03125        29.50025                                                                
G09  23240656.62824    -92204.39324     -4261.19524        27.90024                                                                
G08  24360349.68122   2102865.50822     -3118.55722        16.90022                                                                
G05  22277977.17724     12347.66924     -1189.90824        27.50024                                                                
E07  24337276.45406    434447.36806     -2331.00206        39.80006  24337296.54025   1811342.01125     -1740.73525        29.50025
E27  23517430.12207     83912.26807     -1071.47507        42.10007  23517449.90825     70380.71525      -799.82725        33.40025
R12  22821332.42006-121938858.89806      1796.62206        40.20006
R08  19265539.94406-103197565.63906     -2121.04106        39.70006
E30  25648458.04207     23362.16407     -3418.96307        42.40007  25648478.12805  -2064273.25505     -2553.93505        33.50005
R10  21084377.78906-112422928.93406     -4181.00006        38.00006
C09  39221958.50306     76660.28406     -1271.35006        38.10006                                                                
C24  24490094.76016    124260.44416       934.08116        37.70016  24490079.77123   1683387.47023       710.42023        19.30023
C07  38666361.53505     99761.92305      -503.02705        35.20005                                                                
E21  25662399.59025   1430437.96225      1276.98325        35.00025  25662283.27123   1181896.05723       952.33723        22.20023
C21  22375097.04315     19115.99915     -2878.20415        35.20015  22375085.65124     22080.11124     -2178.67724        28.50024
E29  23788251.23625    115958.53425        -0.10125        34.20025  23788256.33324  -1995795.72224        -3.34424        29.40024
R07  22274823.96025-119270339.84025     -5101.53625        31.80025
C14  24416215.40625    165330.61625      1376.32425        31.20025                                                                
R11  19609338.93725-104817770.26425     -1140.67525        31.60025
C10  38601161.17225    444465.10825      -296.16325        29.80025                                                                
R01  20678607.79825-110570428.61525      1837.11225        30.10025
C26  22051738.49924     67709.86124      -941.52624        27.20024  22051747.19324     58430.75124      -705.58024        25.20024
E19  26285896.55223    230948.32023      1201.05623        21.80023                                                                
> 2025 09 29 13 22 13.0000000  0 29                      
G07  22460224.01007    -42844.66507     -2578.30707        46.20007                                                                
G30  21014801.65616    -14651.11816     -1691.29216        40.20016  21014819.34325     -3538.05125     -1263.63725        33.60025
G14  20228171.42806     23838.01406      -484.97606        38.60006  20228190.31525     25162.89125      -364.82325        30.80025
G13  22206976.43025     89535.90425      1589.31925        33.40025                                                                
G22  20739014.77925   1876743.22725       422.90325        32.10025                                                                
G17  23632180.18225    132771.49125      1765.83225        31.30025                                                                
G21  21560964.45525    874290.53525     -2845.40425        29.60025                                                                
G05  22277970.28224     11161.53724     -1185.91624        27.40024                                                                
G09  23241245.12124    -96475.16424     -4276.34024        27.70024                                                                
G08  24360710.03122   2099742.11122     -3127.82022        17.00022                                                                
E07  24337489.00707    432113.60707     -2336.22207        45.50007  24337500.09925   1809599.57125     -1744.24725        30.60025
E27  23517412.13407     82838.37007     -1076.24707        42.00007  23517413.33425     69578.99025      -803.45225        33.10025
R08  19265700.03306-103199697.98806     -2126.13106        39.80006
R12  22820755.91926-121937050.50726      1792.18326        40.10026
R10  21084911.71906-112427044.53506     -4185.89506        38.20006
C09  39221971.69426     75385.46426     -1277.35926        38.10026                                                                
E30  25648860.06407     19939.77007     -3424.92007        41.70007  25648890.04305  -2066828.51305     -2556.68805        33.40005
C24  24489691.24006    125190.86906       927.77706        37.60006  24489690.64024   1684088.82324       696.81824        23.50024
C26  22051679.74025     66763.25025      -950.02825        30.60025  22051689.63324     57719.94124      -712.97924        24.70024
C07  38666215.53605     99257.57505      -505.89305        35.30005                                                                
E21  25661902.83415   1431712.73915      1273.41115        35.00015  25661928.31725   1182848.34225       951.08025        30.10025
C21  22375393.23825     16233.74425     -2885.18825        35.00025  22375400.73224     19904.69024     -2176.27424        27.60024
E29  23788010.50325    115956.77225        -3.73425        33.90025  23788020.09624  -1995796.67824        -3.03524        29.10024
R07  22275541.06425-119275453.21525     -5104.93525        31.80025
C14  24415733.34025    166702.58825      1369.19325        31.20025                                                                
R11  19609313.45525-104818904.92925     -1141.54225        31.40025
C10  38600980.39725    444166.82325      -300.23125        29.90025                                                                
R01  20677994.12325-110568420.08725      1836.83025        29.80025
E19  26285425.57923    232145.50423      1193.93423        21.90023                                                                
> 2025 09 29 13 22 14.0000000  0 28                      
G07  22460494.42307    -45424.08807     -2581.14707        46.10007                                                                
G30  21014907.78206    -16344.16606     -1695.04006        40.20006  21014921.57316     -4802.45416     -1265.97716        39.20016
G14  20228042.81706     23351.87506      -487.94206        38.40006  20228054.50925     24798.75925      -365.50925        30.20025
G22  20738715.58615   1877160.31815       413.87715        32.20015                                                                
G13  22206458.68925     91125.94125      1589.10525        33.20025                                                                
G17  23631610.57625    134538.69425      1766.49025        31.30025                                                                
G21  21561297.22525    871438.35725     -2855.86725        29.70025                                                                
G08  24361068.28322   2096613.22022     -3131.63522        17.40022                                                                
G05  22277975.97824      9971.56424     -1191.89324        27.40024                                                                
E07  24337711.15307    429776.52507     -2338.74007        45.40007  24337726.44325   1807854.78725     -1745.95625        30.60025
E27  23517389.35007     81759.83607     -1080.85107        41.90007  23517400.44225     68773.70925      -807.05825        32.80025
R08  19265873.31306-103201802.75706     -2130.20706        39.80006
R12  22820204.30116-121935277.28016      1788.08916        39.80016
R10  21085480.72506-112431248.61406     -4189.50706        38.50006
E30  25649301.65806     16513.59906     -3428.05806        41.10006  25649322.34406  -2069386.74306     -2559.71306        36.00006
C24  24489287.41926    126116.91626       923.85726        37.40026  24489296.11324   1684787.61024       697.50424        23.70024
C09  39221990.58126     74108.99226     -1277.29726        37.80026                                                                
E21  25661440.85405   1432983.85305      1269.03105        34.90005  25661467.53625   1183796.98325       946.81825        29.60025
C07  38666077.03225     98748.96225      -510.74525        35.30025                                                                
C21  22375722.11025     13348.42825     -2886.84525        34.80025  22375737.10024     17726.29424     -2179.88324        27.40024
C26  22051656.05625     65812.80925      -952.35625        34.00025  22051651.25924     57004.02924      -718.46424        24.30024
E29  23787794.35325    115950.13625        -8.32425        33.70025  23787792.25424  -1995799.64424        -3.97124        28.70024
R07  22276296.24125-119280671.53125     -5106.68225        32.10025
C14  24415223.39325    168066.75525      1360.26425        31.10025                                                                
R11  19609309.85725-104820061.00425     -1153.81825        31.20025
C10  38600825.10525    443866.85825      -300.80525        29.90025                                                                
R01  20677439.50625-110566631.07725      1826.12925        29.50025
E19  26284977.08923    233337.67323      1189.66023        22.00023                                                                
> 2025 09 29 13 22 15.0000000  0 29                      
G07  22460755.54207    -48003.26307     -2579.04907        46.00007                                                                
G30  21014990.82506    -18037.75706     -1693.86106        41.10006  21015005.81406     -6067.15006     -1264.84206        38.60006
G14  20227899.51706     22864.04706      -488.67206        38.20006  20227916.90525     24435.49925      -362.82425        29.90025
G13  22205925.95715     92715.01015      1588.58415        33.10015                                                                
G22  20738401.40325   1877574.47025       412.68225        32.30025                                                                
G17  23631061.05725    136303.48525      1763.58425        31.30025                                                                
G21  21561587.42425    868586.62525     -2851.50725        29.70025                                                                
G05  22277951.09524      8779.18424     -1193.58224        27.40024                                                                
G09  23242392.72624   -105042.96224     -4283.31424        24.30024                                                                
G08  24361420.24023   2093483.19923     -3130.58523        17.70023                                                                
E07  24337914.71217    427439.21117     -2336.67817        45.10017  24337933.89925   1806109.02525     -1746.24925        30.60025
R08  19266036.70006-103203951.96006     -2129.32006        39.70006
E30  25649715.07206     13087.25006     -3426.43606        40.70006  25649736.35706  -2071945.48506     -2558.99706        36.50006
R10  21086030.84506-112435450.39806     -4188.54506        38.80006
E27  23517354.27426     80680.46826     -1079.78426        40.80026  23517368.06525     67968.47425      -805.21225        32.70025
R12  22819633.79616-121933500.98916      1789.34016        39.60016
E21  25660965.38305   1434254.46505      1270.35905        35.00005  25660980.67324   1184746.32724       949.69524        28.70024
C07  38665948.72115     98239.00515      -510.62815        35.20015                                                                
C21  22376037.79115     10459.89015     -2890.14615        34.80015  22376056.67824     15550.02724     -2175.20024        27.10024
E29  23787544.02615    115944.46615        -6.18715        33.60015  23787559.31524  -1995800.53324         0.15024        28.50024
R07  22276985.76425-119285636.31325     -5107.50225        32.60025
C09  39221991.18126     72830.84226     -1278.98826        37.00026                                                                
C26  22051593.10025     64863.19525      -949.19925        33.80025  22051597.89624     56281.72724      -725.49624        23.90024
C24  24488849.42216    127043.20416       926.40816        37.00016  24488873.10624   1685486.24924       698.56424        24.50024
C14  24414713.74525    169433.78825      1368.46425        31.00025                                                                
R11  19609306.56025-104821315.69925     -1148.94225        31.00025
C10  38600633.23825    443566.35425      -300.77425        29.90025                                                                
R01  20676863.90524-110564826.00224      1831.34424        29.40024
E19  26284533.69623    234530.89223      1193.74423        22.00023                                                                
> 2025 09 29 13 22 16.0000000  0 29                      
G07  22461017.26107    -50580.13307     -2575.71507        46.50007                                                                
G30  21015074.16707    -19729.53507     -1690.87007        41.60007  21015089.45606     -7330.50006     -1262.67606        38.10006
G14  20227751.41906     22377.93406      -485.25606        38.00006  20227766.10924     24072.81424      -362.39724        29.40024
G13  22205389.02925     94304.14325      1589.16325        33.00025                                                                
G22  20738063.83725   1877992.23525       419.57125        32.30025                                                                
G17  23630474.06325    138069.70125      1766.92725        31.40025                                                                
G21  21561905.20425    865739.17025     -2845.31525        29.80025                                                                
G05  22277939.40324      7588.49224     -1189.84824        27.50024                                                                
G09  23242992.31124   -109324.09224     -4281.12724        24.20024                                                                
G08  24361793.78123   2090355.28223     -3126.86223        17.80023                                                                
E07  24338128.16407    425102.94507     -2335.99107        44.70007  24338140.15625   1804364.78625     -1743.47625        30.60025
E27  23517318.29916     79603.86516     -1075.96916        40.50016  23517335.38725     67164.27525      -803.68125        32.50025
R08  19266198.28806-103206093.50006     -2127.61006        39.70006
E30  25650124.58806      9662.66706     -3423.69706        40.50006  25650148.57216  -2074503.04316     -2556.96316        36.30016
R10  21086576.76706-112439630.06406     -4185.54806        38.90006
R12  22819060.59316-121931713.22816      1791.27716        39.30016
E21  25660487.51405   1435526.68505      1273.02405        35.30005  25660506.70124   1185694.17824       947.10424        28.40024
C21  22376351.07405      7572.30605     -2887.10605        35.00005  22376366.96324     13372.20324     -2178.60024        26.40024
C07  38665810.81615     97731.37515      -506.46715        35.10015                                                                
C09  39222019.36126     71555.35926     -1274.14826        36.50026                                                                
E29  23787325.77725    115938.22925        -6.27025        33.50025  23787322.18024  -1995799.53624         1.94024        28.20024
R07  22277756.83025-119291040.74425     -5108.52425        32.60025
C26  22051540.33625     63913.23025      -950.14125        33.50025  22051540.93624     55558.58924      -723.55524        23.60024
C24  24488450.09926    127971.93726       929.95526        36.10026  24488461.49124   1686185.13424       699.00824        24.30024
C14  24414226.28325    170800.09825      1365.94825        30.90025                                                                
R11  19609284.97425-104822473.29325     -1144.20225        30.90025
C10  38600464.45525    443264.13325      -303.07825        29.80025                                                                
R01  20676298.19724-110563076.76224      1832.02524        29.20024
E19  26284047.43323    235726.80723      1197.26123        22.00023                                                                
> 2025 09 29 13 22 17.0000000  0 29                      
G07  22461279.58007    -53157.71307     -2577.93207        47.20007                                                                
G30  21015179.09407    -21421.76407     -1692.45407        42.10007  21015191.38606     -8594.01806     -1263.60106        37.70006
G14  20227631.80206     21891.92606      -486.70506        37.80006  20227640.79624     23710.90624      -361.51924        29.20024
G13  22204856.59815     95893.94515      1590.13615        33.00015                                                                
G22  20737770.04115   1878408.98115       416.23815        32.20015                                                                
G17  23629917.94825    139837.37825      1768.40625        31.40025                                                                
G21  21562231.67825    862891.67825     -2847.50725        29.80025                                                                
G05  22277946.29924      6397.35324     -1191.36124        28.10024                                                                
G09  23243593.99524   -113601.32224     -4275.27624        24.20024                                                                
G08  24362167.62223   2087227.19223     -3128.17423        17.80023                                                                
E07  24338345.51427    422766.43727     -2336.62627        44.30027  24338365.60025   1802620.77425     -1743.89625        31.40025
E27  23517302.11106     78526.11106     -1077.32906        40.40006  23517320.99725     66359.59025      -804.92725        31.40025
R08  19266361.37606-103208143.86806     -2129.74306        39.70006
E30  25650570.97906      6238.03106     -3425.41106        40.30006  25650583.57126  -2077062.00126     -2559.65726        36.00026
R10  21087146.07306-112443837.19206     -4186.16906        38.90006
R12  22818512.87206-121929961.40106      1790.49406        39.00006
C21  22376683.24516      4684.36516     -2888.11716        35.50016  22376701.23224     11193.34724     -2179.37124        26.30024
E21  25660029.13106   1436799.35206      1272.89006        35.60006  25660040.22424   1186642.95024       949.23324        27.70024
C07  38665695.09625     97225.63925      -504.78725        35.00025                                                                
C09  39222025.65726     70280.87526     -1273.98426        36.00026                                                                
E29  23787079.64715    115932.62315        -5.29115        33.30015  23787105.43024  -1995799.39224        -0.28324        28.10024
R07  22278440.05725-119295873.78925     -5104.14425        32.50025
C26  22051501.66325     62961.84725      -952.09025        33.30025  22051513.05523     54832.88223      -726.99123        23.20023
C14  24413718.43425    172167.66825      1368.19925        30.80025                                                                
R11  19609236.70825-104823390.05025     -1150.00325        30.80025
C10  38600319.35525    442965.74925      -296.46625        29.80025                                                                
R01  20675730.09024-110561213.56124      1834.15424        29.10024
E19  26283602.24123    236925.43523      1199.98423        22.20023                                                                
C24  24488030.98925    128899.50325       926.98225        35.30025  24488063.36624   1686885.46124       701.04824        24.10024
> 2025 09 29 13 22 18.0000000  0 30                      
G07  22461518.81417    -55735.99717     -2578.63517        47.20017                                                                
G30  21015260.33807    -23113.61707     -1691.66307        43.20007  21015275.02826     -9852.11126     -1255.38026        37.30026
G14  20227490.00016     21406.12416      -485.44916        37.60016  20227496.59524     23349.01924      -361.87724        28.90024
G05  22277931.00925      5204.30725     -1193.99925        30.70025                                                                
G13  22204310.67625     97483.66225      1589.67325        32.90025                                                                
G22  20737440.26925   1878823.92125       414.03525        32.20025                                                                
G17  23629357.03725    141605.29925      1768.04225        31.40025                                                                
G21  21562548.85825    860040.15125     -2853.54325        29.80025                                                                
G09  23244156.40524   -117878.54324     -4277.21424        24.20024                                                                
G08  24362515.98123   2084100.93923     -3125.33223        17.80023                                                                
E07  24338557.16717    420429.79417     -2337.45917        43.90017  24338570.95825   1800876.24625     -1744.78625        31.10025
E30  25650984.09306      2812.75906     -3425.33606        40.10006  25650995.48516  -2079620.08116     -2557.63816        36.50016
E27  23517261.03906     77447.97606     -1078.57506        40.20006  23517282.02425     65544.46225      -820.34825        30.30025
R08  19266527.76006-103210309.16106     -2130.23606        39.60006
R10  21087690.79506-112448009.23006     -4186.77606        38.90006
R12  22817932.77426-121928133.13726      1787.37926        38.70026
C21  22377006.72116      1795.51716     -2889.29916        36.20016  22377017.81324      9015.34224     -2177.57924        27.30024
E21  25659529.67706   1438071.16606      1271.38606        35.70006  25659562.05524   1187592.48224       949.91024        27.30024
C07  38665569.18325     96717.82125      -508.85925        34.80025                                                                
C09  39222037.04926     69004.11026     -1277.90426        35.60026                                                                
E29  23786853.90425    115927.96125        -4.18925        33.20025  23786867.69425  -1995802.07725        -4.09925        30.50025
C26  22051441.70525     62011.23425      -950.22825        33.10025  22051464.18923     54098.50623      -738.71023        22.80023
R07  22279129.58025-119300838.57525     -5109.93225        32.40025
C24  24487642.45825    129826.47525       926.67425        34.70025  24487647.25524   1687585.04024       699.20424        23.90024
C14  24413239.06625    173537.19125      1370.49925        30.80025                                                                
R11  19609219.32025-104824569.05425     -1148.19525        30.80025
C10  38600120.29325    442667.13725      -298.72525        29.70025                                                                
R01  20675156.28724-110559418.43024      1829.49624        29.00024
E19  26283147.75523    238121.53423      1194.83323        22.20023                                                                
C35  26552618.90423   3353362.42523      1000.99323        21.80023                                                                
> 2025 09 29 13 22 19.0000000  0 30                      
G07  22461788.62707    -58315.21807     -2579.68707        47.10007                                                                
G30  21015361.06807    -24807.27207     -1693.80507        43.80007  21015374.55926    -11113.86526     -1263.58426        36.70026
G14  20227361.98926     20918.94026      -487.87626        37.50026  20227365.88624     22986.02624      -363.54624        28.20024
G13  22203795.33225     99070.69125      1585.68425        32.90025                                                                
G22  20737141.37615   1879237.05915       412.23715        32.20015                                                                
G17  23628788.93025    143371.57225      1765.44725        31.60025                                                                
G05  22277943.30125      4010.54625     -1194.11725        31.50025                                                                
G21  21562905.01125    857187.08925     -2853.82825        29.70025  21562847.15223   2312147.04123     -2130.17323        19.70023
G09  23244743.69924   -122157.22524     -4279.41024        24.20024                                                                
G08  24362931.19423   2080974.91823     -3125.90223        17.80023                                                                
E07  24338782.61117    418091.26417     -2339.22317        43.50017  24338797.60125   1799130.44225     -1746.44025        31.00025
E30  25651410.69806      -613.70706     -3426.31006        40.10006  25651429.28506  -2082178.83206     -2559.08506        36.20006
E27  23517247.24906     76368.35606     -1080.36106        40.10006  23517273.33025     64737.55725      -802.79425        30.20025
R08  19266702.24006-103212420.05906     -2132.83906        39.50006
R10  21088260.70106-112452217.88306     -4188.54706        38.80006
C21  22377342.78806     -1094.88006     -2891.17006        36.80006  22377357.77824      6835.17124     -2181.25224        27.00024
E21  25659063.20026   1439342.09526      1270.48526        35.80026  25659098.27624   1188543.70424       952.06724        26.80024
C07  38665422.28525     96211.33125      -505.82725        34.70025                                                                
C09  39222065.22915     67728.03315     -1275.73315        35.30015                                                                
R12  22817349.07826-121926190.22526      1785.99226        37.50026
C26  22051404.23115     61058.40915      -953.93015        33.00015  22051435.10923     53357.91323      -743.70123        22.40023
R07  22279864.37125-119305949.65725     -5106.48125        32.40025
C24  24487309.38825    130753.69425       927.34225        34.30025  24487252.72824   1688283.04924       697.22324        23.70024
C14  24412760.59825    174904.54425      1366.26625        30.80025                                                                
C10  38599953.30825    442363.59625      -306.00425        29.80025                                                                
R11  19609247.20125-104825891.80525     -1148.17125        30.70025
R01  20674594.77624-110557592.70724      1825.20424        28.90024
C35  26552173.41323   3354363.95523      1001.52923        22.50023                                                                
E19  26282687.27423    239316.41923      1194.27823        22.20023                                                                
E29  23786635.05525    115922.77525        -5.44925        33.20025  23786649.14525  -1995803.94125        -1.45525        30.20025
> 2025 09 29 13 22 20.0000000  0 30                      
G07  22462042.85107    -60892.05307     -2575.64007        47.00007                                                                
G30  21015446.80907    -26498.12307     -1689.69607        44.20007  21015460.30026    -12378.75626     -1266.45726        36.40026
G14  20227240.57326     20434.92026      -482.43726        37.30026  20227222.88524     22622.64724      -363.57124        28.00024
G13  22203253.30825    100659.18725      1589.22725        32.90025                                                                
G22  20736824.79525   1879652.47025       416.54725        32.40025                                                                
G17  23628210.93025    145142.14525      1772.72225        31.80025                                                                
G21  21563169.72825    854337.26325     -2848.20525        29.70025  21563150.24223   2310017.31523     -2129.50023        19.90023
G09  23245293.21824   -126433.64824     -4275.29024        24.20024                                                                
G08  24363272.65723   2077850.23823     -3124.00823        17.80023                                                                
G05  22277917.81825      2818.77925     -1190.76925        31.40025                                                                
E07  24338986.17027    415754.55427     -2335.79827        43.10027  24339003.25925   1797386.86025     -1742.47025        30.10025
E30  25651816.91706     -4037.77806     -3423.12206        40.20006  25651838.50206  -2084735.70606     -2555.93306        35.80006
E27  23517222.36606     75291.70906     -1075.90906        40.00006  23517240.95325     63933.15925      -803.14425        30.10025
R08  19266860.83006-103214544.74006     -2129.52706        39.40006
R10  21088791.63306-112456316.69806     -4184.26606        38.80006
C21  22377655.17206     -3983.22606     -2887.31806        37.10006  22377669.26224      4654.54524     -2180.85124        26.90024
E21  25658606.61626   1440614.86026      1273.68326        35.80026  25658618.90824   1189493.02824       948.37424        26.60024
C07  38665295.47325     95703.00525      -509.24225        34.60025                                                                
R12  22816804.05516-121924549.98016      1791.69616        37.10016
C09  39222084.11625     66455.12425     -1271.32425        35.00025                                                                
E29  23786392.82315    115919.25415        -1.93815        33.20015  23786409.91115  -1995806.32015        -2.63615        33.20015
R07  22280576.37825-119311035.45325     -5104.86325        32.30025
C26  22051358.96225     60105.41225      -953.08225        32.80025  22051380.84723     52634.03623      -715.51823        22.00023
C24  24486906.76725    131682.92325       930.23225        33.90025  24486836.91623   1688981.42923       698.56523        23.40023
C10  38599772.23425    442061.66425      -301.12725        30.70025                                                                
C14  24412252.44925    176271.07925      1366.12525        30.70025                                                                
R11  19609199.23425-104826907.95025     -1146.98425        30.70025
R01  20674010.78024-110555742.50524      1832.24024        29.20024
E19  26282199.51223    240513.96923      1198.88123        22.10023                                                                
C35  26551712.63223   3355368.76323      1006.44623        22.90023                                                                
> 2025 09 29 13 22 21.0000000  0 30                      
G07  22462305.76907    -63469.25407     -2577.38207        46.80007                                                                
G30  21015553.23507    -28188.55807     -1690.22607        44.70007  21015560.43026    -13641.41126     -1261.53726        35.90026
G14  20227115.25916     19949.38416      -486.29316        37.10016  20227095.77324     22266.46424      -352.58524        27.80024
G13  22202731.96925    102250.88525      1593.29825        32.90025                                                                
G17  23627657.81325    146912.56625      1770.34425        32.20025                                                                
G22  20736549.88525   1880072.88525       422.91725        32.40025                                                                
G21  21563477.91525    851486.51425     -2851.20825        29.70025  21563471.31923   2307894.11623     -2119.93323        19.80023
G09  23245875.41524   -130709.19224     -4275.10224        24.20024                                                                
G08  24363630.90923   2074730.95323     -3116.58523        18.00023                                                                
G05  22277946.89825      1626.68425     -1192.25825        31.40025                                                                
E30  25652256.71207     -7461.70307     -3423.84907        42.40007  25652273.50106  -2087292.43406     -2556.65406        35.70006
E07  24339213.11317    413417.52417     -2336.43717        42.80017  24339228.10325   1795647.98625     -1736.51925        30.10025
E27  23517207.67606     74214.37706     -1077.42506        39.90006  23517223.26525     63131.59425      -800.14725        29.50025
R08  19267041.60506-103216689.35106     -2130.48306        39.30006
R10  21089369.33306-112460568.06806     -4185.81206        38.70006
C21  22377997.23526     -6870.54026     -2886.79626        37.10026  22378002.93124      2476.00624     -2177.49524        26.30024
E21  25658133.54426   1441888.80426      1274.53226        35.70026  25658160.82524   1190442.85224       950.07324        26.40024
C07  38665156.96925     95197.78925      -503.66125        34.60025                                                                
R12  22816241.64526-121922719.42726      1789.93226        36.60026
C09  39222106.90025     65183.30425     -1271.27525        34.80025                                                                
R07  22281355.23925-119316380.14425     -5103.68125        32.20025
C26  22051316.99125     59155.99525      -947.62725        32.60025  22051338.27623     51916.70223      -714.06223        21.60023
C10  38599603.45125    441764.58125      -294.65925        31.10025                                                                
C24  24486492.15425    132616.17525       935.26425        33.40025  24486439.69123   1689679.91823       698.54423        23.10023
R11  19609206.42925-104828120.60125     -1146.95225        30.70025
C14  24411761.08925    177641.58325      1372.48825        30.70025                                                                
R01  20673431.88124-110553822.70424      1831.91224        29.30024
C35  26551280.63123   3356373.80823      1005.16323        23.20023                                                                
E19  26281761.51523    241714.33523      1201.77323        22.10023                                                                
E29  23786164.98125    115915.26325        -4.47725        33.40025  23786190.76305  -1995808.50705        -2.09105        34.30005
> 2025 09 29 13 22 22.0000000  0 30                      
G07  22462571.98527    -66046.18127     -2576.78827        46.70027                                                                
G30  21015634.77907    -29880.57407     -1692.80607        44.90007  21015646.77016    -14903.63416     -1262.00516        35.60016
G13  22202195.04025    103843.79625      1593.51625        32.80025                                                                
G05  22277945.39915       432.56615     -1195.12915        31.90015                                                                
G17  23627088.20725    148679.94925      1765.86225        32.20025                                                                
G22  20736214.71725   1880491.14825       417.18725        32.30025                                                                
G21  21563777.10825    848634.45625     -2852.71025        29.70025  21563777.10823   2305772.53323     -2120.77423        19.80023
G09  23246474.40124   -134984.08624     -4274.56424        24.50024                                                                
G08  24364014.94323   2071613.68523     -3116.25723        18.00023                                                                
G14  20226945.87706     19461.07106      -489.70206        36.90006  20226952.17224     21906.82624      -361.36624        27.60024
E30  25652672.52407    -10887.12107     -3426.16207        46.80007  25652686.91406  -2089850.50806     -2558.74506        37.70006
E27  23517174.69906     73135.36406     -1079.85206        39.90006  23517190.88824     62328.05424      -804.52724        29.40024
R10  21089912.85706-112464734.76506     -4187.15806        38.70006
R08  19267208.88906-103218860.00906     -2131.07506        39.20006
C21  22378309.61926     -9762.34026     -2894.04126        37.10026  22378321.31124       299.45724     -2175.55324        26.00024
E07  24339421.16907    411080.50007     -2337.27107        42.40007  24339432.26224   1793910.89524     -1736.19924        29.20024
E21  25657658.07326   1443157.36326      1265.86626        35.60026  25657681.75724   1191396.82424       956.04724        26.10024
C07  38665010.67025     94689.04325      -510.51225        34.50025                                                                
E29  23785936.83915    115910.25415        -5.51815        33.80015  23785952.72806  -1995811.69906        -3.69406        36.30006
C09  39222097.60725     63907.19625     -1278.25125        34.70025                                                                
R12  22815713.71016-121921170.13716      1791.38516        36.20016
R07  22282064.84725-119321452.92425     -5110.76325        32.20025
C26  22051269.02425     58204.78525      -952.10525        32.50025  22051280.11623     51209.41323      -702.26623        21.20023
C10  38599425.37425    441463.16125      -303.58825        31.30025                                                                
C24  24486076.34225    133544.82025       926.34025        33.00025  24486022.97923   1690379.24523       699.74423        22.70023
R11  19609169.85425-104829196.38725     -1150.44225        30.70025
C14  24411264.03425    179008.29525      1364.81425        30.60025                                                                
R01  20672849.98424-110551984.74024      1828.98724        29.30024
C35  26550886.10423   3357375.09923       999.41323        23.20023                                                                
E19  26281281.54723    242912.28723      1196.74423        22.10023                                                                
> 2025 09 29 13 22 23.0000000  0 30                      
G07  22462829.80727    -68624.73727     -2579.36927        46.60027                                                                
G30  21015718.72107    -31574.12507     -1694.31707        45.10007  21015729.81325    -16166.92025     -1263.81725        35.00025
G14  20226795.38106     18970.35006      -491.92306        36.70006  20226807.97224     21539.16724      -371.66824        27.40024
G05  22277919.61725      -763.16025     -1196.52925        32.20025                                                                
G17  23626506.01025    150446.73925      1766.49225        32.20025                                                                
G22  20735933.21225   1880904.53525       410.94825        32.30025                                                                
G13  22201635.02825    105435.10925      1590.51325        32.30025                                                                
G21  21564099.98425    845779.54125     -2856.34225        29.60025  21564081.09723   2303642.11123     -2134.83923        19.70023
G09  23247064.99224   -139261.01324     -4277.94124        25.00024                                                                
G08  24364351.91023   2068497.50923     -3115.62823        18.30023                                                                
E30  25653085.63807    -14314.01607     -3427.63107        46.70007  25653100.92806  -2092409.63106     -2559.64506        37.40006
E29  23785701.80106    115904.11106        -6.70906        41.40006  23785714.99206  -1995816.23206        -5.20406        36.20006
E07  24339631.32407    408741.42307     -2340.85107        42.10007  24339639.71824   1792172.39324     -1739.20624        29.20024
E27  23517140.52206     72054.13906     -1082.33006        40.00006  23517157.61124     61519.27524      -811.39924        29.40024
R10  21090466.27406-112468954.09506     -4189.55606        38.70006
C21  22378631.59626    -12653.33426     -2890.58826        37.00026  22378638.79124     -1883.37724     -2185.97424        25.80024
E21  25657172.40925   1444427.72725      1270.51525        35.40025  25657200.59024   1192347.85824       949.56324        25.80024
C09  39222113.19625     62632.41225     -1274.12125        34.60025                                                                
C07  38664864.97125     94177.68225      -512.66725        34.40025                                                                
R12  22815114.42506-121919241.74806      1787.63406        35.70006
C26  22051206.66725     57253.72825      -950.98025        32.40025  22051223.45623     50497.96823      -713.52323        21.00023
R07  22282781.65125-119326565.53725     -5107.94725        32.10025
C10  38599252.69325    441158.77225      -305.87425        31.30025                                                                
R11  19609147.67025-104830352.45525     -1154.10825        30.90025
C24  24485633.84825    134470.89825       924.79425        32.70025  24485577.18823   1691079.84623       701.23823        22.10023
C14  24410765.17925    180376.20125      1368.50225        30.50025                                                                
R01  20672283.97624-110550233.97124      1825.80224        29.30024
R08  19267372.57626-103221012.27826     -2133.39226        38.40026
C35  26550466.99423   3358372.45723       995.39123        23.10023                                                                
E19  26280825.26323    244103.84923      1188.36823        22.10023                                                                
> 2025 09 29 13 22 24.0000000  0 30                      
G07  22463095.72227    -71207.92927     -2585.50827        46.50027                                                                
G14  20226665.27106     18475.62906      -496.72206        36.60006  20226680.56024     21172.31824      -366.44424        27.90024
G17  23625944.79925    152209.71925      1761.07425        32.20025                                                                
G05  22277938.20415     -1964.15515     -1203.62815        32.20015                                                                
G22  20735613.33425   1881313.77125       407.16125        32.20025                                                                
G13  22201098.69925    107020.17025      1581.93325        32.10025                                                                
G08  24364699.07023   2065381.93423     -3115.27323        18.50023                                                                
G21  21564430.05625    842922.08925     -2858.71825        29.60025  21564404.57323   2301504.42523     -2141.31723        19.60023
G09  23247625.90324   -143543.49924     -4285.26324        25.10024                                                                
G30  21015820.35007    -33270.77407     -1698.19807        45.10007  21015833.24125    -17433.66225     -1268.46925        34.80025
E30  25653512.54307    -17744.15707     -3431.76107        46.60007  25653531.13006  -2094970.99806     -2562.48706        37.00006
E29  23785486.55007    115894.62507       -11.15707        43.60007  23785497.94206  -1995823.25506        -8.26806        35.60006
E27  23517125.23306     70969.54406     -1086.28006        40.20006  23517142.02124     60707.86424      -812.72624        29.00024
E07  24339851.07207    406398.62807     -2344.40207        41.70007  24339866.06124   1790431.42624     -1742.19824        29.10024
R10  21091036.77906-112473168.08806     -4193.46206        38.60006
C21  22378966.76426    -15549.87426     -2899.31126        36.90026  22378974.55824     -4067.36924     -2184.57024        25.40024
C09  39222136.88025     61354.12425     -1280.03925        34.90025                                                                
E21  25656735.61225   1445692.59625      1262.37125        35.30025  25656742.20724   1193291.02424       939.23224        25.50024
R08  19267552.45126-103223151.52526     -2139.02826        37.50026
R12  22814555.61225-121917431.83425      1783.47525        35.40025
C26  22051160.19925     56296.23525      -960.71025        32.30025  22051182.68423     49783.13923      -716.52023        20.70023
R07  22283524.53725-119331718.74525     -5114.25525        32.00025
C10  38599095.60225    440851.10425      -309.30725        31.40025                                                                
R11  19609148.86925-104831532.23025     -1154.98325        30.90025
C07  38664759.74425     93666.69125      -510.80625        34.00025                                                                
C24  24485240.82125    135392.55625       919.44725        32.40025  24485184.75923   1691776.51023       694.69523        21.60023
C14  24410284.01225    181737.68825      1358.27725        30.40025                                                                
R01  20671713.17124-110548356.23824      1819.21324        29.20024
C35  26550056.27923   3359364.56523       989.48123        23.00023                                                                
E19  26280394.16223    245288.35223      1180.97223        22.00023                                                                
> 2025 09 29 13 22 25.0000000  0 30                      
G07  22463345.45017    -73791.23617     -2583.36317        46.40017                                                                
G30  21015910.58807    -34967.76807     -1697.16407        45.00007  21015918.98225    -18702.79025     -1270.32025        34.60025
G14  20226533.06316     17981.06616      -494.48316        36.50016  20226534.26224     20804.64724      -368.08124        27.70024
G17  23625374.59425    153973.58525      1764.30725        32.20025                                                                
G22  20735330.03025   1881722.40825       408.33725        32.20025                                                                
G13  22200552.47725    108605.66625      1585.71225        31.80025                                                                
G21  21564740.34125    840062.84125     -2860.14425        29.50025                                                                
G08  24365060.62023   2062269.01423     -3111.58923        19.00023                                                                
G09  23248201.50524   -147825.69824     -4282.05324        25.50024                                                                
G05  22277913.02225     -3163.81325     -1198.98925        32.20025                                                                
E30  25653937.64907    -21175.00307     -3431.19607        46.50007  25653948.14106  -2097533.20406     -2562.62406        36.80006
E29  23785248.21507    115885.11507        -9.52307        44.10007  23785261.40605  -1995830.29805        -7.05305        35.40005
E27  23517102.44906     69884.27206     -1085.60906        40.80006  23517113.54124     59899.12824      -807.39824        29.00024
E07  24340059.12807    404055.33107     -2343.54607        41.50007  24340075.61624   1788685.51324     -1748.38424        29.00024
C21  22379300.43326    -18445.30826     -2894.87926        36.80026  22379292.33824     -6251.66124     -2184.44124        25.10024
R08  19267703.54616-103225236.36816     -2139.26616        37.10016
C09  39222151.86915     60075.24715     -1279.17015        35.20015                                                                
R12  22813981.80925-121915637.95925      1784.61125        35.20025
R10  21091574.90726-112477304.27726     -4193.41126        38.20026
C26  22051108.03625     55339.13925      -956.89825        32.30025  22051127.82223     49077.35923      -701.25623        20.50023
C07  38664603.55225     93153.36625      -514.49125        33.60025                                                                
R07  22284213.76025-119336681.99625     -5112.89025        32.00025
C24  24484866.97925    136314.39525       921.92925        32.20025  24484770.44623   1692474.08323       698.02723        21.10023
C10  38598931.61625    440548.42025      -300.19125        31.40025                                                                
R11  19609128.18325-104832693.64725     -1155.71125        30.90025
C14  24409780.06125    183097.14725      1358.44425        30.20025                                                                
E21  25656245.45125   1446953.93525      1259.57225        34.00025  25656260.44024   1194233.07124       941.48624        28.90024
R01  20671142.66624-110546578.69824      1822.25624        29.20024
C35  26549631.47323   3360354.54523       988.91523        22.90023                                                                
E19  26279944.47323    246472.46923      1183.92323        22.00023                                                                
> 2025 09 29 13 22 26.0000000  0 30                      
G07  22463614.36327    -76375.05727     -2584.07627        46.30027                                                                
G30  21016010.71907    -36665.70707     -1698.41007        45.00007  21016020.91126    -19970.29826     -1266.69826        35.80026
G14  20226410.44726     17486.59326      -494.42826        36.40026  20226411.34724     20433.16424      -373.38924        27.50024
G17  23624843.36125    155738.05825      1764.77625        32.40025                                                                
G05  22277922.31515     -4363.44515     -1199.61915        32.20015                                                                
G22  20735022.44325   1882130.62425       408.00525        32.20025                                                                
G13  22200065.01525    110188.27525      1581.16425        31.70025                                                                
G21  21565051.22625    837203.26225     -2859.74125        29.50025                                                                
G08  24365440.45723   2059160.52423     -3106.27323        19.60023                                                                
G09  23248807.68524   -152105.48524     -4278.57724        25.70024                                                                
E30  25654373.24707    -24605.67307     -3430.58007        46.30007  25654382.24116  -2100094.94816     -2561.51116        36.50016
E29  23785028.46707    115876.11107        -8.75007        44.60007  23785042.55815  -1995837.04115        -6.59315        35.20015
E27  23517085.06107     68799.06507     -1085.17407        41.60007  23517099.45124     59091.94724      -806.40224        28.20024
E07  24340286.97006    401711.71306     -2343.77706        41.40006  24340300.76025   1786935.82725     -1751.57225        32.70025
R08  19267877.12606-103227341.90106     -2141.38406        37.00006
C21  22379629.60526    -21339.19926     -2893.11726        36.60026  22379630.80424     -8434.39124     -2181.94624        24.90024
C09  39222169.25715     58795.70915     -1279.86815        35.20015                                                                
R12  22813448.17825-121913960.27025      1784.54825        34.90025
C07  38664475.24125     92638.35825      -515.85025        33.40025                                                                
R07  22284960.84325-119341858.18225     -5111.44125        31.90025
C24  24484476.35025    137238.96225       925.93125        32.10025  24484363.62823   1693168.85723       693.37423        23.20023
C10  38598761.93325    440241.78225      -308.61625        31.40025                                                                
E21  25655770.58025   1448217.90925      1265.29125        33.50025  25655800.55924   1195177.61524       945.79224        28.10024
R11  19609125.78525-104833855.06925     -1154.44425        30.80025
R10  21092167.89626-112481637.25726     -4192.09426        37.20026
C14  24409305.48925    184460.09325      1364.68725        30.10025                                                                
R01  20670586.55124-110544780.51024      1819.70624        29.30024
C35  26549236.04623   3361348.07823       995.30923        22.80023                                                                
E19  26279489.38823    247660.89623      1190.58023        22.00023                                                                
C26  22051067.26425     54382.07325      -957.04925        32.70025  22051082.25323     48368.41323      -710.52823        20.30023
> 2025 09 29 13 22 27.0000000  0 30                      
G07  22463872.78427    -78959.39227     -2584.58927        46.20027                                                                
G30  21016097.35907    -38363.84307     -1698.23407        44.90007  21016105.45325    -21237.77425     -1267.45725        35.20025
G14  20226257.55326     16992.46926      -493.94926        36.20026  20226271.94324     20053.67924      -383.48524        27.30024
G17  23624254.56925    157499.73425      1760.27525        32.40025                                                                
G05  22277925.91325     -5565.94525     -1203.93325        32.20025                                                                
G22  20734716.35525   1882536.16625       404.20625        32.10025                                                                
G13  22199512.49725    111770.96625      1582.73225        31.50025                                                                
G21  21565353.41625    834342.40625     -2861.49325        29.60025                                                                
G08  24365781.02123   2056050.96623     -3110.09023        20.10023                                                                
G09  23249383.58724   -156383.73924     -4277.48424        25.70024                                                                
E30  25654775.56807    -28038.48107     -3433.87407        46.10007  25654797.45316  -2102658.28616     -2564.13416        36.30016
E29  23784796.72807    115865.69107       -11.12807        44.70007  23784803.92305  -1995844.86305        -8.36105        34.70005
E27  23517052.38307     67712.42007     -1087.36207        42.00007  23517069.47225     58280.05625      -814.24525        31.00025
E07  24340491.72806    399366.71506     -2345.68606        41.30006  24340509.11625   1785185.40425     -1750.78925        32.90025
R08  19268051.60506-103229550.87106     -2143.17606        37.30006
C21  22379952.18216    -24236.39016     -2898.83916        36.50016  22379950.98224    -10619.06424     -2185.64324        24.50024
C09  39222180.05005     57514.86205     -1281.50105        35.40005                                                                
C07  38664347.52925     92122.34825      -516.51025        33.80025                                                                
R12  22812859.38625-121912086.90925      1780.07325        34.70025
C26  22051020.79625     53424.76025      -957.43725        33.10025                                                                
C24  24484044.64925    138159.56225       918.61725        32.00025  24484066.53324   1693860.74224       690.44024        26.10024
R07  22285687.54025-119347022.11025     -5117.05825        31.90025
C10  38598569.76625    439933.63825      -308.89725        31.30025                                                                
R10  21092699.42826-112485739.12726     -4201.82226        36.20026
R11  19609085.61325-104834913.27025     -1155.98925        30.90025
C14  24408813.53025    185821.04325      1359.95225        30.00025                                                                
R01  20670005.25324-110542947.13624      1817.08924        29.30024
C35  26548798.94923   3362336.54223       985.92823        22.70023                                                                
E19  26279028.00723    248845.94423      1183.35823        21.90023                                                                
E21  25655283.11725   1449477.30925      1257.11325        33.00025  25655323.58924   1196118.26724       938.70524        27.60024
> 2025 09 29 13 22 28.0000000  0 30                      
G07  22464123.41117    -81546.23017     -2588.08717        46.10017                                                                
G30  21016183.39907    -40065.64207     -1703.62807        44.80007  21016194.19225    -22507.27825     -1270.51825        35.00025
G17  23623670.57315    159259.87915      1759.37815        32.90015                                                                
G22  20734393.17825   1882942.13725       406.18425        32.10025                                                                
G13  22198999.55225    113350.97225      1578.66125        31.20025                                                                
G21  21565652.31025    831479.22925     -2864.33525        29.60025                                                                
G14  20226125.94425     16497.51225      -495.37325        35.40025  20226131.64024     19671.08624      -384.14724        27.10024
G08  24366135.07623   2052937.07123     -3116.06023        20.10023                                                                
G05  22277925.91325     -6771.09425     -1206.47225        32.20025                                                                
G09  23249952.89324   -160668.92724     -4288.65124        25.90024                                                                
E30  25655194.97807    -31473.46407     -3436.81707        45.90007  25655211.46716  -2105223.94216     -2566.81216        35.60016
E29  23784556.59407    115851.69607       -15.78307        44.70007  23784570.08505  -1995855.31605       -11.76805        34.30005
E27  23517027.50107     66621.65307     -1092.82807        42.30007  23517037.09425     57465.21225      -816.32125        30.80025
E07  24340702.48206    397017.82106     -2350.83906        41.20006  24340719.27125   1783430.68325     -1756.86925        32.50025
R08  19268213.79306-103231693.94706     -2149.09606        37.90006
C09  39222177.95106     56231.03506     -1285.31506        35.70006                                                                
C21  22380249.57626    -27137.13726     -2902.52326        36.30026  22380266.66424    -12804.02324     -2185.10224        24.20024
C07  38664208.12625     91602.76825      -521.36525        34.30025                                                                
C26  22050967.43325     52462.99525      -963.99025        33.20025                                                                
R12  22812289.18125-121910313.67825      1779.18025        34.40025
R10  21093248.34826-112489934.04926     -4196.00426        35.50026
C10  38598391.98925    439622.00525      -313.37725        31.40025                                                                
C24  24483589.86325    139078.46225       918.04825        31.90025  24483552.38924   1694554.93524       695.34524        25.10024
R07  22286396.84925-119352093.36225     -5119.71925        31.80025
R11  19609086.81225-104836191.67225     -1160.64325        30.90025
E21  25654810.04525   1450735.44825      1257.50725        32.50025  25654845.12024   1197055.73824       935.88024        27.10024
C14  24408314.67525    187177.57225      1354.31625        29.80025                                                                
R01  20669389.47924-110540927.13424      1819.52424        29.20024
C35  26548360.05323   3363320.20523       981.26223        22.60023                                                                
E19  26278566.92723    250024.89923      1175.90723        21.90023                                                                
> 2025 09 29 13 22 29.0000000  0 30                      
G07  22464402.81817    -84134.26417     -2588.63117        45.90017                                                                
G30  21016285.92817    -41769.52117     -1705.66917        44.70017  21016299.11925    -23779.22625     -1273.16925        34.70025
G17  23623120.75425    161018.47625      1757.82225        33.20025                                                                
G14  20225987.74025     15996.59425      -503.89825        34.90025  20226005.72824     19289.32824      -381.34124        26.70024
G22  20734092.78625   1883341.19625       395.60325        32.10025                                                                
G05  22277932.80825     -7982.21925     -1214.11225        32.10025                                                                
G13  22198473.41725    114927.90325      1575.39325        31.00025                                                                
G21  21566003.66625    828608.64725     -2874.28325        29.60025                                                                
G08  24366489.13123   2049819.28323     -3119.73223        20.10023                                                                
G09  23250541.08524   -164958.00524     -4291.02124        26.30024                                                                
E30  25655632.37507    -34910.99107     -3438.54707        45.70007  25655647.36506  -2107791.14906     -2567.98106        35.50006
E29  23784337.44607    115835.48507       -17.31807        44.60007  23784354.23405  -1995867.58805       -13.18205        34.00005
E27  23517017.90707     65528.92407     -1093.70907        42.70007  23517026.60125     56648.78025      -817.22525        30.50025
E07  24340932.12306    394667.36206     -2351.24106        41.10006  24340944.71525   1781675.10025     -1756.01225        33.10025
R08  19268389.47206-103233811.73906     -2150.27906        38.50006
C09  39222215.42506     54945.77306     -1285.97906        35.80006                                                                
C21  22380600.33326    -30039.17126     -2902.67526        36.20026  22380602.43124    -14987.69924     -2183.03224        23.80024
C07  38664082.81215     91082.73615      -520.25815        34.80015                                                                
C26  22050927.86025     51499.12625      -964.91925        33.20025                                                                
R12  22811746.55625-121908588.60225      1778.97725        34.20025
R10  21093807.46125-112494085.49825     -4200.37025        34.90025
C24  24483207.32825    139995.36525       915.90425        31.80025  24483173.75224   1695243.34424       685.51824        24.20024
C10  38598234.89825    439307.85225      -315.41325        31.80025                                                                
R07  22287135.23725-119357222.05725     -5121.11525        31.70025
R11  19609118.29025-104837534.30925     -1164.23425        30.90025
E21  25654299.19825   1451992.84625      1257.02625        32.10025  25654386.13824   1197985.64424       926.12324        26.60024
C14  24407822.71625    188533.39225      1355.46525        29.70025                                                                
R01  20668862.74424-110539285.74424      1815.42824        29.10024
E19  26278129.82923    251201.45223      1175.35223        21.80023                                                                
C35  26547940.64323   3364303.71823       983.43823        22.50023                                                                
> 2025 09 29 13 22 30.0000000  0 30                      
G07  22464657.64107    -86722.08807     -2587.71707        45.80007                                                                
G30  21016371.96807    -43473.89307     -1704.36607        44.50007  21016385.15925    -25049.21825     -1269.01325        34.50025
G14  20225843.54015     15492.87615      -505.11715        34.80015  20225859.72924     18908.55224      -380.28424        27.20024
G17  23622536.75825    162777.02425      1758.52125        33.60025                                                                
G22  20733768.11125   1883741.84125       401.43825        32.10025                                                                
G05  22277915.42025     -9192.74925     -1210.23125        32.00025                                                                
G13  22197928.69425    116504.02925      1575.72225        30.90025                                                                
G21  21566315.45025    825741.98925     -2864.69425        29.50025                                                                
G09  23251121.18424   -169242.98124     -4282.92124        26.30024  23251155.96024   3239253.56824     -3200.70424        27.10024
G08  24366870.46723   2046701.44823     -3117.85623        20.10023                                                                
E30  25656051.48507    -38348.80207     -3437.94907        45.50007  25656064.07605  -2110358.30105     -2567.12205        35.30005
E29  23784099.41107    115819.40307       -16.01907        44.50007  23784120.09605  -1995879.33205       -11.48005        33.70005
E27  23516989.42707     64435.75407     -1093.38907        43.00007  23516996.92225     55832.52925      -816.16025        30.00025
E07  24341141.67806    392316.53906     -2351.00206        41.10006  24341156.66825   1779919.64425     -1755.39225        32.80025
R08  19268554.05806-103235969.37006     -2150.60806        38.80006
C09  39222219.02326     53661.00326     -1284.52326        35.80026                                                                
C07  38663957.49925     90563.35125      -519.06125        35.20025                                                                
C21  22380922.90926    -32940.38626     -2900.80426        36.00026  22380926.80724    -17180.08224     -2196.73624        23.50024
C24  24482801.70915    140911.13515       915.20415        33.10015  24482740.25224   1695933.32924       690.77224        24.10024
C26  22050876.59615     50535.98415      -962.77815        33.30015                                                                
R12  22811153.56715-121906693.84015      1774.95915        34.00015
R10  21094364.17615-112498323.89215     -4201.34215        34.50015
C10  38598051.12525    438993.82925      -313.95725        31.90025                                                                
R07  22287869.72925-119362431.17225     -5119.33025        31.70025
R11  19609051.73625-104838451.81925     -1167.29125        30.80025
E21  25653874.09325   1453249.31825      1256.00825        31.60025  25653904.07224   1198918.45124       934.25724        28.20024
R01  20668270.95424-110537396.53424      1814.53524        29.10024
C14  24407347.24525    189886.83425      1352.25125        29.50025                                                                
C35  26547510.44123   3365292.81523       991.88823        22.50023                                                                
E19  26277660.35423    252382.76223      1183.68923        21.80023                                                                
> 2025 09 29 13 22 31.0000001  0 31                      
G07  22464945.44227    -89309.86227     -2587.74727        45.80027                                                                
G30  21016490.38607    -45177.45307     -1703.15307        44.40007  21016501.77925    -26320.54525     -1271.99425        34.30025
G14  20225724.82225     14988.73425      -504.35525        35.40025  20225740.71124     18529.69724      -377.89524        27.00024
G17  23621998.63115    164536.00915      1759.20215        33.90015                                                                
G22  20733466.52025   1884143.68625       402.44425        32.10025                                                                
G05  22277924.41425    -10400.39425     -1206.20125        31.90025                                                                
G13  22197449.62525    118084.13425      1582.09325        30.70025                                                                
G21  21566627.53425    822876.88625     -2864.32325        29.50025                                                                
G08  24367248.50523   2043587.08523     -3112.62423        20.10023                                                                
G09  23251738.15724   -173530.30224     -4288.49024        26.50024                                                                
E30  25656487.08407    -41786.43107     -3437.53607        45.40007  25656508.96825  -2112923.36525     -2564.01725        35.20025
E27  23516981.33307     63342.76007     -1092.90507        43.30007  23516997.52125     55016.13625      -816.46225        29.90025
E07  24341377.91506    389965.78906     -2350.71306        41.10006  24341394.10425   1778165.21425     -1753.91625        32.70025
R08  19268745.62506-103238109.38006     -2150.37806        39.10006
E29  23783910.24207    115803.67407       -15.55207        43.50007  23783915.03825  -1995891.27925       -12.04925        33.50025
C07  38663847.17625     90043.22325      -520.49925        35.20025                                                                
C09  39222257.39626     52377.77826     -1282.45226        35.70026                                                                
C21  22381312.93916    -35839.85416     -2898.59216        35.80016  22381277.86423    -19363.20523     -2178.49023        23.20023
C24  24482387.99525    141826.46225       915.10325        33.70025  24482364.91124   1696621.89524       687.85524        23.80024
R10  21094958.36425-112502600.42425     -4199.16625        34.30025
R12  22810617.53815-121904941.24215      1776.52515        33.80015
C10  38597914.72025    438682.91425      -309.36125        31.90025                                                                
R07  22288594.02725-119367421.99925     -5118.05225        31.70025
R11  19609041.24325-104839507.72625     -1160.96225        31.00025
E21  25653439.69325   1454506.85725      1258.07325        31.30025  25653454.38324   1199861.98724       948.90024        27.60024
C14  24406871.77424    191243.57824      1358.39424        29.40024                                                                
R01  20667751.71324-110535733.72324      1824.83424        28.90024
C29  26375337.83423   4600767.53323        84.62223        22.40023                                                                
C35  26547121.91023   3366285.93223       995.12623        22.40023                                                                
E19  26277228.95323    253569.65023      1189.67523        21.70023                                                                
C26  22050857.40925     49571.71725      -964.82925        33.30025                                                                
> 2025 09 29 13 22 32.0000001  0 31                      
G07  22465195.16917    -91901.03317     -2592.86817        45.70017                                                                
G30  21016573.42907    -46884.22407     -1708.37407        44.20007  21016586.02025    -27595.63125     -1276.96525        34.70025
G14  20225594.11326     14482.96926      -506.57626        35.60026  20225599.80924     18147.87124      -383.31124        26.40024
G09  23252322.75225   -177821.17025     -4292.63825        31.60025                                                                
G17  23621433.52205    166291.88005      1754.31405        34.30005                                                                
G22  20733187.71325   1884540.90825       394.91125        32.00025                                                                
G05  22277913.32225    -11611.77825     -1213.25325        31.80025                                                                
G21  21566939.01925    820006.02125     -2873.74425        30.00025                                                                
G13  22196892.31125    119663.05625      1578.32925        30.60025                                                                
G08  24367603.75923   2040471.94623     -3115.52623        20.10023                                                                
E30  25656905.89407    -45227.62407     -3442.97207        45.20007  25656925.08025  -2115491.95025     -2570.34425        34.80025
E27  23516949.55507     62246.14007     -1098.43407        43.50007  23516965.44425     54196.72425      -820.92125        29.60025
E07  24341589.86806    387611.76306     -2355.66206        41.00006  24341603.35925   1776406.75325     -1760.47525        32.30025
R08  19268918.60506-103240310.68906     -2155.93206        39.40006
E29  23783665.61107    115784.65007       -20.67007        42.50007  23783682.09925  -1995905.55025       -15.43325        33.20025
C07  38663715.26716     89521.54716      -522.45016        35.70016                                                                
C09  39222266.99016     51090.24516     -1289.68616        35.60016                                                                
C21  22381619.02826    -38744.22926     -2906.82726        35.60026  22381594.44523    -21548.41423     -2186.25123        22.90023
C24  24481940.40525    142740.87525       913.95625        34.30025  24481958.39323   1697305.81723       681.60023        23.30023
C26  22050797.15125     48606.60925      -965.52825        33.30025                                                                
R10  21095501.58825-112506765.60325     -4202.62325        34.10025
R12  22810061.42325-121903242.15125      1773.99125        33.60025
C10  38597733.64525    438366.70225      -318.86025        32.20025                                                                
R07  22289330.61825-119372638.77925     -5125.91525        31.90025
R11  19609048.43825-104840818.24625     -1171.86825        31.00025
E21  25652969.61925   1455761.54625      1253.26125        31.00025  25652978.31324   1200803.82524       940.98824        27.00024
C14  24406375.91824    192598.29724      1353.70524        29.20024                                                                
R01  20667163.52024-110533861.34024      1820.82524        28.80024
C29  26375094.10223   4600845.57523        78.04223        23.20023                                                                
C35  26546677.01823   3367278.24823       991.91423        22.30023                                                                
E19  26276748.98523    254759.54423      1191.39623        21.60023                                                                
> 2025 09 29 13 22 33.0000000  0 31                      
G07  22465434.70327    -94493.70427     -2593.41927        45.70027                                                                
G30  21016649.57627    -48592.78627     -1709.45727        44.00027  21016663.66715    -28870.68115     -1275.03115        34.50015
G14  20225443.61726     13976.14826      -507.34826        35.80026  20225455.30924     17762.73024      -386.79724        26.30024
G17  23620846.82805    168046.74005      1754.35205        34.50005                                                                
G09  23252886.36225   -182116.21625     -4297.13225        33.80025  23252908.24724   3605001.35424     -3204.29924        26.60024
G22  20732842.65225   1884936.50825       394.78925        31.90025                                                                
G05  22277913.92125    -12826.37825     -1216.20825        31.70025                                                                
G21  21567241.21025    817132.85825     -2874.30925        30.00025                                                                
G13  22196376.06925    121239.35325      1574.98425        30.40025                                                                
G08  24367963.21023   2037354.16123     -3119.10623        20.10023                                                                
E30  25657319.30707    -48669.56507     -3441.56407        45.10007  25657336.39625  -2118064.83425     -2575.03225        34.60025
E27  23516910.58207     61148.49807     -1098.15207        43.50007  23516926.47125     53378.19425      -818.08825        29.50025
E07  24341772.74106    385256.57306     -2355.77006        41.00006  24341798.82325   1774645.53025     -1762.60325        32.10025
R08  19269064.90406-103242431.54406     -2156.76906        39.60006
C07  38663553.37906     88996.70406      -526.42506        36.10006                                                                
E29  23783417.98217    115764.69517       -21.17117        41.50017  23783437.16925  -1995920.49725       -15.28525        32.90025
C09  39222266.09016     49801.69616     -1289.05716        35.60016                                                                
C21  22381904.73026    -41650.27026     -2906.87326        35.50026  22381908.32723    -23734.11923     -2185.95223        22.60023
C24  24481530.28925    143651.35125       908.50725        34.30025  24481534.48623   1697993.41223       689.43023        22.80023
C10  38597541.17815    438049.28415      -318.02115        32.80015                                                                
R12  22809462.13815-121901374.90715      1770.16615        33.50015
C26  22050743.18825     47640.79325      -966.16925        33.20025                                                                
R10  21096020.82925-112510864.42325     -4208.01125        33.80025
R07  22290016.54325-119377646.45725     -5125.23125        31.90025
R11  19609006.16825-104841926.14425     -1171.84725        30.90025
E21  25652445.28225   1457010.49225      1246.07425        30.70025  25652494.74724   1201741.93924       936.25224        26.70024
C14  24405889.35424    193950.86824      1351.49724        29.00024                                                                
R01  20666562.73624-110531985.13724      1808.75124        28.60024
C29  26374820.99124   4600917.89124        69.45324        23.70024                                                                
C35  26546243.51823   3368267.70423       988.02723        22.10023                                                                
E19  26276271.41623    255949.59623      1190.13123        21.50023                                                                
> 2025 09 29 13 22 34.0000001  0 31                      
G07  22465730.89817    -97086.66717     -2593.10717        45.60017                                                                
G30  21016767.39517    -50302.93317     -1710.93917        43.90017  21016779.08705    -30147.81805     -1278.17905        34.20005
G14  20225322.20126     13468.62426      -507.87526        35.80026  20225348.28324     17374.97824      -389.05824        26.10024
G17  23620289.81405    169798.37505      1750.02205        34.60005                                                                
G09  23253482.04925   -186411.10525     -4294.80525        33.60025  23253509.93024   3601794.70424     -3206.64724        29.10024
G22  20732569.84125   1885331.01225       393.95525        31.90025                                                                
G05  22277944.50025    -14042.02625     -1216.17025        31.60025                                                                
G21  21567589.56825    814259.99525     -2872.71125        30.10025                                                                
G13  22195846.63525    122811.55725      1570.15725        30.30025                                                                
G08  24368345.74523   2034232.94823     -3122.92323        20.00023                                                                
E27  23516920.77507     60047.74307     -1102.31007        43.70007  23516930.06825     52557.08225      -822.40325        29.50025
R07  22290759.12915-119382736.85815     -5128.13415        33.40015
E07  24342019.47106    382898.55506     -2359.43006        41.00006  24342041.35525   1772885.23025     -1759.83725        32.10025
R08  19269264.26606-103244612.16606     -2161.32306        40.00006
E30  25657759.40327    -52115.15227     -3447.65727        44.30027  25657778.88925  -2120636.98125     -2571.77725        33.80025
C07  38663454.44706     88470.02006      -527.60506        36.30006                                                                
C09  39222307.76106     48510.62806     -1292.32606        35.60006                                                                
E29  23783219.52026    115741.96826       -23.86226        40.60026  23783229.71325  -1995937.36725       -17.83225        31.50025
C21  22382253.68825    -44561.52825     -2913.86325        35.40025  22382263.28223    -25918.15923     -2183.20523        22.30023
C10  38597389.48305    437729.01905      -321.68705        34.00005                                                                
R12  22808934.80315-121899670.46715      1767.83415        33.40015
C26  22050734.19415     46670.46915      -972.57615        33.10015  22050713.50921   3318879.21621      -725.04321        12.40021
R10  21096607.82225-112515101.29425     -4205.16925        33.60025
R11  19609012.76325-104843073.80325     -1170.42525        30.80025
E21  25652027.07125   1458257.19625      1245.58325        30.40025  25652049.85524   1202678.92924       936.42724        26.30024
R01  20666006.62124-110530124.22824      1799.64824        28.40024
C14  24405419.87924    195299.87024      1347.21624        28.80024                                                                
E19  26275836.11723    257138.01523      1187.60023        21.50023                                                                
C29  26374588.35224   4600987.80624        68.71524        24.10024                                                                
C35  26545829.80423   3369256.90623       989.07423        22.00023                                                                
C24  24481179.23215    144559.92215       907.61815        34.20015  24481147.75423   1698685.07923       693.70323        22.40023
> 2025 09 29 13 22 34.9999998  0 31                      
G07  22465889.18907    -99681.04107     -2595.07807        45.50007                                                                
G30  21016761.99807    -52012.62007     -1709.45507        43.70007  21016774.59025    -31424.46225     -1276.39725        33.70025
G14  20225100.95426     12958.73626      -511.07026        35.70026  20225111.74624     16988.89624      -385.24724        25.90024
G17  23619650.35625    171549.93725      1751.52425        34.60025                                                                
G09  23253974.30925   -190704.97125     -4293.35325        33.40025  23254001.29024   3598586.43824     -3209.07324        28.60024
G22  20732142.33725   1885724.14825       392.45325        31.90025                                                                
G05  22277844.36925    -15259.74625     -1218.75725        31.50025                                                                
G21  21567778.13825    811381.60725     -2881.14825        30.10025                                                                
G13  22195209.87625    124383.21425      1571.38325        30.10025                                                                
G08  24368613.46023   2031111.67023     -3121.30923        19.90023                                                                
E27  23516797.56007     58946.74607     -1101.11707        43.90007  23516811.35024     51733.46824      -824.86424        29.30024
E07  24342145.98306    380540.55806     -2357.98506        41.10006  24342162.77125   1771124.93325     -1760.29525        32.00025
R08  19269341.31306-103246782.05506     -2160.09106        40.40006
R07  22291392.29006-119387880.86806     -5127.45506        39.10006
C09  39222224.71906     47220.22206     -1290.07406        36.10006                                                                
C07  38663206.81916     87942.75316      -527.55916        36.40016                                                                
E30  25658089.77427    -55560.69227     -3445.51327        43.10027  25658111.95925  -2123210.26325     -2573.84625        33.60025
E29  23782896.34316    115718.13716       -24.38416        39.70016  23782904.73825  -1995951.18825       -12.29525        30.60025
C21  22382492.32325    -47473.55025     -2912.40325        35.20025  22382488.12623    -28105.43923     -2188.89823        22.10023
C10  38597125.06615    437408.86415      -320.10015        34.10015                                                                
R12  22808264.76705-121897842.96405      1767.59205        33.40005
C26  22050575.00505     45700.37905      -969.97305        32.90005  22050575.90422   3318163.45322      -711.12222        13.30022
R10  21097060.80925-112519265.70725     -4206.93025        33.30025
R11  19608908.43525-104844268.86625     -1173.98525        30.80025
E21  25651457.16625   1459508.32125      1253.33325        30.20025  25651482.64824   1203615.53524       936.41424        25.90024
R01  20665373.16024-110528491.24724      1806.06724        28.30024
C14  24404814.29924    196645.66924      1344.19624        28.60024                                                                
C29  26374261.57924   4601057.05224        68.91024        24.10024                                                                
E19  26275295.29223    258325.25323      1186.64723        21.50023                                                                
C35  26545305.46723   3370247.71623       991.61323        21.80023                                                                
C24  24480702.56225    145469.31725       909.80625        34.10025  24480637.80723   1699379.01023       695.06323        22.10023
> 2025 09 29 13 22 35.9999999  0 31                      
G07  22466174.59107   -102271.82307     -2588.98407        45.40007                                                                
G30  21016878.01807    -53720.28607     -1706.65407        43.50007  21016895.10625    -32698.87125     -1273.29025        33.60025
G14  20224982.83626     12449.04926      -509.58726        35.60026  20225002.92224     16606.04424      -381.23624        25.60024
G17  23619103.83525    173309.37725      1763.37825        34.60025                                                                
G22  20731877.92025   1886118.81225       395.42725        32.00025                                                                
G05  22277866.55425    -16474.69125     -1213.55525        31.40025                                                                
G21  21568133.09225    808509.11725     -2869.53925        30.00025                                                                
G13  22194714.31925    125956.63025      1574.29325        30.00025                                                                
G08  24369005.58823   2027990.65023     -3120.88823        19.90023                                                                
G09  23254587.98425   -194998.94825     -4294.02725        33.20025  23254611.06824   3595387.74324     -3193.90624        27.90024
E27  23516780.77107     57848.10007     -1097.47007        43.90007  23516812.25025     50911.47125      -821.18725        29.80025
E07  24342393.91116    378185.21616     -2353.26316        41.20016  24342405.00425   1769365.75825     -1758.61325        32.00025
R08  19269531.68106-103248916.70006     -2156.81606        40.70006
C09  39222262.49306     45932.46906     -1286.42506        37.00006                                                                
C07  38663111.18526     87418.19726      -523.20026        36.50026                                                                
R07  22292131.87806-119392955.94606     -5123.45806        38.70006
E29  23782693.38406    115697.94106       -18.37806        39.00006  23782704.47625  -1995965.20425       -14.11525        30.50025
E30  25658549.65627    -59001.40627     -3439.04927        41.90027  25658558.94925  -2125780.74625     -2569.08225        33.40025
C10  38596979.06705    437091.60305      -315.81505        34.60005                                                                
C21  22382837.38415    -50381.43315     -2905.81015        35.10015  22382840.98223    -30297.08623     -2193.82823        21.80023
R12  22807749.12405-121896200.42705      1772.62605        34.10005
C24  24480309.23525    146381.72625       913.91625        34.00025  24480262.76723   1700072.86923       693.82123        21.80023
C26  22050564.51225     44731.93025      -967.62925        32.80025  22050569.30922   3317432.47422      -738.58722        13.30022
R10  21097639.10825-112523457.57125     -4198.83325        33.10025
R11  19608938.41425-104845541.91125     -1171.65325        30.70025
C14  24404332.83224    197996.77224      1353.75524        28.40024                                                                
R01  20664844.62624-110526780.25024      1811.74324        28.20024
E19  26274855.49623    259512.59323      1187.39123        21.50023                                                                
C35  26544904.64523   3371239.37523       992.08323        21.60023                                                                
C29  26374078.40524   4601127.30724        70.76024        24.00024                                                                
E21  25650989.48925   1460762.85825      1256.24225        30.00025  25651033.55924   1204560.60824       949.30524        25.50024
> 2025 09 29 13 22 36.9999998  0 31                      
G07  22466421.32007   -104863.10907     -2591.53707        45.30007                                                                
G30  21016958.66227    -55428.18027     -1708.00727        43.40027  21016967.35625    -33974.19925     -1275.78825        33.60025
G14  20224838.63616     11937.72216      -512.14616        35.50016  20224854.82424     16223.34624      -382.62124        25.50024
G17  23618522.23715    175064.60915      1753.12715        34.50015                                                                
G09  23255167.18325   -199291.05925     -4291.17725        33.00025  23255180.97324   3592175.38624     -3219.18724        27.30024
G22  20731539.15425   1886512.75625       393.58325        32.00025                                                                
G05  22277828.78025    -17691.70725     -1218.05225        31.30025                                                                
G21  21568422.69225    805635.37125     -2874.37225        30.00025  21568429.88723   3531806.69523     -2146.44023        20.20023
G13  22194160.90225    127530.66925      1574.35025        29.80025                                                                
G08  24369332.66223   2024866.94123     -3125.05223        19.80023                                                                
E27  23516736.10207     56748.69707     -1099.78007        43.90007  23516771.77825     50089.86725      -821.40825        29.70025
E07  24342589.37606    375828.97406     -2356.94006        41.40006  24342604.66525   1767605.46125     -1760.85625        32.60025
R08  19269689.67106-103251100.38506     -2159.70306        41.00006
R12  22807178.61906-121894487.57906      1771.56206        39.10006
C09  39222261.29406     44644.19006     -1288.54206        37.40006                                                                
C07  38662959.19016     86892.57516      -526.15416        37.20016                                                                
R07  22292848.38206-119398128.30006     -5126.31106        38.20006
E29  23782443.05706    115677.34406       -20.79706        38.50006  23782458.94625  -1995979.71125       -14.75125        30.50025
C10  38596797.09305    436773.53105      -318.47705        35.00005                                                                
C21  22383144.07225    -53292.84225     -2913.17125        35.00025  22383149.46823    -32493.47423     -2198.75723        21.70023
E30  25658947.78026    -62441.66826     -3439.78326        40.80026  25658961.27125  -2128353.75425     -2574.27025        31.80025
C26  22050493.76125     43764.98225      -966.19625        32.70025  22050520.14322   3316674.08022      -772.10122        13.50022
R10  21098177.53625-112527659.36325     -4204.77425        32.90025
R11  19608873.65925-104846530.54025     -1171.32825        30.60025
C24  24479870.93825    147288.01725       903.23125        33.80025  24479840.95923   1700763.70623       689.32623        21.50023
E21  25650511.62025   1462018.43325      1256.09425        29.80025  25650540.70024   1205502.87824       940.86824        25.10024
C14  24403834.27724    199345.28224      1347.21224        28.30024                                                                
R01  20664235.14824-110524855.86024      1805.79524        28.00024
C29  26373801.99724   4601199.65124        73.38924        23.90024                                                                
E19  26274401.01123    260697.81023      1184.15323        21.50023                                                                
C35  26544457.05523   3372233.73023       995.70323        21.40023                                                                
> 2025 09 29 13 22 37.9999999  0 31                      
G07  22466707.02207   -107455.52907     -2592.98407        45.20007                                                                
G30  21017080.97817    -57138.03317     -1710.83117        43.30017  21017086.07425    -35248.83025     -1274.28025        33.60025
G17  23617973.31705    176817.83105      1752.21505        34.50005                                                                
G09  23255783.55625   -203586.38525     -4296.92825        32.90025  23255802.44324   3588968.01524     -3204.87524        26.80024
G22  20731264.84425   1886899.89425       383.73525        32.00025                                                                
G05  22277848.56625    -18909.03725     -1217.48625        31.30025                                                                
G21  21568773.14925    802760.06125     -2876.08925        30.00025  21568771.95023   3529660.03923     -2146.76223        20.20023
G13  22193646.75825    129101.54725      1569.29725        29.70025                                                                
G08  24369725.69023   2021739.48523     -3129.32623        19.80023                                                                
G14  20224727.71205     11426.47905      -511.20105        35.40005  20224745.10024     15841.20924      -381.85724        25.40024
E27  23516735.50307     55647.45807     -1102.15707        43.90007  23516775.67525     49267.05625      -823.41325        29.70025
E07  24342832.50807    373471.08707     -2358.70707        41.50007  24342841.80116   1765844.95216     -1760.61416        35.60016
R08  19269884.53706-103253257.25106     -2162.65406        41.00006
C09  39222295.77006     43354.57206     -1290.28706        37.50006                                                                
C07  38662854.56306     86365.33106      -528.05506        37.40006                                                                
R12  22806632.69726-121892683.00626      1769.23826        38.90026
R07  22293606.85706-119403301.41906     -5128.38706        37.90006
E29  23782239.19816    115654.97716       -23.25316        38.00016  23782254.78825  -1995996.45325       -17.86025        30.40025
C10  38596642.10105    436453.80705      -320.55005        35.30005                                                                
E30  25659409.46026    -65886.48926     -3447.09826        39.70026  25659415.45625  -2130924.12525     -2569.05025        31.60025
C26  22050470.67725     42796.35525      -969.46525        32.60025  22050467.97922   3315941.42522      -719.78522        14.70022
R10  21098792.71025-112532048.01225     -4204.49125        32.70025
R11  19608904.23825-104847805.88225     -1178.61425        30.50025
C24  24479454.82625    148190.58125       900.69925        32.80025  24479457.82423   1701446.83923       679.28123        21.30023
E21  25650083.51725   1463269.78025      1249.23125        29.60025  25650094.30924   1206437.55724       930.88224        24.80024
C14  24403369.59924    200691.79524      1345.51224        28.10024                                                                
R01  20663656.24824-110522874.86724      1806.74524        27.80024
C29  26373573.85524   4601275.20624        77.16224        23.80024                                                                
E19  26273938.43123    261876.57623      1175.54023        21.50023                                                                
C35  26544095.50523   3373227.15823       992.96323        21.30023                                                                
C21  22383510.71815    -56203.21415     -2909.85115        35.00015  22383503.22323    -34687.22523     -2192.43123        21.50023
> 2025 09 29 13 22 38.9999999  0 31                      
G07  22466965.44307   -110049.12307     -2594.17907        45.20007                                                                
G30  21017162.52107    -58848.48107     -1710.74507        43.20007  21017173.31415    -36526.31315     -1278.90915        34.10015
G14  20224585.31125     10915.37625      -511.03125        35.40025  20224599.40124     15455.17024      -387.98924        25.40024
G17  23617410.30715    178570.73015      1752.73715        34.40015                                                                
G09  23256348.66525   -207881.98525     -4295.73625        32.80025  23256370.25024   3585762.80724     -3204.12424        28.80024
G22  20730941.96825   1887288.80425       389.79625        31.90025                                                                
G05  22277862.05725    -20130.42825     -1223.41925        31.20025                                                                
G21  21569070.24325    799883.99925     -2876.43725        30.20025  21569090.32923   3527510.67823     -2150.71123        20.50023
G08  24370096.83323   2018608.27823     -3133.08123        19.70023                                                                
G13  22193113.72725    130675.70225      1575.79225        29.60025                                                                
E27  23516728.30807     54545.06207     -1102.97307        43.80007  23516748.69425     48446.61425      -819.25725        29.60025
E07  24343032.17007    371112.03607     -2359.63207        41.50007  24343054.95405   1764083.03405     -1762.62105        35.20005
R08  19270057.51716-103255458.55816     -2163.20016        41.00016
C07  38662721.15526     85839.58026      -525.00426        37.40026                                                                
C09  39222306.26206     42064.11506     -1290.87406        37.50006                                                                
R12  22806097.56716-121891095.50716      1765.23816        38.60016
E29  23782002.96206    115631.76906       -23.62806        37.70006  23782019.15125  -1996009.62925       -11.39425        29.60025
R07  22294332.35526-119408459.98326     -5126.28326        37.70026
C10  38596464.92325    436134.50225      -319.09625        35.40025                                                                
C21  22383820.70325    -59114.41625     -2911.61525        34.90025  22383829.09823    -36877.07923     -2187.90223        21.40023
C26  22050412.21725     41827.19025      -969.43525        32.40025  22050411.01822   3315204.60922      -738.89622        15.00022
R10  21099322.74325-112536142.25625     -4206.15125        32.40025
C24  24479038.11525    149100.10025       912.99725        32.30025  24479033.91723   1702131.30323       685.12923        20.90023
R11  19608882.05325-104848959.65325     -1167.77625        30.40025
E30  25659814.48026    -69332.29826     -3446.30026        38.20026  25659834.86625  -2133497.97225     -2575.58325        31.40025
E21  25649608.34624   1464520.49024      1250.39124        29.40024  25649619.73824   1207368.23024       928.67024        24.40024
C14  24402844.36224    202041.52024      1351.33024        27.90024                                                                
R01  20663029.98224-110520798.26624      1807.65124        27.60024
C29  26373277.66024   4601354.86224        81.70524        23.60024                                                                
C35  26543668.00123   3374220.13923       992.75623        21.20023                                                                
E19  26273455.76523    263053.59623      1176.14623        21.50023                                                                
> 2025 09 29 13 22 39.9999998  0 31                      
G07  22467201.08007   -112641.04707     -2591.08807        45.10007                                                                
G14  20224428.22015     10404.41615      -510.88915        35.30015  20224448.90524     15069.10424      -386.08024        25.20024
G17  23616820.61505    180325.20305      1755.25905        34.40005                                                                
G09  23256922.76725   -212175.94525     -4293.13625        32.70025  23256922.46824   3582560.90224     -3200.25224        28.30024
G22  20730631.98225   1887677.33425       388.34025        31.90025                                                                
G05  22277835.67525    -21353.66925     -1224.16625        31.10025                                                                
G21  21569363.74025    797005.88025     -2879.14625        30.20025  21569392.82023   3525356.38323     -2156.76123        20.50023
G13  22192562.40925    132250.68225      1575.39125        29.50025                                                                
G08  24370428.10423   2015476.13923     -3132.60223        19.60023                                                                
G30  21017237.76907    -60556.47607     -1706.76607        43.00007  21017248.56225    -37801.49725     -1274.03325        34.10025
E27  23516684.83807     53444.54307     -1099.58007        43.70007  23516707.32225     47627.14825      -818.97725        29.50025
E07  24343233.33006    368754.98606     -2356.04806        41.40006  24343253.11716   1762322.96916     -1759.13816        35.90016
R08  19270215.20806-103257639.94006     -2160.89106        41.00006
C07  38662564.36426     85313.19026      -526.70926        37.40026                                                                
R12  22805463.50626-121889042.52626      1771.36426        38.30026
C09  39222332.34426     40778.93326     -1282.54426        37.30026                                                                
E29  23781758.33106    115610.54006       -20.23906        37.50006  23781774.22025  -1996024.78525       -16.14425        29.60025
C10  38596276.65416    435816.11416      -317.92816        35.50016                                                                
R07  22295031.47116-119413538.89216     -5127.10416        37.30016
C21  22384146.57825    -62025.62125     -2911.20525        34.80025  22384138.78323    -39066.73623     -2189.55823        21.40023
C26  22050361.85225     40857.47425      -969.99125        32.30025  22050366.04922   3314482.08922      -715.37122        16.60022
R10  21099847.67925-112540270.82025     -4200.18525        32.20025
C24  24478611.81025    150013.10725       914.75025        31.90025  24478620.20423   1702823.30123       695.76423        20.70023
R11  19608858.96925-104850170.00825     -1171.11025        30.30025
E30  25660226.99526    -72774.58526     -3440.52426        36.80026  25660235.38925  -2136067.42125     -2567.24925        30.30025
C14  24402316.42824    203394.05324      1353.93724        27.90024                                                                
R01  20662504.74624-110519326.67424      1801.73924        27.40024
C29  26373036.32724   4601435.41824        81.00624        23.50024                                                                
E19  26273012.07223    264230.44723      1176.76523        21.50023                                                                
C35  26543236.30023   3375216.40823       997.91423        21.00023                                                                
E21  25649116.98624   1465771.10524      1250.56724        29.20024  25649135.57324   1208297.16624       928.06724        24.10024
> 2025 09 29 13 22 40.9999999  0 31                      
G07  22467490.08007   -115227.43607     -2583.61907        45.00007                                                                
G14  20224305.30505      9897.89605      -504.29905        35.30005  20224328.38924     14686.83324      -380.37224        25.00024
G17  23616294.48005    182083.49505      1760.20005        34.30005                                                                
G09  23257531.04615   -216464.53815     -4285.90615        32.70015  23257532.54524   3579361.89224     -3197.55924        27.60024
G22  20730327.09325   1888071.38325       396.80825        31.80025                                                                
G05  22277865.95425    -22568.97925     -1211.34325        31.00025                                                                
G21  21569700.40725    794132.28725     -2871.32725        30.10025  21569727.68823   3523205.79723     -2148.72923        20.40023
G13  22192030.87724    133830.60524      1582.39424        29.40024                                                                
G08  24370838.22023   2012346.78223     -3127.96323        19.60023                                                                
G30  21017353.18907    -62260.56207     -1702.13107        42.90007  21017363.38225    -39073.88025     -1270.98225        35.00025
E07  24343469.86606    366403.34506     -2348.93306        41.40006  24343493.25026   1760566.85126     -1754.14326        35.50026
R08  19270405.57606-103259774.58606     -2155.81706        40.90006
E27  23516681.84007     52347.99707     -1094.55807        43.40007  23516710.62024     46808.43324      -818.33924        29.40024
R12  22804996.13016-121887657.56716      1776.38616        38.10016
C07  38662459.43616     84792.11016      -518.42516        37.30016                                                                
E29  23781567.36406    115593.45506       -15.01406        37.40006  23781570.06225  -1996033.88825        -6.07725        29.60025
C10  38596136.65126    435503.16426      -310.23226        35.70026                                                                
R07  22295778.85326-119418653.79926     -5119.53626        37.00026
C21  22384488.64115    -64930.28915     -2901.39715        34.80015  22384492.53823    -41251.45223     -2182.24423        21.30023
C26  22050333.07225     39894.13525      -960.14925        32.20025  22050348.36122   3313753.27122      -731.96622        17.10022
R10  21100413.08825-112544394.04325     -4196.29525        32.00025
R11  19608847.27825-104851219.03225     -1164.94025        30.20025
C24  24478226.57625    150926.53425       913.63625        31.60025  24478230.77323   1703522.66223       703.04223        20.60023
E21  25648653.80624   1467028.55624      1260.86924        29.00024  25648686.18424   1209232.81824       939.00924        23.80024
E30  25660671.88726    -76207.20126     -3427.77726        35.60026  25660688.07525  -2138632.51025     -2562.90625        30.00025
C09  39222353.63026     39501.19526     -1274.01626        36.10026                                                                
C14  24401846.65324    204751.42424      1359.78824        27.80024                                                                
R01  20662003.19324-110517757.17724      1813.52324        27.10024
C29  26372806.08623   4601520.82923        87.83823        23.40023                                                                
E19  26272580.97123    265413.69523      1186.44623        21.40023                                                                
C35  26542818.68923   3376219.83323      1007.00123        20.90023                                                                
> 2025 09 29 13 22 41.9999999  0 30                      
G07  22467751.79907   -117815.97507     -2589.61207        44.80007                                                                
G30  21017440.72907    -63965.57307     -1705.47207        42.80007  21017450.62215    -40347.23015     -1273.83115        34.90015
G14  20224186.58705      9388.23205      -511.23605        35.20005  20224191.38424     14307.11424      -378.44324        25.00024
G17  23615729.97025    183837.83625      1752.36625        34.20025                                                                
G09  23258104.84925   -220757.11825     -4294.57125        33.00025  23258121.33824   3576158.10024     -3206.18124        27.30024
G22  20730024.00325   1888466.41625       395.52425        31.70025                                                                
G05  22277855.46225    -23781.43725     -1211.03225        30.90025                                                                
G21  21570013.39025    791259.08625     -2873.00225        30.00025  21570030.77823   3521058.98323     -2144.92623        20.40023
G13  22191483.75524    135413.36224      1584.17224        29.30024                                                                
G08  24371188.37723   2009216.92523     -3130.10523        19.60023                                                                
E07  24343683.01906    364050.41306     -2353.57706        41.40006  24343701.90625   1758809.79025     -1757.53125        35.20025
R08  19270566.86406-103261913.82806     -2159.93406        40.90006
E27  23516661.45407     51250.44407     -1098.05607        42.50007  23516678.24224     45988.79624      -820.09824        28.50024
R12  22804428.92206-121885901.14906      1770.67006        37.90006
C07  38662326.02926     84269.37626      -523.56026        37.20026                                                                
E29  23781327.23006    115574.51206       -19.12206        37.20006  23781336.52324  -1996044.15424       -10.84824        29.40024
C10  38595958.87426    435187.22826      -317.42926        35.70026                                                                
C21  22384811.81725    -67837.48525     -2908.45725        34.70025  22384811.81723    -43438.12523     -2187.64923        21.20023
R11  19608847.57725-104852495.14125     -1170.46825        30.20025
R10  21100957.81125-112548568.37425     -4201.53325        31.70025
C24  24477784.08325    151842.02025       916.51525        31.30025  24477813.16323   1704233.03323       715.87523        23.00023
C09  39222368.31925     38221.82125     -1280.19125        34.90025                                                                
E21  25648191.22724   1468285.30424      1256.39524        28.90024  25648200.82024   1210168.45824       935.63224        23.60024
E30  25661087.39925    -79644.74225     -3440.00125        34.40025  25661108.08525  -2141198.54425     -2566.50625        29.70025
C14  24401370.28324    206106.64524      1354.14524        27.70024                                                                
R01  20661421.59524-110515922.27224      1807.04224        26.90024
C29  26372552.46223   4601602.79323        80.24123        23.30023                                                                
E19  26272094.10823    266602.25723      1191.21823        21.40023                                                                
C35  26542374.99623   3377227.23323      1009.38823        20.70023                                                                
C26  22050277.61025     38926.76925      -969.37925        32.10025  22050282.10723   3313016.95923      -740.05823        22.30023
> 2025 09 29 13 22 42.9999999  0 31                      
G07  22468001.22607   -120405.50907     -2590.02907        44.70007                                                                
G30  21017524.67007    -65672.38807     -1707.71607        42.80007  21017538.46105    -41621.46505     -1274.67705        34.80005
G14  20224039.98825      8876.11925      -513.33725        35.20025  20224051.68024     13926.55324      -380.98224        25.10024
G09  23258693.64125   -225051.59225     -4295.41725        33.00025  23258704.43424   3572952.63824     -3206.29424        27.00024
G17  23615157.06725    185587.52425      1747.36025        33.70025                                                                
G22  20729708.02225   1888857.71725       389.43625        31.60025                                                                
G05  22277851.86425    -25000.20525     -1221.92325        30.80025                                                                
G21  21570311.38425    788383.79725     -2876.33125        30.00025  21570340.76423   3518913.62023     -2144.63623        20.30023
G13  22190947.42724    136990.68724      1574.60924        29.30024                                                                
G08  24371587.10123   2006083.57323     -3135.09823        19.60023                                                                
E07  24343897.67026    361696.00126     -2355.90026        41.40026  24343910.86125   1757054.46025     -1754.46225        34.60025
R08  19270737.14606-103264101.34306     -2161.55306        40.80006
E27  23516631.77507     50150.86107     -1099.84707        41.90007  23516647.36424     45166.19824      -824.07824        28.40024
R12  22803874.30626-121884209.70026      1769.97526        37.70026
C07  38662189.92326     83746.98226      -522.22326        37.10026                                                                
E29  23781077.50306    115553.92306       -21.66206        37.00006  23781104.48424  -1996061.81924       -21.36424        29.20024
C10  38595780.19716    434871.65116      -315.39716        35.70016                                                                
C21  22385118.50525    -70745.76825     -2908.82525        34.60025  22385137.99123    -45628.89123     -2192.81223        21.10023
C26  22050218.85125     37958.95925      -968.03025        32.70025  22050228.74423   3312292.09223      -719.14523        21.80023
C09  39222362.32425     36934.28725     -1291.61225        34.10025                                                                
R11  19608815.50025-104853596.16025     -1172.86125        30.50025
C24  24477386.55825    152755.29625       912.16925        31.10025  24477413.23923   1704932.00523       693.27323        22.60023
R07  22297210.06325-119428864.46525     -5125.26925        33.00025
E21  25647714.55724   1469541.78024      1256.34024        28.80024  25647729.84623   1211099.68023       929.01323        23.30023
E30  25661501.41225    -83086.59625     -3444.00925        33.50025  25661521.79824  -2143771.36624     -2576.21324        29.40024
C22  25579053.39024   5896449.80524     -4562.33124        27.30024                                                                
C14  24400915.49824    207459.20324      1351.22624        27.70024                                                                
R01  20660840.59824-110514089.66224      1807.28524        26.70024
C29  26372290.74323   4601679.72223        74.41123        23.20023                                                                
E19  26271603.04823    267790.04823      1187.40523        21.40023                                                                
C35  26541940.59723   3378227.54623       996.76823        20.50023                                                                
> 2025 09 29 13 22 43.9999999  0 31                      
G07  22468275.83607   -122997.37707     -2593.03307        44.50007                                                                
G30  21017631.69617    -67380.50617     -1708.76717        42.60017  21017643.08815    -42897.74215     -1277.29715        33.90015
G14  20223920.07125      8361.63125      -515.67525        35.10025  20223930.26424     13545.04524      -381.98124        25.20024
G17  23614581.46525    187344.02025      1759.89925        33.50025                                                                
G22  20729417.22325   1889249.89125       392.61025        31.50025                                                                
G05  22277850.06525    -26222.51625     -1224.08125        30.70025                                                                
G21  21570655.24625    785504.55225     -2881.22025        29.90025  21570668.43723   3516766.80823     -2147.53523        20.10023
G13  22190426.68724    138567.53624      1576.61024        29.20024                                                                
G08  24371957.94523   2002946.46023     -3138.99023        19.50023                                                                
G09  23259286.33125   -229346.69125     -4295.40825        33.00025  23259308.51624   3569749.50924     -3201.96224        26.90024
E07  24344118.61716    359340.84416     -2355.27716        41.30016  24344138.40425   1755301.60925     -1751.61125        34.30025
R08  19270926.91526-103266293.45726     -2165.84926        40.70026
E27  23516619.48307     49049.11907     -1103.07107        41.60007  23516633.57324     44340.85724      -826.71224        27.70024
C07  38662077.20116     83222.92116      -524.89516        36.90016                                                                
E29  23780877.84126    115532.16126       -22.34826        36.90026  23780888.33424  -1996088.66924       -31.44324        28.90024
C10  38595625.80426    434556.66426      -314.69226        35.60026                                                                
C21  22385456.37125    -73655.94025     -2911.11425        34.60025  22385461.46823    -47814.83323     -2183.52823        21.00023
C26  22050184.97525     36989.02125      -971.00225        32.80025  22050187.67323   3311569.93123      -720.80723        21.30023
R12  22803325.68626-121882452.52126      1768.38826        37.10026
C09  39222396.50025     35647.02925     -1287.12025        33.70025                                                                
R07  22297958.04525-119434044.48125     -5127.79825        32.60025
R11  19608840.68225-104854903.61925     -1176.92925        30.70025
C24  24477004.62225    153667.13025       911.11225        31.00025  24476988.43424   1705617.54124       678.81824        23.50024
E30  25661933.11325    -86531.30225     -3446.12825        32.70025  25661955.59824  -2146343.21924     -2571.36824        29.00024
E21  25647221.99824   1470795.11824      1251.76824        28.70024  25647271.46323   1212028.84323       928.13323        23.00023
C14  24400453.51824    208811.09624      1351.55924        27.60024                                                                
R10  21102116.80924-112557186.27324     -4208.46124        28.20024
R01  20660295.57524-110512349.60424      1808.29424        26.40024
C29  26372059.90323   4601750.78523        68.13023        23.10023                                                                
E19  26271153.65923    268977.86223      1187.82423        21.40023                                                                
C35  26541531.08023   3379217.38523       984.60123        20.20023                                                                
> 2025 09 29 13 22 44.9999999  0 30                      
G07  22468528.56107   -125585.77007     -2586.65407        44.40007                                                                
G30  21017714.73907    -69086.46207     -1704.87507        42.50007  21017730.62815    -44171.37315     -1272.30715        34.30015
G14  20223778.27025      7848.76225      -512.06025        35.00025  20223792.36024     13165.94124      -377.90224        25.20024
G17  23614013.35925    189100.44625      1756.38925        33.30025                                                                
G22  20729110.83525   1889641.50425       391.33225        31.50025                                                                
G05  22277852.46425    -27441.79625     -1217.76425        30.60025                                                                
G13  22189881.66524    140145.86424      1579.06624        29.20024                                                                
G08  24372312.29923   1999808.35623     -3138.59823        19.40023                                                                
G21  21570963.43325    782630.93825     -2870.79625        29.90025  21570978.12323   3514624.20923     -2140.49123        20.00023
G09  23259861.33325   -233636.18425     -4286.68725        34.80025  23259866.43024   3566544.32824     -3206.20324        29.40024
E27  23516587.40506     47949.90706     -1097.94706        41.40006  23516610.48924     43520.04424      -818.54924        27.60024
E07  24344339.26506    356987.30506     -2352.72906        41.20006  24344351.55625   1753542.37125     -1762.43025        34.00025
R08  19271080.10916-103268389.02416     -2160.29616        40.70016
C10  38595457.92025    434241.23125      -315.65525        35.40025                                                                
C21  22385793.03825    -76564.03025     -2907.04725        34.50025  22385784.04423    -50002.84223     -2189.04023        21.00023
R07  22298672.45025-119439143.30125     -5123.91925        32.90025
C26  22050137.30815     36020.73815      -967.45515        33.20015  22050139.10623   3310843.20623      -729.00723        20.90023
R12  22802721.00526-121880493.55126      1773.89326        36.50026
C09  39222401.59625     34363.84125     -1281.15225        33.50025                                                                
R11  19608813.70125-104856032.15925     -1172.56125        30.90025
C24  24476559.13125    154579.49325       912.62825        30.90025  24476569.32424   1706302.19224       684.20824        24.40024
E30  25662349.52525    -89973.04325     -3440.25725        32.00025  25662370.81024  -2148920.82024     -2580.47324        28.50024
E21  25646701.85824   1472047.56724      1252.00324        28.60024                                                                
C07  38661935.99926     82702.47926      -518.63226        36.60026                                                                
C14  24399960.65924    210165.95524      1356.34224        27.50024                                                                
R10  21102670.22524-112561405.59724     -4207.49224        27.90024
E29  23780623.91726    115513.73226       -17.51326        36.30026  23780649.69924  -1996113.82824       -24.31524        28.00024
R01  20659791.92424-110510930.78524      1806.58724        26.10024
E19  26270653.30523    270168.72823      1192.39123        21.30023                                                                
C29  26371801.18223   4601821.27423        70.20323        23.00023                                                                
> 2025 09 29 13 22 45.9999999  0 29                      
G07  22468781.58607   -128171.05307     -2583.72507        44.30007                                                                
G30  21017809.77307    -70788.90607     -1700.68607        42.30007  21017816.66805    -45442.86705     -1270.42505        34.30005
G14  20223630.77225      7341.04925      -505.13425        34.90025  20223644.86224     12790.31524      -373.88624        25.10024
G17  23613448.25025    190861.47225      1763.32625        33.10025                                                                
G22  20728804.14725   1890031.78025       389.60725        31.40025                                                                
G05  22277848.26725    -28660.06925     -1217.76925        30.50025                                                                
G21  21571265.32425    779763.47725     -2864.38325        29.80025  21571291.10623   3512479.41023     -2145.89723        20.00023
G13  22189336.04224    141726.87524      1582.35124        29.10024                                                                
G08  24372687.34023   1996671.64623     -3136.01123        19.30023                                                                
G09  23260439.33326   -237927.07426     -4291.58526        37.60026  23260454.92225   3563341.32225     -3201.91625        29.90025
E27  23516562.52306     46853.21506     -1095.43106        41.30006  23516578.71124     42702.90924      -815.29424        28.90024
E07  24344546.72116    354635.86616     -2350.38616        41.10016  24344562.91025   1751784.73525     -1756.83425        33.70025
R08  19271247.09306-103270557.38206     -2159.07806        40.60006
C21  22386117.71325    -79470.39325     -2905.49725        34.70025  22386105.12223    -52195.14623     -2194.45023        20.90023
R07  22299392.55215-119444271.99315     -5121.08515        34.20015
C26  22050086.34325     35057.71925      -960.38625        33.80025  22050092.33923   3310116.16223      -727.20323        20.60023
R12  22802102.23326-121878460.44626      1773.04626        36.00026
C09  39222399.19825     33085.94925     -1275.24225        33.20025                                                                
R11  19608802.30925-104857243.27425     -1168.22025        30.90025
C24  24476164.30425    155494.07825       915.69425        30.80025  24476152.91224   1706988.58624       687.26524        25.60024
E29  23780409.86525    115499.86425       -11.33725        35.20025  23780418.55924  -1996133.50024       -16.92724        27.70024
C07  38661799.59325     82187.53925      -512.18925        35.30025                                                                
E30  25662775.23025    -93410.23325     -3434.91225        31.40025  25662789.92024  -2151501.76124     -2582.60824        28.00024
E21  25646247.07324   1473304.86124      1259.71524        28.40024                                                                
C14  24399399.14724    211520.19524      1353.92824        27.40024                                                                
R10  21103218.24624-112565596.69924     -4195.14524        27.70024
C10  38595280.74325    433929.48925      -309.89625        34.90025                                                                
C29  26371574.23923   4601892.88323        72.16823        22.90023                                                                
E19  26270200.01923    271360.01223      1191.49123        21.30023                                                                
> 2025 09 29 13 22 46.9999999  0 30                      
G07  22469052.29907   -130760.29007     -2591.21207        44.20007                                                                
G30  21017908.40527    -72493.60627     -1705.82627        41.50027  21017919.79705    -46715.91905     -1273.82905        34.10005
G14  20223519.84925      6827.73025      -516.12225        34.80025  20223523.44624     12412.71124      -378.59424        25.00024
G17  23612894.83325    192619.54225      1756.58925        32.90025                                                                
G22  20728503.45625   1890424.70725       394.25325        31.40025                                                                
G05  22277880.04525    -29877.66625     -1217.25825        30.40025                                                                
G21  21571592.09825    776892.04825     -2873.41025        29.80025  21571611.28423   3510341.17523     -2134.95223        20.00023
G13  22188823.99724    143306.35324      1578.71024        29.10024                                                                
G08  24373081.26723   1993534.04723     -3138.04123        19.30023                                                                
G09  23261036.81926   -242219.01926     -4292.46926        37.40026  23261040.71725   3560136.43025     -3205.83225        29.70025
E27  23516543.63606     45754.69506     -1099.43306        41.20006  23516564.02124     41883.89924      -819.94824        28.20024
E07  24344773.96406    352282.23806     -2354.72106        41.00006  24344785.65625   1750028.31125     -1755.81725        32.80025
R08  19271420.07306-103272660.61706     -2162.86106        40.40006
C21  22386451.98215    -82378.15815     -2908.46415        34.80015  22386452.28223    -54385.55223     -2189.45523        20.90023
R07  22300125.84405-119449374.65105     -5125.86505        34.30005
C09  39222430.97615     31803.12815     -1285.28415        33.20015                                                                
C26  22050048.86925     34090.61825      -969.14025        33.80025  22050060.86123   3309387.74623      -729.10123        20.40023
C07  38661682.67425     81665.87725      -525.02225        34.80025                                                                
R12  22801516.73826-121876506.07326      1772.45226        35.60026
R11  19608794.81425-104858377.93925     -1172.86825        31.00025
C24  24475746.69325    156410.67825       917.60825        30.80025  24475756.28724   1707675.72424       687.51024        24.90024
E30  25663197.33825    -96847.60725     -3437.46225        31.00025  25663223.42024  -2154078.85324     -2575.16524        27.60024
E21  25645738.92424   1474562.27124      1257.46824        28.40024  25645861.83923   4626396.88223       939.56223        22.30023
C10  38595107.16325    433619.34025      -309.35125        33.70025                                                                
R10  21103792.04924-112569825.94924     -4204.20524        27.50024
C14  24398934.16924    212870.38624      1348.16724        27.30024                                                                
C29  26371332.90623   4601966.62923        74.81523        22.80023                                                                
R01  20658559.47723-110506789.05923      1809.34523        22.90023
E19  26269780.01023    272551.63723      1191.79623        21.20023                                                                
E29  23780192.51525    115480.22725       -22.52225        34.30025  23780204.20724  -1996154.67424       -21.92624        27.40024
> 2025 09 29 13 22 47.9999999  0 30                      
G07  22469309.22107   -133350.18707     -2590.22607        44.10007                                                                
G30  21017999.24216    -74200.13716     -1707.44616        40.90016  21018006.13705    -47990.18705     -1274.87505        34.90005
G14  20223382.54415      6316.51515      -510.16215        34.70015  20223387.04024     12035.54124      -376.95224        25.00024
G17  23612300.94425    194375.84725      1755.42225        32.80025                                                                
G22  20728179.08025   1890815.00825       388.98725        31.30025                                                                
G05  22277851.86425    -31096.12525     -1218.88825        30.30025                                                                
G21  21571900.58425    774013.92425     -2881.46925        29.70025  21571921.27023   3508196.13623     -2148.43923        19.90023
G13  22188306.85524    144880.64024      1571.69124        29.10024                                                                
G08  24373450.01223   1990395.26823     -3139.36623        19.20023                                                                
G09  23261612.72116   -246511.89116     -4293.33216        37.30016  23261623.51325   3556931.47825     -3204.98025        29.50025
C09  39222439.07006     30518.84706     -1285.01006        35.80006                                                                
E27  23516527.14706     44654.43506     -1101.12906        41.20006  23516539.13924     41060.03924      -826.28424        28.00024
R08  19271586.15926-103274825.14526     -2164.30426        40.30026
E07  24345000.00726    349929.28626     -2352.61226        39.80026  24345003.00525   1748272.79825     -1755.05625        32.60025
C21  22386759.56925    -85289.06925     -2912.48125        34.80025  22386768.26324    -56575.92224     -2190.35124        23.50024
R07  22300881.62125-119454694.82625     -5126.09725        34.70025
R12  22801046.36415-121875265.57215      1767.68815        35.20015
C07  38661542.97115     81143.25415      -523.10315        34.50015                                                                
C26  22049990.70925     33119.78325      -972.70225        33.70025                                                                
R11  19608764.23525-104859486.60325     -1174.08525        31.00025
C24  24475351.56725    157323.59125       911.06725        30.80025  24475344.37224   1708366.82724       693.08424        24.30024
E29  23779962.57425    115458.53325       -22.72225        33.60025  23779968.57024  -1996173.20624       -17.21124        27.00024
E30  25663623.04325   -100289.99525     -3444.89425        30.60025  25663638.33324  -2156649.40024     -2567.27324        27.00024
C10  38594941.67825    433306.55325      -314.10625        32.80025                                                                
E21  25645258.65724   1475819.05624      1256.47224        28.30024                                                                
R10  21104323.88124-112573930.10724     -4205.91624        27.50024
C14  24398443.40924    214217.62324      1345.75724        27.20024                                                                
C29  26371067.89023   4602041.16623        74.93323        22.70023                                                                
R01  20657983.57623-110504983.98523      1806.95723        22.60023
E19  26269297.34423    273741.50023      1188.98023        21.20023                                                                
> 2025 09 29 13 22 49.0000000  0 30                      
G07  22469595.22307   -135940.46107     -2590.46007        44.10007                                                                
G30  21018113.76306    -75907.73506     -1708.12906        40.50006  21018123.65625    -49266.59425     -1277.47525        34.10025
G09  23262232.99106   -250806.69806     -4295.77006        37.20006  23262248.88024   3553724.58824     -3207.85624        29.20024
G14  20223262.02725      5805.09525      -511.52225        34.50025  20223278.21624     11654.85924      -382.43824        25.20024
G17  23611778.10625    196130.79725      1754.27125        32.60025                                                                
G22  20727902.97125   1891202.11325       385.50725        31.30025                                                                
G05  22277864.45525    -32318.21825     -1223.91025        30.30025                                                                
G21  21572243.54725    771134.19825     -2880.52325        29.70025  21572257.33723   3506042.71723     -2157.60723        19.90023
G13  22187842.77624    146451.52024      1569.17424        29.00024                                                                
G08  24373822.35423   1987254.93723     -3141.10523        19.20023                                                                
C09  39222480.44206     29233.55706     -1285.79406        40.80006                                                                
E27  23516527.74706     43552.04606     -1103.45206        41.10006  23516540.93724     40236.78824      -822.94524        27.90024
R08  19271785.52116-103277007.29616     -2168.11216        40.10016
R10  21104905.77825-112578141.80725     -4205.87325        29.60025
C21  22387117.82125    -88199.28225     -2909.86325        34.90025  22387123.51723    -58765.65823     -2189.41623        23.10023
C07  38661428.45025     80618.57925      -525.70125        34.50025                                                                
R12  22800487.85105-121873394.50405      1767.67505        35.10005
E07  24345228.44926    347573.91726     -2356.57626        39.00026  24345245.83725   1746511.76925     -1763.78525        32.30025
R07  22301607.11925-119459692.54925     -5134.19625        34.60025
C26  22049965.22725     32147.39925      -973.15825        33.70025                                                                
C24  24474962.73625    158234.99425       910.64725        30.80025  24474955.84124   1709057.43424       690.35924        23.80024
R11  19608786.42025-104860718.36425     -1177.04625        31.00025
E29  23779758.71625    115432.65525       -27.97125        33.00025  23779759.01524  -1996187.79124       -12.61124        26.60024
C10  38594785.48625    432988.38925      -320.85225        32.20025                                                                
E30  25664065.83725   -103731.82325     -3441.54425        30.30025  25664085.62324  -2159222.75624     -2574.75924        26.50024
E21  25644832.65224   1477071.55724      1250.35824        28.20024                                                                
C14  24397952.34924    215563.16824      1344.69924        27.00024                                                                
C29  26370841.54623   4602111.96523        68.93023        22.90023                                                                
R01  20657447.24723-110503230.15623      1801.57823        22.40023
E19  26268862.04523    274928.11623      1184.99123        21.20023                                                                
> 2025 09 29 13 22 49.9999999  0 29                      
G07  22469837.15507   -138530.46307     -2589.86507        44.10007                                                                
G30  21018192.30806    -77616.05106     -1708.67406        40.10006  21018199.20325    -50541.14025     -1273.61625        34.10025
G14  20223122.62415      5291.33415      -514.93115        34.40015  20223124.42224     11273.43824      -381.78924        29.40024
G17  23611204.90325    197886.27925      1755.74725        32.40025                                                                
G22  20727592.98625   1891590.31425       388.74925        31.20025                                                                
G05  22277854.56225    -33540.89525     -1222.96825        30.60025                                                                
G21  21572530.74825    768258.13425     -2874.23225        29.80025  21572550.83423   3503882.84823     -2163.09223        19.80023
G08  24374166.21623   1984115.74023     -3138.62723        19.10023                                                                
G09  23262792.40406   -255101.58506     -4294.92506        37.20006  23262817.58625   3550519.81625     -3203.71125        30.50025
C09  39222476.84406     27950.58506     -1281.81106        40.80006                                                                
E27  23516483.67706     42450.46006     -1101.18406        41.00006  23516500.76524     39416.86624      -818.25724        27.80024
R10  21105449.30116-112582370.28916     -4201.83116        38.30016
R08  19271949.50706-103279223.92606     -2164.65406        39.90006
C07  38661268.66115     80095.95715      -521.59415        35.40015                                                                
R12  22799913.14905-121871659.48605      1772.07505        35.10005
C21  22387423.30925    -91111.38525     -2913.04525        35.00025  22387425.70823    -60954.87323     -2188.95423        22.90023
E07  24345422.11526    345219.80626     -2352.73026        38.30026  24345439.80325   1744751.78825     -1759.45625        31.70025
R07  22302308.03315-119464781.41515     -5127.26315        34.60015
C26  22049909.76515     31176.64615      -969.93715        33.60015                                                                
C10  38594584.62525    432673.39725      -313.40625        32.30025                                                                
R11  19608751.04425-104861862.96425     -1175.57125        30.90025
E29  23779507.49025    115411.16425       -19.29725        32.40025  23779519.18124  -1996200.24024       -11.38224        26.20024
E30  25664468.15825   -107171.78125     -3439.02125        30.10025  25664494.54024  -2161798.22824     -2576.52824        26.10024
E21  25644341.89224   1478322.15124      1249.63924        28.10024  25644443.22123   4841802.85123       924.26823        22.90023
C14  24397487.07124    216914.96524      1354.92124        26.90024                                                                
C29  26370599.61423   4602182.28223        70.07523        22.90023                                                                
R01  20656858.15523-110501416.67123      1802.37823        22.30023
E19  26268415.95423    276114.13923      1185.72723        21.20023                                                                
C24  24474544.52525    159146.57925       911.67625        31.10025  24474530.13523   1709748.72823       691.63723        23.40023
> 2025 09 29 13 22 51.0000000  0 29                      
G07  22470112.96407   -141116.35407     -2583.83307        44.20007                                                                
G30  21018299.03406    -79319.85706     -1701.55006        39.80006  21018315.52325    -51813.06325     -1270.61025        34.00025
G09  23263394.08706   -259392.53506     -4288.97806        37.10006  23263422.86725   3547313.68725     -3206.80625        30.70025
G14  20223003.60605      4781.46305      -507.92605        34.30005  20223014.39824     10893.85724      -378.66224        28.90024
G22  20727325.87125   1891985.17325       398.18825        31.20025                                                                
G05  22277913.62125    -34759.40225     -1216.42125        31.00025                                                                
G13  22186788.40624    149604.16724      1587.87124        28.70024                                                                
G08  24374535.56023   1980981.39523     -3131.91723        19.10023                                                                
G21  21572894.99625    765384.39525     -2872.57425        30.50025                                                                
C07  38661165.53207     79578.18907      -515.34207        42.60007                                                                
C09  39222510.42106     26672.38106     -1275.82006        41.40006                                                                
E27  23516480.97906     41354.01106     -1093.87906        41.00006  23516502.56424     38598.21724      -818.01124        27.80024
R10  21106018.30806-112586513.34306     -4198.86806        39.90006
R08  19272137.17706-103281341.71006     -2158.90706        39.70006
C10  38594435.32825    432363.03625      -308.04625        34.70025                                                                
C21  22387776.16516    -94020.15016     -2907.09316        35.50016  22387783.66023    -63141.32523     -2185.06823        22.70023
R12  22799380.41705-121869924.46305      1777.56105        35.30005
E07  24345659.85016    342871.41116     -2346.53516        37.80016  24345682.93425   1742996.51425     -1752.91925        31.50025
C26  22049880.08605     30210.30705      -964.13205        34.20005                                                                
R07  22303047.62105-119469855.72405     -5124.22105        34.50005
R11  19608762.43625-104863035.85025     -1169.10725        31.10025
C24  24474138.60625    160060.49625       915.08325        31.10025  24474156.59423   1710441.89923       694.10823        23.10023
E29  23779312.32525    115395.36625       -12.95225        32.00025  23779306.62924  -1996211.93924       -11.32424        25.70024
E30  25664906.45525   -110609.67825     -3436.86425        30.00025  25664942.13024  -2164371.34524     -2571.93724        25.60024
E21  25643892.20324   1479578.54224      1259.29024        28.10024  25644000.72823   4842740.43023       937.57923        22.50023
C14  24397002.90624    218270.95924      1358.09124        26.90024                                                                
R01  20656248.37723-110499268.93623      1811.26423        22.70023
E19  26267969.56323    277303.70223      1191.33023        21.20023                                                                
C29  26370450.91723   4602257.22123        77.25123        22.90023                                                                
> 2025 09 29 13 22 51.9999999  0 31                      
G07  22470351.00007   -143696.55407     -2577.35307        45.00007                                                                
G30  21018370.98506    -81017.83606     -1695.06506        39.60006  21018389.27225    -53080.32325     -1264.92725        34.50025
G09  23263974.48606   -263679.17806     -4284.48606        37.00006  23263972.68725   3544114.62725     -3195.52325        30.50025
G22  20726982.00925   1892382.18325       398.08525        31.40025                                                                
G05  22277887.24025    -35975.60725     -1215.05325        31.30025                                                                
G17  23610084.27925    201413.37225      1767.66925        31.00025                                                                
G21  21573182.19725    762515.62725     -2866.28125        30.80025                                                                
G13  22186184.92424    151192.97824      1588.81024        28.90024                                                                
G08  24374883.31923   1977853.29023     -3124.98323        19.00023                                                                
G14  20222839.02005      4275.96705      -503.30805        34.30005  20222853.71024     10517.71724      -374.41924        28.00024
C07  38661011.43907     79065.58407      -510.02307        45.30007                                                                
E27  23516440.50706     40261.93306     -1089.89106        40.90006  23516461.19324     37784.77324      -810.84224        27.70024
C09  39222504.12506     25399.88906     -1269.63506        41.30006                                                                
R08  19272293.96906-103283519.26306     -2154.92206        39.60006
R10  21106566.92806-112590768.51706     -4190.97506        39.80006
C21  22388088.54906    -96923.25106     -2900.26806        37.00006  22388091.84725    -65328.67025     -2187.78925        30.20025
R12  22798775.43606-121868027.40606      1783.82206        38.10006
C10  38594247.95816    432059.04416      -300.80716        36.70016                                                                
E07  24345854.71506    340525.95006     -2342.99306        37.50006  24345876.30125   1741245.78225     -1748.46125        34.30025
R07  22303759.92805-119475005.09805     -5117.50705        34.50005
R11  19608736.35425-104864231.67625     -1167.05925        31.70025
C24  24473702.70825    160983.38725       927.37825        31.00025  24473725.19323   1711140.12423       700.75323        22.80023
E29  23779057.20125    115383.05925       -10.56025        31.70025  23779061.39824  -1996220.14524        -6.45824        25.60024
E30  25665326.76425   -114045.24825     -3434.40525        29.80025  25665348.04924  -2166934.43024     -2558.06724        25.10024
E21  25643406.23924   1480841.09324      1265.63024        28.10024  25643512.06624   4843684.55724       947.40124        24.10024
C22  25584988.38124   6724929.57424     -4558.91524        25.80024                                                                
C14  24396454.58624    219627.43024      1356.70824        26.80024                                                                
C29  26370181.40324   4602339.65324        86.17724        23.90024                                                                
R01  20655660.18423-110497458.51023      1819.40923        22.70023
E19  26267562.74523    278496.62923      1194.60923        21.20023                                                                
C26  22049838.11505     29249.44105      -958.12805        34.50005  22049833.31824   4837345.47424      -726.34824        28.90024
> 2025 09 29 13 22 52.9999999  0 30                      
G07  22470605.82307   -146272.89007     -2574.40207        45.50007                                                                
G30  21018454.32706    -82712.30406     -1692.71006        39.50006  21018473.51415    -54345.65915     -1264.37215        35.10015
G09  23264545.29006   -267960.58006     -4278.77806        36.90006  23264560.58025   3540912.88125     -3203.08625        29.90025
G14  20222696.31905      3773.48705      -500.97205        34.50005  20222716.70524     10142.52824      -374.71324        27.70024
G13  22185644.99825    152781.14325      1587.84125        30.90025                                                                
G22  20726654.33625   1892781.26025       400.11025        31.50025                                                                
G17  23609528.46425    203182.50525      1769.13225        31.00025                                                                
G21  21573495.78025    759648.10125     -2866.90225        30.80025  21573503.27423   5044748.92623     -2143.07623        22.80023
G08  24375201.69923   1974728.68323     -3122.85523        18.90023                                                                
G05  22277862.35725    -37187.10125     -1209.13825        31.30025                                                                
C07  38660874.43407     78557.51507      -505.79907        45.20007                                                                
E27  23516416.82306     39173.43206     -1086.71206        40.90006  23516432.41324     36970.98824      -813.95524        27.50024
C09  39222512.22006     24131.57506     -1266.22406        41.20006                                                                
R08  19272458.25506-103285673.82906     -2152.39806        39.50006
C10  38594062.68606    431759.88606      -296.74006        37.60006                                                                
R10  21107108.05326-112594922.25026     -4191.33926        39.60026
C21  22388391.33916    -99823.23716     -2898.42616        37.60016  22388415.92225    -67514.98725     -2185.80225        29.50025
E07  24346063.67106    338185.83906     -2338.43306        37.30006  24346074.16415   1739498.34415     -1745.78815        34.90015
R12  22798193.23906-121866188.43906      1784.55806        37.80006
C26  22049779.35515     28291.52115      -956.44715        34.50015  22049783.55224   4836622.98924      -720.55424        28.10024
R07  22304475.83315-119480111.57915     -5114.58815        34.40015
R11  19608692.28525-104865266.93525     -1164.22925        31.80025
E29  23778821.56425    115373.50725        -8.17625        31.50025  23778829.35924  -1996227.57224        -7.03924        25.30024
E30  25665725.18825   -117477.47325     -3430.55025        29.70025  25665756.96624  -2169496.42924     -2561.45424        24.60024
E21  25642926.87124   1482107.04824      1267.65624        28.00024  25642948.75624   4844630.85124       947.37624        24.00024
C14  24396005.79724    220989.22424      1364.45524        26.90024                                                                
C29  26369914.28824   4602427.49624        90.54924        24.10024                                                                
R01  20655155.03423-110496031.27823      1819.84223        23.00023
E19  26267106.76023    279693.56323      1198.93723        21.80023                                                                
C24  24473322.87125    161909.36725       927.52325        30.90025  24473310.28023   1711838.75423       698.83123        22.50023
> 2025 09 29 13 22 54.0000000  0 29                      
G07  22470886.12907   -148847.09507     -2573.13807        45.50007                                                                
G14  20222585.69506      3271.36106      -501.94906        39.30006  20222610.87824      9766.74924      -376.07424        27.40024
G30  21018577.24206    -84405.47206     -1692.51706        39.50006  21018588.33415    -55609.66715     -1263.34315        35.10015
G09  23265144.87526   -272243.79626     -4284.12026        36.80026  23265176.65325   3537712.47325     -3199.73625        29.70025
G13  22185114.06525    154368.57025      1587.05725        34.30025                                                                
G22  20726376.42825   1893182.43025       402.21725        31.70025                                                                
G05  22277874.64825    -38399.72425     -1213.18825        31.30025                                                                
G21  21573831.24725    756782.92525     -2863.99925        30.80025  21573838.44224   5042605.88524     -2143.03924        27.20024
G17  23608943.56825    204950.77325      1767.83325        31.00025                                                                
G08  24375609.71723   1971605.23423     -3122.86723        18.90023                                                                
C07  38660755.41607     78051.07907      -505.62007        45.10007                                                                
E27  23516413.52616     38085.43916     -1087.73816        41.10016  23516429.11524     36158.79824      -811.39224        27.90024
C09  39222551.79216     22865.49916     -1264.95616        40.90016                                                                
R08  19272643.82606-103287781.65606     -2152.40906        39.40006
C10  38593915.18806    431462.05306      -297.17006        38.30006                                                                
C21  22388737.59916   -102721.89616     -2897.99316        37.60016  22388748.99224    -69697.89724     -2181.20424        28.70024
E07  24346298.40806    335845.81706     -2339.72506        37.20006  24346315.49705   1737751.50905     -1746.53205        34.50005
R12  22797617.33816-121864224.12116      1785.12516        37.40016
R07  22305232.80925-119485277.03825     -5115.79525        34.40025
R11  19608712.67125-104866488.75725     -1161.58625        31.80025
C24  24472923.54825    162835.60725       926.37025        30.90025  24472922.94823   1712540.29323       702.99423        22.30023
E29  23778599.11825    115364.31625        -9.00925        31.40025  23778622.80224  -1996232.27624        -3.34224        25.10024
E19  26266671.46225    280894.27125      1202.59325        30.30025                                                                
E30  25666176.07625   -120905.70925     -3426.23825        29.60025  25666197.96124  -2172057.35924     -2560.39324        24.50024
C14  24395484.15824    222351.26524      1362.16324        28.10024                                                                
E21  25642499.66724   1483375.04024      1269.00924        28.30024  25642505.96324   4845578.50824       948.33824        23.60024
C29  26369689.74424   4602515.47024        88.04024        24.10024                                                                
R01  20654619.00523-110494277.44823      1818.08123        23.10023
C26  22049744.57925     27334.04625      -957.25225        34.50025  22049751.47525   4835901.41625      -721.11625        30.00025
> 2025 09 29 13 22 54.9999999  0 30                      
G07  22471122.36607   -151420.60507     -2572.41107        45.40007                                                                
G14  20222433.10106      2770.15806      -500.74106        40.50006  20222456.48524      9394.59724      -370.33824        27.20024
G30  21018649.19206    -86097.42406     -1690.59306        39.40006  21018659.98405    -56871.93105     -1261.39205        35.00005
G09  23265698.59216   -276523.33016     -4277.69016        36.70016  23265740.86325   3534514.58125     -3196.63225        34.20025
G13  22184569.64225    155958.04325      1590.49525        34.30025                                                                
G22  20726049.35525   1893585.15725       403.50525        31.80025                                                                
G05  22277847.66725    -39609.80925     -1208.81425        31.30025                                                                
G21  21574113.95225    753923.12825     -2857.10525        30.80025  21574129.54124   5040467.53224     -2136.00924        26.70024
G17  23608368.56725    206720.58225      1770.57925        30.90025                                                                
G08  24375961.37323   1968482.52723     -3122.33523        18.80023                                                                
C07  38660610.01707     77545.25007      -505.52507        44.90007                                                                
C26  22049673.82816     26377.29816      -956.38316        40.60016  22049687.31925   4835180.18425      -721.06025        31.00025
E27  23516369.75606     36998.69506     -1086.11806        41.20006  23516383.84624     35346.70724      -812.04024        27.60024
R11  19608678.19516-104867639.47516     -1165.16116        36.50016
C10  38593720.32306    431164.96706      -296.71306        39.00006                                                                
C09  39222541.89906     21600.74506     -1264.09106        40.70006                                                                
R08  19272797.32006-103289941.59006     -2153.27306        39.30006
C21  22389047.28506   -105620.46006     -2898.51506        37.90006  22389062.87424    -71873.78924     -2172.38224        28.50024
E07  24346494.77206    333506.35206     -2339.18606        37.10006  24346510.96115   1736005.21415     -1746.02615        34.20015
R12  22797020.45126-121862370.63826      1783.56326        37.10026
R07  22305940.91825-119490406.49925     -5121.56425        34.30025
E29  23778380.86925    115357.43625        -5.72525        31.30025  23778371.57624  -1996230.99524         4.27424        24.90024
C24  24472508.63525    163762.15725       926.70425        30.80025  24472508.63523   1713243.77823       704.45723        22.10023
E19  26266200.78825    282097.51925      1204.51725        30.20025                                                                
E30  25666581.69524   -124335.70624     -3430.87624        29.40024  25666597.88424  -2174616.28024     -2557.91624        24.20024
R10  21108238.87025-112603391.41725     -4191.97925        35.30025
E21  25642006.80824   1484643.11624      1268.11824        28.30024  25642007.40823   4846576.30823      1022.87023        23.10023
C14  24395022.17824    223715.04624      1364.65124        28.60024                                                                
C29  26369440.61624   4602601.87624        85.62124        24.00024                                                                
R01  20653955.56423-110492067.76523      1822.65923        23.10023
> 2025 09 29 13 22 55.9999999  0 30                      
G07  22471393.67807   -153993.45907     -2572.77407        45.80007                                                                
G30  21018747.22426    -87788.47126     -1691.59326        39.40026  21018761.31406    -58134.43306     -1262.61906        36.10006
G09  23266305.67226   -280806.04726     -4284.30526        36.60026  23266335.95126   3531317.68026     -3196.40326        35.60026
G13  22184088.17525    157548.92425      1591.58325        34.10025                                                                
G22  20725747.46425   1893984.97025       398.35625        31.80025                                                                
G05  22277864.75525    -40822.64225     -1214.20725        31.50025                                                                
G21  21574451.51825    751060.29725     -2864.34625        30.80025  21574447.02124   5038329.72524     -2137.53224        26.50024
G17  23607819.64725    208488.62725      1767.16225        30.80025                                                                
G08  24376339.11223   1965360.89123     -3121.09723        18.80023                                                                
G14  20222308.98706      2268.69306      -501.59506        40.50006  20222326.37525      9020.16025      -375.57925        29.50025
C26  22049639.35207     25420.05707      -957.48707        46.10007  22049651.94425   4834458.93325      -721.26125        30.60025
C07  38660487.10207     77039.72707      -505.36907        44.70007                                                                
R11  19608675.19706-104868797.84106     -1164.70606        40.70006
E27  23516355.06606     35911.46706     -1087.47006        41.40006  23516368.55724     34535.38824      -810.93224        27.40024
C10  38593558.73506    430867.95206      -296.98006        39.90006                                                                
C09  39222566.48206     20336.20006     -1264.44106        40.50006                                                                
R08  19272991.28606-103292157.45706     -2153.72706        39.30006
C21  22389386.95006   -108520.33206     -2900.52406        38.50006  22389400.44124    -74053.34924     -2181.39224        28.30024
E07  24346714.22016    331166.66216     -2339.05016        37.00016  24346736.70525   1734258.78225     -1746.49725        33.90025
R12  22796471.53126-121860612.69226      1783.64826        36.70026
R07  22306673.01215-119495500.72815     -5112.46915        34.30015
E29  23778154.52625    115350.41325        -7.09425        31.20025  23778160.22224  -1996228.93824         2.44524        24.60024
C24  24472098.81925    164688.75225       926.61725        30.80025  24472106.31323   1713953.79223       713.27923        21.90023
E19  26265731.91225    283299.77125      1201.75425        30.20025                                                                
C14  24394536.81424    225081.08224      1367.16124        28.60024                                                                
R10  21108773.10025-112607410.91725     -4191.10525        34.30025
E30  25667014.59624   -127765.30824     -3429.40224        29.30024  25667032.58324  -2177174.95424     -2558.54824        23.90024
R01  20653445.31723-110490515.09823      1818.02423        23.40023
C29  26369215.47224   4602688.66224        86.97724        24.00024                                                                
E21  25641603.28724   1485910.50824      1267.04824        28.60024                                                                
> 2025 09 29 13 22 56.9999999  0 30                      
G07  22471645.80307   -156567.76107     -2575.02407        46.40007                                                                
G14  20222164.48726      1765.93626      -503.40226        40.50026  20222183.37425      8644.37425      -376.46125        33.30025
G30  21018833.26516    -89482.03916     -1694.57816        39.70016  21018845.55626    -59400.71826     -1268.17626        35.60026
G09  23266880.07426   -285088.05326     -4281.64726        36.60026  23266913.35125   3528118.66525     -3200.07025        34.90025
G13  22183556.04425    159137.63925      1587.63125        34.00025                                                                
G22  20725418.59125   1894384.90625       399.99625        31.90025                                                                
G05  22277863.25625    -42036.97525     -1215.08125        31.50025                                                                
G17  23607243.74525    210257.03125      1768.58225        30.80025                                                                
G08  24376716.25023   1962238.98723     -3122.03623        18.70023                                                                
G21  21574747.41325    748193.55125     -2868.70225        30.90025  21574758.80524   5036187.26124     -2144.79224        26.10024
C26  22049584.19107     24461.23607      -959.61007        46.00007  22049598.28115   4833736.97215      -722.31615        30.40015
C07  38660343.50107     76532.79607      -507.63507        44.50007                                                                
R11  19608653.91107-104869956.96807     -1167.61007        42.40007
E27  23516323.58806     34823.22006     -1089.50606        41.40006  23516342.77524     33723.53024      -812.12724        27.20024
C10  38593381.25806    430569.54306      -299.10506        40.20006                                                                
C09  39222570.38006     19070.69506     -1265.98306        40.40006                                                                
C21  22389705.33006   -111421.74906     -2902.18606        38.80006  22389713.72425    -76236.84725     -2185.46525        30.50025
R08  19273146.27806-103294262.98806     -2157.53606        39.20006
E07  24346922.27606    328825.92006     -2341.51706        36.90006  24346943.86125   1732510.17925     -1749.68925        33.60025
R12  22795921.41216-121858944.93516      1785.43016        36.50016
R07  22307420.69425-119500778.01425     -5116.54625        34.20025
C24  24471696.49725    165614.95025       925.99725        30.80025  24471683.30623   1714663.19323       709.09323        21.70023
E29  23777952.76625    115341.37025       -10.05425        31.00025  23777920.98824  -1996232.54224        -6.43424        24.30024
C14  24394036.16025    226443.07725      1359.97425        29.70025                                                                
E19  26265267.83325    284500.10925      1199.37925        30.10025                                                                
E30  25667440.90024   -131197.91824     -3434.11124        29.10024  25667443.89824  -2179736.84824     -2563.50224        23.60024
R10  21109337.61025-112611688.97325     -4191.62125        33.40025
R01  20652876.31124-110488745.97324      1811.31224        23.90024
C29  26368956.45124   4602772.25124        81.99024        24.00024                                                                
E21  25641095.73924   1487176.25524      1264.92424        28.70024                                                                
> 2025 09 29 13 22 57.9999999  0 30                      
G07  22471915.91607   -159145.26807     -2579.10907        46.50007                                                                
G14  20222036.77526      1259.02026      -508.99626        40.60026  20222063.15725      8258.16325      -391.42225        32.20025
G30  21018936.39306    -91178.34606     -1697.67506        39.90006  21018950.18426    -60670.19426     -1271.07126        35.60026
G09  23267489.25216   -289373.98616     -4287.89416        36.50016  23267509.63826   3524914.25626     -3207.10426        36.10026
G13  22183031.40715    160723.39815      1584.28115        34.00015                                                                
G22  20725143.08225   1894780.86725       393.97425        31.90025                                                                
G05  22277882.44325    -43253.75825     -1218.00825        31.60025                                                                
G21  21575095.77225    745324.04125     -2870.88925        31.20025  21575083.18124   5034042.49224     -2145.92024        25.90024
G17  23606680.13525    212023.05425      1764.83125        30.80025                                                                
G08  24377070.90523   1959113.15923     -3127.78923        18.70023                                                                
E07  24347153.71606    326482.42706     -2344.86706        38.00006  24347170.20515   1730760.53515     -1750.16215        33.40015
C26  22049553.31207     23499.71107      -962.87807        45.70007  22049561.70625   4833014.01125      -723.46025        30.10025
C07  38660225.68307     76022.60407      -511.82207        44.30007                                                                
E27  23516311.29607     33730.94807     -1094.03307        41.60007  23516325.38724     32910.18924      -814.08324        26.50024
R11  19608657.50927-104871150.50427     -1170.24227        42.30027
C10  38593218.77106    430267.80906      -303.39706        40.30006                                                                
C09  39222593.16406     17801.93706     -1270.38406        40.30006                                                                
C21  22390042.29616   -114326.86216     -2906.96016        39.30016  22390054.88825    -78426.40325     -2192.58425        30.00025
R08  19273334.24806-103296445.14306     -2161.28206        39.10006
R12  22795370.09406-121857173.23606      1781.22906        36.30006
R07  22308126.10625-119505730.55025     -5123.68125        34.10025
E29  23777683.85225    115329.16425       -13.78725        30.90025  23777700.64024  -1996234.29824        -0.83224        25.40024
C14  24393548.99725    227803.06325      1358.98125        30.10025                                                                
E19  26264833.43425    285697.72325      1196.25225        30.00025                                                                
E21  25640655.04424   1488442.25524      1266.12624        28.80024                                                                
E30  25667873.80124   -134632.09124     -3434.95324        28.90024  25667879.49723  -2182303.73923     -2569.38823        23.30023
R10  21109905.71625-112615889.23825     -4195.50225        32.50025
R01  20652281.52324-110486740.50724      1810.11624        24.10024
C29  26368722.31324   4602850.22424        75.16424        23.90024                                                                
C24  24471291.17825    166537.23425       920.32725        31.10025  24471307.36623   1715359.05823       689.09623        21.50023
> 2025 09 29 13 22 58.9999999  0 30                      
G07  22472167.14207   -161724.98807     -2580.82407        46.50007                                                                
G30  21019021.23406    -92877.65106     -1700.80206        40.80006  21019035.02526    -61940.64626     -1270.93826        35.50026
G14  20221900.66916       749.44016      -510.91116        40.60016  20221915.06025      7868.19925      -391.84025        31.30025
G13  22182488.48325    162307.84925      1583.79425        33.90025                                                                
G22  20724820.20625   1895173.76425       391.36525        32.00025                                                                
G05  22277853.96325    -44474.09825     -1222.11725        31.70025                                                                
G21  21575405.15825    742453.57225     -2870.94725        31.30025  21575391.06824   5031896.33524     -2146.84924        25.70024
G17  23606100.63725    213786.41425      1762.02825        30.70025                                                                
G09  23268076.54626   -293659.24726     -4284.92126        36.10026  23268088.53716   3521710.73716     -3203.07116        35.70016
G08  24377448.64323   1955984.32123     -3130.34023        18.70023                                                                
C07  38660085.97907     75510.09007      -513.67507        44.20007                                                                
E27  23516280.41807     32636.12207     -1096.10307        42.30007  23516299.30524     32090.72624      -822.52424        29.00024
C10  38593038.89506    429964.40506      -304.23806        41.00006                                                                
E07  24347357.27507    324137.15207     -2346.91407        42.60007  24347377.06205   1729009.06605     -1752.38105        35.10005
R11  19608650.31427-104872383.03127     -1173.19427        42.20027
C09  39222594.06306     16531.07006     -1271.92106        40.30006                                                                
R08  19273499.13406-103298602.77606     -2164.21606        39.60006
C21  22390352.58116   -117233.91216     -2908.01616        39.70016  22390372.06825    -80616.20325     -2189.92025        29.50025
R12  22794788.79606-121855340.38906      1777.18906        36.20006
R07  22308855.80125-119510910.56025     -5121.37125        33.90025
C24  24470880.46225    167459.00225       921.50925        32.00025  24470889.45623   1716054.63423       695.43223        21.60023
E29  23777447.31625    115313.19525       -17.85025        30.90025  23777466.80224  -1996243.52224       -12.95824        28.70024
C14  24393055.53925    229158.42625      1353.05025        30.10025                                                                
E21  25640128.30924   1489704.06924      1259.72124        29.00024  25640222.44323   5410656.50723       940.32123        23.20023
E30  25668293.51024   -138068.29524     -3437.21624        28.80024  25668297.10823  -2184871.59023     -2568.32823        23.10023
R10  21110451.63825-112620067.38425     -4201.11925        31.60025
R01  20651714.01624-110484979.79524      1810.68124        24.10024
C29  26368456.99724   4602924.84624        72.94824        23.80024                                                                
E19  26264365.75825    286895.77925      1198.27625        29.90025                                                                
C26                                                                  22049510.14225   4832287.16125      -728.79425        29.80025
> 2025 09 29 13 22 59.9999999  0 30                      
G07  22472442.05207   -164304.81307     -2579.87507        46.50007                                                                
G30  21019122.56407    -94576.38607     -1698.44907        45.30007  21019138.15326    -63211.86026     -1271.59426        36.50026
G14  20221776.85506       239.47006      -510.16606        40.70006  20221789.44625      7490.58725      -371.43725        30.90025
G22  20724520.41316   1895564.86516       390.20216        35.70016                                                                
G13  22181961.74725    163892.14325      1584.21525        33.90025                                                                
G05  22277879.14525    -45696.30225     -1223.13525        31.80025                                                                
G21  21575721.13925    739582.44425     -2871.45425        31.30025  21575719.94024   5029749.36624     -2147.37324        25.50024
G17  23605560.71025    215550.33725      1764.20225        30.70025                                                                
G09  23268664.73925   -297943.81825     -4284.22325        34.70025  23268684.22505   3518506.87305     -3204.03405        35.10005
G08  24377820.08623   1952853.20623     -3132.25123        18.60023                                                                
E27  23516273.22307     31540.93607     -1095.36507        42.80007  23516289.41224     31271.87024      -818.55224        28.60024
C07  38659961.26607     74997.02807      -513.33507        43.90007                                                                
C10  38592876.40807    429660.70707      -303.84507        41.80007                                                                
E07  24347591.71307    321791.17307     -2345.32807        42.40007  24347603.70505   1727257.38705     -1751.78105        34.80005
R08  19273685.00606-103300774.96506     -2163.74506        40.00006
C21  22390694.64506   -120141.76506     -2908.25206        39.70006  22390702.43924    -82804.63924     -2187.75224        29.10024
C26  22049462.17517     21572.51217      -961.10317        43.40017  22049475.96525   4831560.19425      -727.02625        29.60025
C09  39222626.14106     15260.27306     -1270.76106        40.20006                                                                
R12  22794210.79626-121853426.51826      1774.05926        36.10026
C24  24470488.63325    168380.62625       921.55225        33.50025  24470488.03423   1716749.72723       694.85023        21.60023
R11  19608648.81526-104873549.80526     -1174.65926        40.60026
E29  23777228.46725    115299.17025       -13.05425        30.90025  23777246.75525  -1996253.58325       -10.48025        30.50025
R07  22309579.20025-119515958.83125     -5127.65725        33.50025
E19  26263929.56025    288091.93225      1195.20025        29.90025                                                                
C14  24392586.66425    230515.59625      1358.07425        30.10025                                                                
E21  25639661.23224   1490965.22424      1260.82324        29.10024  25639685.21523   5411600.11523       945.25023        23.10023
E30  25668706.32424   -141503.93024     -3435.34824        28.60024  25668735.10423  -2187431.52823     -2555.97923        22.90023
R10  21110975.37625-112624030.44025     -4202.20325        30.80025
R01  20651208.26624-110483451.60224      1811.01224        24.40024
C29  26368217.46324   4603000.36424        75.96624        23.70024                                                                
> 2025 09 29 13 23 00.9999998  0 28                      
G07  22472693.27807   -166881.35207     -2574.89407        46.40007                                                                
G30  21019209.50407    -96272.78307     -1694.47607        45.20007  21019224.49426    -64478.23826     -1263.95926        36.30026
G22  20724208.92906   1895958.89106       395.48806        38.60006                                                                
G13  22181427.21715    165479.46915      1588.84015        33.80015                                                                
G05  22277865.05525    -46913.43825     -1214.60125        31.80025                                                                
G21  21576020.33225    736713.41825     -2867.97425        31.30025  21576030.82524   5027604.30224     -2144.11024        25.50024
G17  23605015.08825    217316.52725      1767.32325        30.60025                                                                
G09  23269243.03825   -302229.52525     -4286.27225        33.40025  23269239.14125   3515305.24525     -3200.50825        33.50025
G08  24378175.64023   1949722.67923     -3130.23023        18.60023                                                                
G14  20221635.05306      -267.64106      -505.68006        41.00006  20221654.24025      7114.52525      -375.28625        30.40025
E27  23516243.24407     30448.59107     -1090.92307        43.50007  23516257.63424     30456.45324      -813.69624        28.60024
E29  23776994.62926    115288.34726        -9.22326        41.10026  23777010.81815  -1996262.07115        -7.70015        32.80015
C10  38592693.23407    429360.03207      -299.16307        42.10007                                                                
C07  38659823.66117     74487.05717      -508.42517        43.70017                                                                
E07  24347797.37107    319448.56707     -2341.16807        42.30007  24347812.06015   1725507.87415     -1748.42915        34.60015
C21  22391016.92206   -123046.32506     -2902.91106        40.40006  22391023.21724    -84997.10124     -2194.47424        28.90024
R08  19273848.09306-103302923.40306     -2159.64606        40.50006
C09  39222633.93606     13992.39006     -1266.42506        40.00006                                                                
C26  22049404.61507     20610.97807      -961.53307        42.70007  22049422.60225   4830834.65825      -724.81825        30.40025
R11  19608618.23626-104874659.23126     -1169.48526        40.10026
R12  22793654.08226-121851723.59626      1785.68826        36.00026
C24  24470056.03325    169303.54025       923.55925        33.60025  24470079.11723   1717445.78923       696.54623        22.40023
C14  24392072.22025    231875.81625      1361.74325        30.30025                                                                
R07  22310283.71225-119521004.80625     -5116.07425        33.10025
E19  26263461.58425    289291.76125      1201.66625        30.10025                                                                
E21  25639178.56625   1492230.05925      1266.67525        29.50025  25639209.44523   5412542.45023       941.69723        23.20023
E30  25669110.74424   -144932.28824     -3424.71624        28.40024  25669148.21823  -2189986.30123     -2552.18923        22.60023
R01  20650579.60124-110481363.52824      1821.00524        24.40024
> 2025 09 29 13 23 01.9999999  0 29                      
G07  22472957.69507   -169460.06107     -2579.79207        46.30007                                                                
G30  21019310.53417    -97969.95617     -1698.56017        45.10017  21019325.22426    -65745.01426     -1266.97526        37.00026
G14  20221513.03806      -776.00606      -508.99206        41.40006  20221527.12825      6732.81325      -384.53725        29.90025
G22  20723917.23106   1896351.68406       392.17706        39.20006                                                                
G13  22180906.17805    167066.60105      1587.03405        33.80005                                                                
G05  22277870.15125    -48131.67725     -1218.79025        31.80025                                                                
G21  21576327.02025    733841.88025     -2872.79225        31.20025  21576354.90024   5025459.80324     -2144.21524        25.20024
G17  23604443.08425    219084.90025      1769.46325        30.60025                                                                
G09  23269842.92325   -306518.46325     -4290.54925        32.30025  23269863.00925   3512099.53625     -3207.74825        33.30025
G08  24378544.98423   1946590.47723     -3133.03823        18.60023                                                                
E27  23516230.35207     29355.14707     -1093.99307        44.10007  23516243.24425     29640.42025      -816.34125        30.60025
C21  22391355.08707   -125952.11007     -2906.39507        41.90007  22391366.48024    -87187.13824     -2188.82224        28.80024
E29  23776776.38017    115275.57317       -13.74817        42.30017  23776793.16905  -1996271.52905        -9.94405        33.70005
C10  38592534.94407    429058.18807      -302.42907        42.10007                                                                
R08  19274036.96206-103305110.92206     -2162.75806        40.90006
E07  24348030.01007    317104.80707     -2344.33507        42.10007  24348038.70415   1723757.82915     -1750.30915        34.50015
C26  22049373.43607     19648.57707      -962.83307        42.10007  22049387.52725   4830109.06225      -725.62725        32.20025
C09  39222662.11606     12723.43006     -1269.49806        39.80006                                                                
R11  19608617.63616-104875829.83116     -1171.75916        39.60016
R12  22793097.66726-121849925.91626      1779.30826        35.80026
C24  24469669.00115    170224.15415       919.46315        33.60015  24469687.58824   1718142.25224       696.66324        23.70024
C07  38659711.23927     73976.05227      -511.52227        42.80027                                                                
C14  24391597.94825    233236.44125      1360.82725        30.60025                                                                
R07  22311044.28525-119526252.99025     -5124.53725        32.70025
E19  26263022.08825    290489.34825      1196.46625        30.10025                                                                
E21  25638705.49425   1493495.13625      1265.19825        29.60025  25638741.16924   5413485.55424       943.48824        25.20024
R01  20650066.95624-110479797.85924      1819.52824        24.30024
R10  21112197.93024-112632988.50224     -4193.92624        26.70024
E30  25669549.34124   -148361.09424     -3429.02924        28.20024  25669584.71623  -2192541.50523     -2555.41723        22.40023
> 2025 09 29 13 23 02.9999998  0 30                      
G07  22473217.01607   -172044.08207     -2586.67507        46.20007                                                                
G30  21019398.37307    -99672.40107     -1704.83007        45.10007  21019410.96516    -67016.84716     -1274.36016        36.80016
G14  20221371.83607     -1288.11007      -513.97507        41.80007  20221389.22425      6349.07125      -384.75625        32.60025
G22  20723606.64606   1896741.47706       388.29206        40.00006                                                                
G13  22180364.75325    168651.82325      1584.26525        33.70025                                                                
G05  22277869.25225    -49356.69425     -1228.40625        31.80025                                                                
G21  21576650.79525    730966.66925     -2877.04625        31.20025  21576664.58624   5023310.26724     -2152.05324        25.20024
G17  23603842.90025    220851.17725      1765.22825        30.50025                                                                
G09  23270411.03025   -310812.01525     -4295.85725        31.40025  23270441.90825   3508893.66925     -3205.94325        33.00025
G08  24378900.23923   1943455.43423     -3136.46023        18.60023                                                                
E27  23516201.57207     28257.90507     -1099.14007        44.60007  23516215.06325     28820.46125      -821.92125        30.40025
C21  22391677.36407   -128861.24107     -2910.80307        43.00007  22391686.05825    -89379.72525     -2193.86025        29.60025
E29  23776541.64307    115258.32407       -19.48607        42.40007  23776558.13105  -1996284.56605       -14.82605        33.80005
C10  38592353.86907    428751.23507      -309.50707        42.10007                                                                
R08  19274204.24606-103307283.88006     -2168.13106        41.20006
E07  24348245.56017    314756.40317     -2350.72517        41.90017  24348247.35905   1722004.34205     -1755.20805        34.40005
C26  22049325.47017     18682.59117      -967.77817        41.60017  22049335.36315   4829380.37415      -730.23215        31.80015
R11  19608598.15006-104876998.89906     -1177.84606        39.20006
C05  37383090.02526   7205368.92426     -1274.56126        36.30026                                                                
C24  24469239.69825    171140.16225       913.70425        33.60025  24469275.67324   1718837.59724       694.78524        23.60024
C07  38659568.53826     73458.90626      -520.21626        40.30026                                                                
C14  24391102.69125    234593.49925      1355.27425        30.60025                                                                
C09  39222667.21326     11450.99926     -1274.16626        38.30026                                                                
E19  26262550.81425    291686.26725      1196.58325        30.10025                                                                
R07  22311772.78125-119531427.64325     -5127.72625        32.30025
E21  25638237.81725   1494753.21625      1254.57925        29.60025  25638263.59924   5414431.73324       947.71624        24.90024
R12  22792556.54126-121848307.84126      1772.54726        35.50026
E30  25669999.62924   -151794.73124     -3436.04924        28.00024  25669996.93123  -2195097.27623     -2556.05323        22.10023
R01  20649474.26624-110477903.29524      1811.45624        24.30024
R10  21112835.58824-112637657.07124     -4196.56524        25.80024
> 2025 09 29 13 23 03.9999998  0 30                      
G14  20221250.42007     -1803.54707      -517.10107        44.50007  20221265.70925      5962.63825      -387.77925        31.80025
G07  22473489.52707   -174631.58407     -2589.24007        46.10007                                                                
G22  20723316.14706   1897128.01006       384.90206        40.70006                                                                
G13  22179826.62625    170231.98825      1577.63525        33.60025                                                                
G05  22277884.24225    -50582.51725     -1226.22525        31.80025                                                                
G21  21576982.36625    728087.57425     -2881.03325        31.20025  21576994.35824   5021157.39924     -2154.53224        25.40024
G17  23603324.55825    222609.08625      1753.72425        30.40025                                                                
G09  23270986.33125   -315106.44825     -4294.87025        30.60025  23271039.69425   3505682.84525     -3213.30025        32.60025
G08  24379267.18523   1940316.18523     -3141.35023        18.50023                                                                
G30  21019498.80407   -101378.45207     -1707.85307        45.20007  21019515.59206    -68291.11906     -1275.49006        36.60006
E27  23516190.18007     27156.20307     -1103.18107        45.00007  23516205.77025     27996.17525      -826.44925        30.10025
C21  22392018.82807   -131774.23407     -2914.92007        43.00007  22392029.62025    -91578.21225     -2201.43625        30.10025
E29  23776323.69407    115238.41207       -21.24407        42.40007  23776342.88025  -1996299.33925       -15.64125        33.00025
R08  19274385.02106-103309427.72506     -2172.90906        41.40006
C10  38592197.37827    428440.18627      -313.09727        41.90027                                                                
E07  24348462.31027    312403.25127     -2355.52527        41.70027  24348476.70005   1720248.17705     -1757.50205        34.40005
C26  22049291.59316     17711.82316      -973.15816        41.00016  22049301.48625   4828648.27525      -733.80425        31.30025
R11  19608608.04326-104878226.07626     -1178.87826        38.90026
C05  37383114.90826   7204096.37826     -1272.54526        36.20026                                                                
C24  24468861.66025    172052.02725       909.79225        33.50025  24468861.66024   1719528.07224       688.04024        25.20024
C14  24390616.72725    235947.14125      1351.93225        30.90025                                                                
C07  38659448.62126     72939.45326      -520.60626        38.80026                                                                
E19  26262104.72325    292879.61025      1191.55525        30.50025                                                                
E21  25637780.03425   1496006.96825      1251.58825        30.00025  25637786.92924   5415384.25724       955.69624        24.60024
R07  22312488.68625-119536436.85725     -5137.26825        31.90025
C09  39222712.48126     10174.01826     -1279.25426        37.00026                                                                
R12  22791966.85025-121846332.83225      1772.37025        34.30025
R01  20648909.45724-110476059.21724      1807.44624        24.50024
R10  21113300.86624-112641309.70624     -4202.40424        25.20024
E30  25670447.51924   -155231.61724     -3438.50724        27.80024                                                                
> 2025 09 29 13 23 04.9999999  0 30                      
G14  20221108.91807     -2318.32507      -514.45007        46.20007  20221124.20725      5577.79125      -384.05325        31.20025
G07  22473744.05107   -177217.30407     -2584.82807        46.00007                                                                
G30  21019588.44207   -103083.28707     -1704.22507        45.20007  21019603.13206    -69564.51706     -1272.96106        36.50006
G22  20723001.96406   1897515.37106       387.77506        40.80006                                                                
G13  22179304.08725    171812.79125      1581.12125        33.50025                                                                
G21  21577293.85025    725210.78725     -2875.63225        31.40025  21577295.94924   5019006.75024     -2149.53824        27.70024
G05  22277876.14725    -51807.78725     -1224.99225        31.70025                                                                
G17  23602749.55625    224368.61525      1760.33725        30.30025                                                                
G08  24379613.44523   1937177.55323     -3138.32023        18.50023                                                                
G09  23271583.51825   -319400.64425     -4294.07425        30.00025  23271616.49525   3502473.47325     -3208.64325        32.20025
E27  23516163.19907     26055.95007     -1099.77807        45.10007  23516180.28725     27170.16225      -826.87625        29.90025
C21  22392340.50507   -134685.18707     -2909.93107        43.00007  22392350.39825    -93772.75225     -2192.56425        30.90025
E29  23776098.84907    115218.85707       -19.37707        42.30007  23776109.04225  -1996314.12725       -14.79725        32.50025
R08  19274552.30507-103311598.37907     -2169.70907        41.50007
E07  24348675.46317    310053.69717     -2348.50217        41.50017  24348686.55515   1718492.91015     -1754.81715        34.30015
C26  22049237.03126     16743.92926      -966.45826        40.50026  22049251.42125   4827917.15725      -730.62825        30.90025
R11  19608589.15616-104879397.43416     -1178.82816        38.50016
C05  37383125.40126   7202808.49926     -1295.54426        36.10026                                                                
C24  24468439.85225    172965.77725       914.69325        33.50025  24468441.05124   1720213.61524       683.07724        24.70024
C10  38592012.70616    428131.09816      -308.10716        41.00016                                                                
C14  24390117.27325    237301.36025      1354.50825        31.60025                                                                
E19  26261623.25725    294076.33725      1198.41825        31.10025                                                                
R12  22791401.74125-121844584.81425      1768.13525        33.70025
C07  38659306.51926     72421.40626      -517.34326        37.60026                                                                
E21  25637314.75625   1497263.57425      1258.03225        30.30025  25637312.65824   5416328.94724       940.77224        27.80024
R07  22313238.46625-119541724.85725     -5125.42025        31.60025
C09  39222700.48926      8892.08126     -1284.41526        35.80026                                                                
E30  25670850.14024   -158671.87324     -3441.94024        27.60024                                                                
R01  20648353.04324-110474356.63324      1804.33124        24.50024
R10  21113884.26224-112645687.67624     -4199.99524        24.60024
> 2025 09 29 13 23 05.9999999  0 30                      
G14  20220969.81407     -2829.74207      -509.73607        46.70007  20220984.50425      5195.13625      -381.55925        30.80025
G07  22473997.67507   -179799.47507     -2580.39307        45.90007                                                                
G30  21019678.37907   -104784.94807     -1700.07307        45.10007  21019688.57216    -70834.18516     -1267.80216        36.40016
G22  20722687.78206   1897906.25106       392.64006        40.90006                                                                
G13  22178780.65025    173400.61225      1591.32825        33.40025                                                                
G21  21577597.54025    722335.99225     -2873.79725        31.60025  21577608.63224   5016859.62624     -2145.36024        27.40024
G05  22277892.33625    -53028.86825     -1218.98525        31.70025                                                                
G17  23602163.46225    226131.20025      1764.11225        30.30025                                                                
G09  23272162.71725   -323690.76225     -4288.07625        29.50025  23272195.99425   3499269.37025     -3201.46625        31.80025
G08  24379984.58823   1934044.59623     -3130.11823        18.60023                                                                
E27  23516132.32007     24959.10107     -1095.14507        45.10007  23516146.71024     26345.50324      -823.98124        29.20024
C21  22392659.78407   -137592.84807     -2906.01307        42.90007  22392669.97725    -95965.58925     -2191.98425        34.10025
E29  23775861.71307    115202.67307       -14.49807        42.30007  23775873.10626  -1996325.51626        -9.68826        35.60026
R08  19274718.69007-103313764.43607     -2165.16007        41.60007
E07  24348876.02426    307708.13926     -2343.30826        41.30026  24348894.91115   1716740.14415     -1751.51315        35.40015
C26  22049183.06816     15778.65416      -963.96416        40.10016  22049196.25925   4827191.93725      -722.27025        30.60025
R11  19608564.87316-104880539.73716     -1173.25716        38.20016
C05  37383133.19526   7201513.06426     -1299.21226        36.10026                                                                
C10  38591835.22816    427825.39516      -304.01016        39.90016                                                                
C24  24468029.73525    173883.76725       920.10925        33.40025  24468041.72724   1720902.50524       690.56224        24.50024
R12  22790835.13325-121842829.15825      1779.79025        33.40025
C07  38659153.92526     71907.58126      -511.71526        36.60026                                                                
C14  24389628.31225    238659.96825      1360.80025        31.60025                                                                
E19  26261146.88625    295277.88425      1203.95725        31.20025                                                                
E21  25636790.71925   1498523.25725      1261.22025        30.30025  25636829.99224   5417269.15724       937.96924        27.40024
R07  22313942.97925-119546770.83325     -5126.18425        31.30025
C09  39222731.06825      7613.88525     -1276.32425        34.60025                                                                
R01  20647739.06824-110472346.57624      1804.49324        24.50024
R10  21114365.12924-112649520.30624     -4194.01524        24.30024
E30  25671258.15824   -162111.11524     -3438.73224        27.50024                                                                
> 2025 09 29 13 23 06.9999999  0 30                      
G14  20220845.70007     -3341.08007      -511.29807        46.70007  20220862.18825      4814.17725      -380.11125        30.60025
G30  21019775.21207   -106486.73707     -1701.85207        45.10007  21019791.40126    -72107.75126     -1275.51426        36.00026
G13  22178255.11315    174987.69915      1586.72015        34.50015                                                                
G22  20722396.68306   1898297.41506       391.30606        41.10006                                                                
G21  21577921.31625    719462.29225     -2873.15025        31.60025  21577936.60524   5014712.20424     -2147.57024        27.20024
G05  22277907.92525    -54251.77125     -1223.81425        31.70025                                                                
G17  23601593.85725    227895.59025      1765.29125        30.20025                                                                
G09  23272759.30424   -327983.20624     -4293.60324        29.10024  23272796.47825   3496062.80025     -3207.80125        31.30025
G08  24380357.53023   1930915.48423     -3127.18723        18.50023                                                                
G07  22474266.28907   -182382.07807     -2582.81807        45.80007                                                                
E27  23516123.02707     23862.06907     -1097.12307        45.10007  23516138.01624     25525.65324      -817.44524        29.10024
C21  22392998.25007   -140500.65307     -2907.87407        42.80007  22393008.44325    -98157.03925     -2190.75625        33.70025
E29  23775642.86507    115186.27107       -16.51107        42.40007  23775656.65525  -1996337.42925       -12.17625        35.30025
R08  19274895.56707-103315887.59107     -2167.32107        41.60007
C26  22049150.99026     14812.75126      -966.21526        39.90026  22049164.18125   4826460.53325      -734.49525        30.30025
E07  24349102.66726    305362.00126     -2346.42626        40.40026  24349122.15305   1714987.52905     -1752.53905        35.20005
R11  19608563.67406-104881708.04006     -1176.71906        38.00006
C10  38591679.93616    427520.44616      -304.57216        39.10016                                                                
C05  37383143.08916   7200239.33516     -1262.87416        35.90016                                                                
C24  24467624.11625    174800.86825       916.65525        33.30025  24467649.59924   1721591.46124       688.98824        24.30024
C07  38659046.59926     71392.08126      -516.33626        35.90026                                                                
R12  22790281.71625-121841048.28225      1775.41425        33.20025
C14  24389144.44725    240017.57525      1357.10625        31.80025                                                                
E21  25636355.72025   1499783.32225      1260.25625        30.80025  25636371.90924   5418204.73224       933.25624        26.80024
E19  26260710.68825    296481.45725      1204.58525        31.20025                                                                
R07  22314694.55825-119551969.22725     -5122.91525        31.10025
C09  39222761.94725      6343.78425     -1266.05325        33.60025                                                                
E30  25671705.74824   -165550.55824     -3439.54124        27.30024                                                                
R01  20647222.22524-110470759.49024      1801.92424        24.40024
R10  21114983.60124-112653988.27924     -4191.33224        24.00024
> 2025 09 29 13 23 07.9999999  0 30                      
G14  20220704.79727     -3851.96927      -510.66427        46.60027  20220722.18525      4431.94425      -382.87125        30.60025
G07  22474520.21307   -184963.23107     -2580.42707        45.70007                                                                
G30  21019865.15017   -108186.80917     -1699.21217        45.00017  21019878.64126    -73377.78126     -1268.26026        35.90026
G22  20722078.00406   1898688.90006       391.64506        41.20006                                                                
G13  22177678.31326    176574.96326      1587.35026        37.90026                                                                
G21  21578246.89125    716587.40625     -2875.47725        31.60025  21578249.28924   5012566.17724     -2145.32724        27.10024
G05  22277897.43325    -55476.72625     -1225.97925        31.60025                                                                
G17  23601014.05825    229660.31525      1764.89225        30.20025                                                                
G09  23273361.88724   -332273.74224     -4289.58024        28.70024  23273369.68125   3492862.38025     -3197.34425        30.80025
G08  24380712.18423   1927790.69123     -3122.63123        18.50023                                                                
E27  23516091.84807     22765.88807     -1095.75507        45.00007  23516108.33724     24706.96124      -818.11224        28.90024
C21  22393317.22907   -143407.55507     -2906.44807        42.80007  22393327.42225   -100346.70525     -2188.77225        33.80025
E29  23775407.52807    115170.87007       -14.90007        42.50007  23775420.41925  -1996349.07625       -11.51225        34.90025
R08  19275077.84117-103318138.69817     -2166.46817        41.50017
C26  22049098.82726     13849.38326      -962.10026        39.80026  22049111.11825   4825728.57425      -732.23725        29.80025
R11  19608550.18306-104882907.69006     -1174.96406        37.90006
E07  24349324.81316    303015.17516     -2346.41816        39.90016  24349329.61015   1713235.95915     -1751.04715        34.70015
C10  38591500.36006    427216.57806      -303.32606        38.70006                                                                
C05  37383150.28426   7198982.77126     -1247.98126        35.80026                                                                
C07  38658920.98626     70878.48826      -512.63926        35.60026                                                                
C14  24388645.89215    241377.37515      1360.89615        32.40015                                                                
C24  24467215.19925    175723.80425       925.85425        33.30025  24467233.18724   1722284.23224       694.67924        27.60024
R12  22789719.30625-121839314.02825      1776.19525        33.00025
E21  25635878.15125   1501046.42725      1264.62325        31.00025  25635894.93924   5419148.45024       947.79024        26.50024
E19  26260244.81125    297685.84925      1204.80025        31.10025                                                                
R07  22315407.16525-119557058.09325     -5125.79625        30.90025
C09  39222756.25125      5074.55125     -1268.79725        32.60025                                                                
R01  20646596.25924-110468685.18324      1810.49924        24.40024
R10  21115464.76824-112657822.43724     -4191.06524        23.80024
E30  25672097.57724   -168979.89724     -3424.28424        27.20024                                                                
> 2025 09 29 13 23 08.9999999  0 30                      
G14  20220584.28117     -4360.81117      -507.81817        46.50017  20220600.47025      4052.45825      -378.11125        30.50025
G07  22474794.22427   -187541.64727     -2577.79527        45.60027                                                                
G22  20721787.50507   1899082.00107       393.90807        41.50007                                                                
G13  22177165.66826    178163.49226      1589.16126        37.60026                                                                
G21  21578569.16725    713714.23925     -2872.30625        31.60025  21578576.66224   5010418.68224     -2148.22824        27.00024
G05  22277909.12425    -56696.07325     -1216.54325        31.60025                                                                
G17  23600446.25125    231423.96025      1763.10325        30.20025                                                                
G09  23273969.56624   -336563.96424     -4290.06124        28.50024  23273968.66725   3489664.31725     -3196.88125        30.20025
G08  24381106.41123   1924669.00323     -3120.13323        18.40023                                                                
G30  21019965.58107   -109885.19807     -1697.54507        44.90007  21019981.76916    -74646.06316     -1267.40716        37.40016
C21  22393653.89607   -146312.77407     -2904.37607        43.00007  22393665.58825   -102536.82125     -2190.33925        33.50025
E29  23775194.37507    115157.71707       -12.03107        42.50007  23775204.56825  -1996358.82625        -8.80225        34.40025
C26  22049064.35016     12886.13516      -963.18916        40.10016  22049074.84324   4825005.96024      -717.94024        28.70024
R11  19608547.48506-104884066.81606     -1172.71006        37.90006
E27  23516088.55107     21671.73807     -1093.13307        44.50007  23516093.34724     23889.55724      -816.76024        28.50024
E07  24349552.65526    300670.41626     -2343.97426        39.40026  24349553.85525   1711490.43825     -1742.49525        33.70025
C10  38591337.27306    426914.98206      -300.46106        38.30006                                                                
C05  37383167.97126   7197727.42326     -1254.73926        35.80026                                                                
C07  38658798.97025     70367.00225      -510.43225        35.40025                                                                
R08  19275267.61026-103320331.57726     -2162.01126        40.00026
R12  22789153.89715-121837468.94715      1779.61015        33.00015
C14  24388172.51905    242738.59605      1361.93105        32.90005                                                                
C24  24466823.67025    176644.44025       919.48425        33.10025  24466833.26424   1722980.50824       698.02724        26.80024
E21  25635415.27125   1502310.15825      1264.04425        31.20025  25635434.15824   5420093.44724       945.63424        26.90024
E19  26259792.42425    298889.23125      1202.87625        31.00025                                                                
R07  22316161.74325-119562274.10125     -5118.34725        30.60025
C09  39222771.54025      3806.60225     -1267.30725        31.80025                                                                
E30  25672516.38724   -172410.60424     -3431.38924        27.20024                                                                
R01  20646026.65324-110466814.33324      1818.47224        24.80024
R10  21116041.86824-112662069.98524     -4189.31924        23.60024
> 2025 09 29 13 23 09.9999999  0 30                      
G14  20220443.07907     -4867.43407      -505.51307        46.30007  20220462.56525      3670.82025      -382.71525        30.30025
G07  22475053.84427   -190118.28627     -2575.49927        45.50027                                                                
G30  21020052.52007   -111580.78707     -1694.18807        44.70007  21020065.41216    -75912.30216     -1265.21816        36.70016
G22  20721473.62207   1899477.22207       396.28107        41.80007                                                                
G13  22176627.54016    179757.14716      1596.21716        37.30016                                                                
G21  21578873.75725    710841.90025     -2871.92225        31.60025  21578881.55124   5008275.63224     -2140.82624        26.40024
G05  22277915.72025    -57913.50325     -1216.46925        31.50025                                                                
G17  23599874.54725    233194.94025      1774.64725        30.10025                                                                
G08  24381458.66723   1921548.75623     -3119.52423        18.50023                                                                
G09  23274535.27524   -340848.94424     -4282.35524        28.20024  23274544.56825   3486461.51125     -3205.17525        29.70025
C21  22393973.17507   -149215.22907     -2901.07007        43.30007  22393984.26725   -104723.26525     -2184.60825        33.20025
E29  23774954.54107    115146.80807        -9.78607        42.50007  23774968.33225  -1996366.84225        -7.14925        33.90025
C26  22049007.09006     11925.76506      -958.92806        40.20006  22049019.68124   4824284.75524      -720.50024        28.50024
R11  19608526.50006-104885228.23306     -1169.65706        38.00006
E07  24349750.81816    298329.33416     -2339.99116        38.90016  24349760.41225   1709744.04325     -1746.83025        33.70025
C05  37383171.26916   7196473.09316     -1253.82116        35.90016                                                                
C10  38591159.49626    426616.04026      -297.61326        38.00026                                                                
E27  23516045.98027     20579.24327     -1091.66727        42.60027  23516064.26724     23076.88824      -810.30124        28.30024
R08  19275421.10416-103322430.20916     -2162.65916        39.20016
C07  38658664.36425     69859.46825      -505.55925        35.20025                                                                
C14  24387669.76805    244103.55905      1366.83305        33.20005                                                                
R12  22788588.48815-121835720.93115      1782.67415        33.10015
C24  24466415.05315    177569.27315       926.93115        33.00015  24466418.65124   1723679.54624       700.41924        26.40024
E21  25634929.00825   1503574.44325      1264.56125        31.20025  25634954.19024   5421038.09424       944.47324        27.30024
E19  26259299.56525    300098.01725      1211.48825        30.90025                                                                
R07  22316862.05825-119567299.39325     -5118.02525        30.40025
C09  39222791.62625      2543.96325     -1259.98325        31.10025                                                                
E30  25672946.58924   -175840.77924     -3429.90724        27.10024                                                                
R01  20645433.66424-110464919.00324      1817.31624        25.10024
R10  21116602.78023-112666329.73323     -4182.31623        23.40023
> 2025 09 29 13 23 10.9999999  0 30                      
G14  20220316.56607     -5370.46107      -501.22907        46.10007  20220332.15525      3289.72625      -380.82025        31.10025
G22  20721181.32507   1899876.29607       401.00007        42.00007                                                                
G30  21020165.24207   -113270.67407     -1687.03607        43.80007  21020170.33926    -77175.45026     -1261.60126        36.40026
G07  22475325.75627   -192691.42127     -2571.38127        44.30027                                                                
G13  22176111.89706    181354.68406      1599.47706        37.10006                                                                
G21  21579193.33525    707973.66525     -2866.18025        32.20025  21579212.82224   5006135.92324     -2138.03624        26.30024
G17  23599325.02725    234969.73225      1776.69725        30.00025                                                                
G09  23275112.67524   -345130.08924     -4279.22524        28.00024  23275138.45724   3483251.87224     -3213.05324        29.10024
G08  24381813.02223   1918432.72023     -3113.93023        18.80023                                                                
G05  22277919.31725    -59130.18625     -1216.30925        31.40025                                                                
C05  37383196.15206   7195221.07106     -1250.86606        40.80006                                                                
C21  22394311.04107   -152114.19107     -2897.21307        43.40007  22394322.43325   -106908.74625     -2184.99725        33.00025
E29  23774733.29507    115140.51707        -3.98107        42.40007  23774750.08325  -1996371.59725        -3.12425        33.50025
C26  22048966.31806     10968.83606      -955.20906        40.10006  22048984.30624   4823564.21124      -720.21324        28.40024
R11  19608525.90006-104886398.82906     -1166.02906        38.30006
E27  23516037.58617     19490.23817     -1087.25817        41.70017  23516052.87524     22266.25324      -809.61824        28.20024
C10  38590995.81016    426321.28016      -292.66916        37.70016                                                                
E07  24349966.36926    295991.54726     -2335.88926        38.50026  24349986.45525   1707999.16525     -1744.12025        33.80025
R08  19275595.58306-103324541.86906     -2157.26206        38.50006
C14  24387183.20405    245471.65305      1369.65805        33.80005                                                                
C07  38658547.44525     69353.79625      -504.74025        35.00025                                                                
R12  22788040.16815-121833966.04115      1787.29715        33.30015
C24  24466014.23125    178497.77925       930.34225        32.90025  24466019.92724   1724385.47124       709.36824        25.90024
E21  25634470.62525   1504844.55625      1273.02625        31.20025  25634495.20824   5421985.09424       948.17524        28.00024
E19  26258877.45725    301311.56925      1215.93325        30.80025                                                                
R07  22317566.87025-119572248.09625     -5114.19525        30.20025
C09  39222835.99625      1285.56125     -1256.28225        30.60025                                                                
E30  25673404.97224   -179262.90424     -3418.09724        27.10024  25673383.98624   5965152.87824     -2562.58824        23.70024
R01  20644912.92424-110463309.73724      1818.99024        25.10024
R10  21117211.65923-112670747.36823     -4180.54123        23.20023
> 2025 09 29 13 23 11.9999999  0 30                      
G14  20220168.46907     -5869.01307      -496.31507        45.90007  20220189.75425      2918.19525      -366.75025        33.90025
G22  20720869.24107   1900279.24807       404.89107        42.10007                                                                
G07  22475572.48517   -195259.53317     -2565.59917        43.40017                                                                
G13  22175570.17226    182956.61926      1604.13326        36.90026                                                                
G30  21020246.18607   -114956.82607     -1684.28307        42.50007  21020250.68326    -78435.87426     -1259.06026        35.90026
G21  21579505.41925    705108.95625     -2862.94425        32.20025  21579517.71124   5004000.80724     -2132.81724        26.30024
G17  23598748.22725    236752.13125      1786.20125        29.90025                                                                
G08  24382152.98723   1915321.19723     -3109.26323        18.80023                                                                
G09  23275701.16724   -349407.16524     -4275.03824        27.90024  23275720.65424   3480050.52724     -3197.19624        28.50024
G05  22277895.33425    -60343.31325     -1211.34825        31.40025                                                                
C05  37383194.05307   7193973.24307     -1245.73007        44.90007                                                                
C21  22394629.12107   -155009.67407     -2893.74207        43.30007  22394639.61425   -109092.42825     -2182.78025        32.50025
E29  23774489.86307    115138.52207         0.15207        42.40007  23774512.94725  -1996371.87725         1.95625        33.20025
C26  22048918.65106     10016.84706      -949.51806        40.10006  22048926.44624   4822843.41724      -720.91924        27.70024
E27  23516004.30906     18406.44806     -1081.18206        41.20006  23516019.59824     21453.62724      -813.62124        27.90024
R11  19608512.40906-104887599.23706     -1161.22806        38.30006
R08  19275765.86506-103326727.84506     -2154.74206        38.30006
E30  25673789.60525   -182685.07625     -3422.19425        30.30025  25673795.00224   5962599.52324     -2548.73624        26.80024
E07  24350182.81916    293659.04516     -2329.85616        38.10016  24350193.01215   1706257.18415     -1740.52915        34.20015
C10  38590797.94726    426030.79426      -288.34926        37.50026                                                                
C14  24386689.14605    246843.02105      1373.00505        34.40005                                                                
C07  38658396.34915     68853.08915      -498.22515        34.90015                                                                
R12  22787491.84825-121832308.97725      1790.68025        33.40025
C24  24465611.31025    179425.79725       927.77325        32.70025  24465604.71424   1725094.88624       711.15924        25.50024
E21  25633985.86125   1506118.93425      1276.50925        31.40025  25634016.44024   5422938.07124       955.96524        28.00024
E19  26258418.47525    302527.12525      1216.55825        30.60025                                                                
R07  22318315.15225-119577528.44225     -5111.14225        30.00025
C09  39222800.62025        29.55325     -1254.81025        30.10025                                                                
R01  20644374.49724-110461705.05524      1823.66424        25.20024
R10  21117763.57623-112674958.30323     -4177.85023        23.10023
> 2025 09 29 13 23 12.9999999  0 30                      
G14  20220046.45307     -6359.36807      -486.25507        45.70007  20220062.64225      2554.78625      -359.34725        33.30025
G22  20720570.34807   1900691.10207       416.30407        42.20007                                                                
G07  22475836.00307   -197817.60907     -2553.05607        42.90007                                                                
G13  22175048.83326    184567.90426      1615.95826        36.80026                                                                
G21  21579837.29015    702254.64015     -2849.11915        32.20015  21579845.68424   5001869.52924     -2129.35824        26.80024
G05  22277915.72025    -61544.24325     -1194.83125        31.40025                                                                
G17  23598195.10925    238544.71325      1797.67225        29.80025                                                                
G09  23276300.75224   -353675.84924     -4264.48424        27.70024  23276283.66424   3476856.50124     -3190.36324        27.60024
G08  24382505.24323   1912220.43923     -3095.37423        18.90023                                                                
G30  21020347.51616   -116633.47516     -1671.89716        41.30016  21020352.91226    -79690.33926     -1251.48526        35.60026
C05  37383217.13707   7192734.67107     -1233.94307        44.70007                                                                
C21  22394965.18807   -157896.75907     -2882.88307        43.30007  22394975.98125   -111268.67325     -2172.52525        32.30025
C26  22048878.77906      9073.71906      -938.69606        40.00006  22048889.87124   4822132.92324      -705.34324        27.60024
E27  23515985.42206     17331.51706     -1070.50106        40.90006  23516006.40824     20645.24224      -806.26324        27.70024
R08  19275953.83506-103328911.52206     -2142.57906        38.30006
R11  19608504.61506-104888732.36306     -1150.51706        38.50006
C10  38590638.45726    425750.59326      -275.05826        37.30026                                                                
E07  24350406.46406    291334.90906     -2319.20206        37.90006  24350415.45805   1704521.97605     -1731.82005        34.50005
C14  24386193.88925    248226.00325      1388.78825        34.40025                                                                
C07  38658267.13925     68362.54025      -485.46825        34.80025                                                                
R12  22786902.15615-121830331.66015      1803.29515        33.40015
E30  25674219.20825   -186098.07125     -3408.40425        34.30025  25674224.30424   5960055.72824     -2539.01324        26.20024
E21  25633534.37325   1507402.56125      1288.25225        31.70025  25633549.06324   5423902.56524       970.25124        27.30024
C24  24465191.90025    180367.00425       947.80125        32.60025  24465205.69124   1725807.23724       713.81924        25.10024
E29  23774281.50726    115146.76026        13.35426        41.10026  23774292.90025  -1996365.94425         9.04125        32.80025
E19  26257939.70725    303752.87325      1230.84325        30.50025                                                                
R07  22319066.13225-119582724.53025     -5098.09625        29.80025
C09  39222831.79925     -1218.50625     -1244.08525        29.60025                                                                
R01  20643759.02324-110459588.68324      1836.94524        25.20024
R10  21118285.81523-112678913.73023     -4169.18323        22.90023
> 2025 09 29 13 23 14.0000001  0 30                      
G14  20219976.60107     -6838.26607      -473.16907        45.60007  20219994.58925      2196.78325      -355.30025        33.00025
G22  20720327.81607   1901114.52207       429.20307        42.30007                                                                
G07  22476158.57907   -200364.08307     -2540.67007        42.60007                                                                
G13  22174591.35026    186189.88126      1627.32326        36.60026                                                                
G21  21580212.63025    699415.82925     -2831.05525        32.20025  21580224.92124   4999744.53324     -2121.85324        28.30024
G05  22277987.37025    -62736.02925     -1187.21325        31.60025                                                                
G17  23597684.26325    240349.02825      1810.18025        29.70025                                                                
G09  23276941.70924   -357927.55924     -4243.22024        27.60024  23276960.59524   3473672.35024     -3179.21324        27.10024
G08  24382917.75723   1909133.08923     -3080.64323        18.90023                                                                
G30  21020499.51106   -118299.11706     -1660.13706        40.30006  21020510.00425    -80935.40525     -1240.36525        35.20025
C21  22395354.91807   -160771.43107     -2868.46407        43.50007  22395364.81225   -113435.43925     -2162.02625        34.40025
C05  37383285.19027   7191508.33627     -1220.21627        44.50027                                                                
E27  23516026.79306     16268.07306     -1057.70006        40.80006  23516046.58024     19849.03424      -790.12024        27.70024
C26  22048897.06606      8141.90906      -926.15106        40.00006  22048909.05824   4821431.69224      -696.59924        27.60024
R08  19276189.47206-103331028.54006     -2129.84606        39.50006
R11  19608559.17706-104889876.95806     -1136.44206        38.60006
C10  38590532.63016    425480.83316      -264.54016        37.30016                                                                
E07  24350674.47926    289021.94426     -2307.62826        37.70026  24350695.16506   1702795.53606     -1722.05606        37.30006
E30  25674697.37715   -189501.93615     -3398.54715        34.30015  25674713.26624   5957519.14624     -2532.97424        25.90024
C07  38658200.58525     67884.02425      -472.50125        34.60025                                                                
C14  24385754.09425    249618.71625      1397.57725        34.30025                                                                
E29  23774117.82116    115165.52016        24.02216        39.90016  23774126.51525  -1996351.31325        18.97925        32.10025
R12  22786383.81505-121828417.01505      1816.50205        33.40005
E21  25633142.84425   1508698.47625      1302.05725        31.90025  25633147.34124   5424879.32924       982.89924        27.30024
C24  24464856.13325    181320.85825       960.17725        32.40025  24464862.42824   1726526.95324       723.39824        25.00024
E19  26257531.38925    304992.24825      1246.18825        30.40025                                                                
R07  22319848.29125-119587766.67325     -5087.49025        29.60025
C09  39222913.94224     -2453.22024     -1228.04024        29.30024                                                                
R01  20643279.35524-110457879.21724      1847.72524        25.50024
R10  21118903.38723-112683057.54623     -4154.50323        22.80023
> 2025 09 29 13 23 14.9999998  0 30                      
G14  20219740.96507     -7307.89307      -464.99207        45.50007  20219756.55425      1846.41425      -346.55125        32.70025
G22  20719916.80007   1901546.45307       436.18707        42.90007                                                                
G07  22476315.67007   -202900.79807     -2531.83407        42.40007                                                                
G13  22173950.69316    187822.48616      1637.91716        36.50016                                                                
G30  21020483.62206   -119955.82206     -1652.23506        39.50006  21020497.11325    -82171.09925     -1231.00725        34.70025
G21  21580411.09225    696582.36925     -2830.78325        32.50025  21580442.87024   4997628.44324     -2111.63624        28.10024
G17  23597003.13525    242156.17725      1808.56525        29.60025                                                                
G09  23277429.77124   -362169.63824     -4237.26124        27.40024  23277438.46524   3470495.21024     -3173.63224        26.50024
G08  24383171.68123   1906059.64323     -3066.49223        18.80023                                                                
G05  22277888.73925    -63919.39925     -1179.16025        31.70025                                                                
C21  22395579.16307   -163637.07007     -2861.12007        44.30007  22395589.05625   -115594.53325     -2155.25525        34.20025
C05  37383199.45017   7190291.43317     -1212.18617        44.10017                                                                
E27  23515900.58106     15214.06506     -1049.28906        40.80006  23515919.46825     19062.00225      -782.44225        30.60025
R08  19276256.92506-103333146.32206     -2121.87306        40.10006
C26  22048750.16826      7219.91226      -917.08926        40.00026  22048761.56024   4820734.59324      -695.03324        27.50024
R11  19608444.35606-104891016.19806     -1129.67406        38.80006
C10  38590253.82306    425220.64306      -255.40506        37.80006                                                                
E07  24350790.79816    286722.55016     -2293.35616        37.50016  24350806.38806   1701076.27306     -1715.67406        37.00006
E30  25675012.45905   -192895.59905     -3388.80905        34.70005  25675031.34625   5954984.69825     -2533.37825        32.80025
C07  38657964.94825     67413.84525      -466.00825        34.60025                                                                
E29  23773779.65526    115193.35726        32.37526        38.90026  23773795.54425  -1996331.55225        22.32625        31.70025
C14  24385164.10225    251016.06325      1399.66225        34.20025                                                                
R12  22785722.77225-121826637.20525      1825.06825        33.40025
E21  25632550.75425   1510004.18325      1310.60225        31.90025  25632572.04024   5425851.46424       969.81924        27.20024
C24  24464365.07225    182284.90925       969.14925        32.20025  24464350.08325   1727253.12825       729.40425        33.00025
E19  26257007.35225    306240.69325      1252.97925        30.20025                                                                
R07  22320496.44224-119592992.63324     -5075.83224        29.40024
C09  39222823.10524     -3676.46324     -1217.50724        29.10024                                                                
R01  20642580.23924-110455894.39824      1860.75424        25.50024
R10  21119427.42523-112687598.73123     -4145.18723        22.80023
> 2025 09 29 13 23 16.0000001  0 30                      
G14  20219695.99607     -7770.42907      -458.99007        45.40007  20219716.68125      1500.68225      -343.41425        32.50025
G22  20719699.75007   1901986.24707       443.72407        43.30007                                                                
G07  22476663.72907   -205429.90607     -2525.30207        42.30007                                                                
G30  21020669.19406   -121605.06206     -1645.50606        39.00006  21020678.48725    -83402.57825     -1229.37125        34.10025
G21  21580826.60515    693755.33715     -2823.81615        32.90015  21580843.99325   4995518.71925     -2106.53925        31.40025
G05  22277977.17725    -65093.57425     -1169.57825        31.70025                                                                
G17  23596513.57425    243968.58925      1815.04225        29.50025                                                                
G09  23278109.10024   -366408.35324     -4237.02924        27.30024  23278115.99624   3467319.73124     -3174.64624        26.10024
G08  24383647.45223   1902997.78923     -3056.05523        18.70023                                                                
G13  22173510.59807    189462.58707      1643.84807        42.70007                                                                
C21  22395997.97307   -166495.75907     -2855.21207        44.30007  22396010.26525   -117752.15925     -2156.89025        34.00025
C05  37383299.28007   7189082.13707     -1205.49207        43.80007                                                                
E27  23515974.92906     14167.25906     -1043.20406        41.30006  23515990.81825     18278.52025      -781.70625        30.10025
R08  19276519.54306-103335248.02106     -2115.93106        40.50006
C26  22048793.93816      6304.97216      -911.41216        40.00016  22048806.52924   4820037.62224      -696.90524        27.60024
R11  19608524.70106-104892140.15506     -1123.04406        38.90006
C10  38590171.08006    424968.24006      -248.50906        38.40006                                                                
E07  24351097.78616    284426.69716     -2293.83116        37.40016  24351112.47606   1699362.46606     -1711.07706        36.80006
E30  25675543.39105   -196281.62805     -3382.21005        34.90005  25675546.08925   5952455.63825     -2526.36525        34.40025
E29  23773643.54926    115228.71826        39.12326        38.20026  23773656.44025  -1996309.67625        22.93425        30.70025
C07  38657924.17625     66952.14525      -457.46225        34.50025                                                                
R12  22785259.89315-121824858.62315      1828.45015        33.40015
E21  25632167.32025   1511314.41825      1312.49825        31.80025  25632194.60124   5426827.68624       978.26524        27.10024
C24  24464027.80625    183253.96725       971.56125        32.00025  24464035.60125   1727983.33225       732.21825        32.00025
C14  24384750.68825    252426.38425      1416.80825        33.90025                                                                
R07  22321310.37824-119598043.97024     -5074.93224        29.20024
C09  39222913.04224     -4894.95424     -1216.11324        28.80024                                                                
R01  20642099.67224-110454019.72324      1868.70924        25.50024
R10  21120009.02223-112691390.17823     -4138.85723        22.80023
E19  26256632.31225    307495.03425      1257.28625        30.10025                                                                
> 2025 09 29 13 23 17.0000000  0 30                      
G14  20219535.30707     -8230.71607      -459.16207        45.40007  20219555.39325      1154.00025      -347.15625        32.50025
G22  20719369.67907   1902428.19207       443.02007        43.30007                                                                
G13  22172936.19607    191104.85807      1643.35507        42.30007                                                                
G30  21020727.65306   -123251.96706     -1645.73706        38.70006  21020740.54425    -84631.02925     -1226.93625        33.50025
G21  21581114.10605    690930.49205     -2823.74905        33.30005  21581127.89626   4993409.78926     -2108.53226        35.50026
G05  22277953.49425    -66266.65325     -1172.52925        31.70025                                                                
G17  23595923.28224    245783.22824      1815.75224        29.40024                                                                
G09  23278655.62224   -370647.65624     -4239.59424        27.20024  23278681.70424   3464139.33224     -3182.85724        25.60024
G08  24383976.32423   1899940.72023     -3054.67523        18.60023                                                                
G07  22476890.97207   -207956.37207     -2525.14507        42.20007                                                                
C21  22396295.66707   -169351.72307     -2854.59907        44.20007  22396307.35925   -119906.38025     -2152.51825        34.70025
C05  37383282.19207   7187875.74007     -1204.94607        43.60007                                                                
E27  23515921.56607     13122.75107     -1043.35707        41.60007  23515938.65424     17495.72424      -782.45324        29.40024
R08  19276666.74106-103337374.24106     -2116.50806        40.70006
C26  22048716.89106      5392.48806      -911.25506        40.20006  22048731.58124   4819348.51724      -685.17224        28.00024
R11  19608480.93106-104893241.17306     -1123.10106        39.30006
C10  38589973.51706    424718.25006      -248.78306        38.50006                                                                
E07  24351291.15206    282134.33506     -2290.61506        37.40006  24351297.74716   1697650.55716     -1710.95916        36.50016
E29  23773383.92916    115266.30016        39.44216        37.80016  23773399.21825  -1996285.80325        24.87125        30.10025
E30  25675923.82805   -199665.23605     -3382.39505        35.30005  25675939.11715   5949928.81815     -2525.69915        34.70015
C07  38657768.28415     66491.13215      -460.66815        34.40015                                                                
R12  22784669.60105-121823041.06105      1832.08505        33.80005
E21  25631667.26625   1512625.77225      1311.91325        31.80025  25631691.84924   5427806.53924       980.16924        27.30024
C24  24463586.21225    184224.79225       971.70825        31.90025  24463596.10525   1728715.95325       733.82825        32.70025
C14  24384254.53225    253839.06825      1413.86425        33.30025                                                                
E19  26256143.05025    308752.96025      1259.71925        30.00025                                                                
C09  39222898.95224     -6113.36024     -1218.36324        28.70024                                                                
R07  22322023.58524-119603201.00824     -5073.23024        29.00024
R01  20641523.47124-110452276.60624      1866.54924        25.70024
R10  21120476.69823-112695215.95023     -4140.57423        22.80023
> 2025 09 29 13 23 18.0000000  0 30                      
G14  20219404.29807     -8693.57807      -464.14907        45.60007  20219420.78625       809.01225      -344.14125        33.60025
G30  21020823.28707   -124900.96107     -1650.03807        43.00007  21020834.37925    -85861.56525     -1231.57825        33.70025
G22  20719063.89107   1902867.40207       437.84407        43.30007                                                                
G13  22172408.26107    192746.36307      1641.12007        41.70007                                                                
G21  21581424.39116    688103.09416     -2828.67416        38.70016  21581451.07225   4991299.82825     -2110.47525        34.60025
G05  22277951.09525    -67443.52525     -1178.76925        31.60025                                                                
G17  23595393.84924    247598.03524      1814.89024        29.30024                                                                
G09  23279249.21124   -374889.49124     -4243.09824        27.10024  23279271.69624   3460958.22124     -3181.46524        25.10024
G08  24384336.97523   1896879.88423     -3062.71723        18.50023                                                                
G07  22477152.39107   -210484.95507     -2529.63907        42.20007                                                                
C21  22396623.64017   -172210.95417     -2860.86317        44.10017  22396637.43125   -122061.39925     -2155.41625        34.40025
C05  37383293.88407   7186667.60307     -1209.00607        43.40007                                                                
E27  23515904.47807     12075.91107     -1048.00707        41.90007  23515920.96724     16710.91624      -785.81424        29.10024
R08  19276849.91406-103339531.87906     -2121.63806        41.00006
C26  22048674.92006      4477.42906      -916.34606        40.70006  22048682.71524   4818663.03124      -683.67724        27.70024
R11  19608468.93906-104894352.13406     -1128.34506        39.60006
C10  38589798.73806    424466.42606      -252.74106        38.70006                                                                
E07  24351502.20606    279838.67406     -2296.56006        37.50006  24351515.99616   1695937.47216     -1713.67016        36.20016
E29  23773162.98206    115301.92906        34.40306        37.70006  23773174.07425  -1996267.59125        15.38225        29.60025
E30  25676350.13306   -203050.98606     -3386.81706        35.90006  25676363.62306   5947400.51506     -2529.04206        36.00006
R12  22784107.49105-121821212.03405      1826.34305        34.10005
C07  38657623.48425     66028.06225      -464.09925        34.40025                                                                
R01  20640944.27225-110450354.51125      1857.62025        29.80025
C24  24463169.50025    185194.83325       969.64925        31.90025  24463187.18825   1729445.88325       728.58525        31.90025
C14  24383760.47425    255249.13625      1408.75925        33.00025                                                                
E21  25631204.38625   1513936.26825      1310.06625        31.90025  25631222.07424   5428786.23624       980.11724        28.20024
E19  26255687.96525    310011.66125      1259.08825        29.90025                                                                
C09  39222937.02624     -7332.96924     -1220.21024        28.50024                                                                
R07  22322731.99424-119608168.86124     -5079.39124        28.80024
R10  21121128.14723-112699860.87523     -4144.48023        22.80023
> 2025 09 29 13 23 19.0000000  0 30                      
G14  20219274.48807     -9158.36607      -465.75007        45.60007  20219287.97825       460.86025      -349.73425        34.20025
G30  21020916.82207   -126551.75307     -1651.68907        43.90007  21020930.61325    -87095.38625     -1235.46225        33.70025
G22  20718766.79617   1903304.91417       436.66217        43.20017                                                                
G13  22171884.52406    194385.55306      1638.03106        41.30006                                                                
G21  21581735.87506    685274.32806     -2829.44706        38.60006  21581769.75225   4989186.64425     -2114.79425        33.90025
G05  22277953.19425    -68625.40225     -1184.37825        31.70025                                                                
G17  23594830.23924    249415.52924      1818.83724        29.20024                                                                
G09  23279841.00124   -379133.00224     -4244.34524        27.00024  23279861.98724   3457780.72124     -3175.69224        24.60024
G08  24384715.31323   1893813.40023     -3069.30523        18.40023                                                                
G07  22477415.60907   -213015.43307     -2531.42407        42.20007                                                                
C21  22396955.21107   -175070.76007     -2860.09107        44.00007  22396967.20225   -124218.32525     -2157.87725        33.90025
E27  23515878.09607     11027.05507     -1049.86307        42.10007  23515896.98325     15927.54625      -782.65025        31.20025
C05  37383302.87817   7185457.57717     -1210.97117        43.10017                                                                
C26  22048628.75206      3560.75206      -917.48506        41.20006  22048644.04124   4817971.75724      -694.16724        27.70024
R08  19277021.69606-103341628.21706     -2123.96806        41.10006
R11  19608461.14506-104895483.73806     -1130.19506        39.80006
C10  38589625.75806    424212.44506      -255.06006        38.90006                                                                
E07  24351722.85306    277541.73806     -2297.82006        37.90006  24351734.54526   1694220.03326     -1719.61626        36.00026
E29  23772929.14406    115336.02206        33.32406        37.60006  23772948.33024  -1996252.87724        12.96624        29.40024
E30  25676776.13806   -206438.97306     -3389.10406        36.30006  25676789.32905   5944870.49905     -2530.87105        35.30005
R12  22783546.27915-121819388.35715      1827.08115        34.30015
C07  38657492.77525     65562.87825      -466.24125        34.30025                                                                
C24  24462764.18115    186162.54015       966.53815        32.30015  24462785.76625   1730171.77125       723.86625        31.20025
E21  25630732.21325   1515246.16525      1309.59725        32.20025  25630753.79824   5429766.07824       979.91524        27.90024
C14  24383291.29925    256657.69925      1407.80925        32.90025                                                                
R01  20640344.98725-110448326.09825      1867.15725        31.10025
E19  26255195.10725    311268.31525      1255.62825        29.80025                                                                
C09  39222933.12824     -8550.70324     -1216.79724        28.40024                                                                
R07  22323485.67224-119613379.51124     -5080.94924        28.60024
R10  21121670.77223-112703923.85023     -4144.29223        22.90023
> 2025 09 29 13 23 19.9999999  0 30                      
G14  20219113.79917     -9621.91617      -462.93017        45.60017  20219128.78825       114.93525      -344.81025        34.00025
G30  21020979.17907   -128201.03007     -1648.51907        43.90007  21020994.16926    -88326.94526     -1230.42826        36.60026
G22  20718431.92807   1903744.07807       439.98907        43.20007                                                                
G13  22171316.71706    196026.78606      1642.25406        40.90006                                                                
G21  21582034.46806    682446.94406     -2826.69006        38.40006  21582050.35725   4987074.46325     -2111.67825        34.70025
G05  22277929.51025    -69801.28825     -1172.89025        31.70025                                                                
G17  23594255.23724    251231.78124      1815.62924        29.10024                                                                
G09  23280403.41224   -383376.14824     -4242.96124        26.90024                                                                
G08  24385067.86923   1890744.34823     -3070.33423        18.30023                                                                
G07  22477647.34907   -215544.00707     -2527.62007        42.30007                                                                
C21  22397254.10407   -177928.94307     -2857.37007        43.90007  22397266.09525   -126367.82225     -2145.78225        33.80025
E27  23515834.62607      9979.60907     -1047.49007        42.10007  23515845.41925     15147.72925      -778.03925        31.50025
C05  37383291.78607   7184249.84807     -1206.57907        43.00007                                                                
C26  22048557.40107      2645.53307      -914.49007        41.70007  22048571.49224   4817282.11624      -688.82424        27.80024
R08  19277163.49706-103343726.08606     -2120.92706        41.30006
R11  19608424.57006-104896622.98606     -1127.16706        40.00006
E07  24351895.53406    275247.05806     -2294.30206        38.60006  24351920.41625   1692505.63625     -1712.87525        35.10025
C10  38589422.49926    423960.41726      -251.05026        38.90026                                                                
E29  23772680.61606    115371.73206        36.51906        37.80006  23772689.01024  -1996229.27424        28.04724        29.30024
E30  25677168.86606   -209825.17806     -3385.31306        36.70006  25677182.95606   5942341.82606     -2527.99906        36.30006
R12  22782954.48905-121817560.85905      1826.45705        34.30005
C07  38657332.38615     65100.20615      -461.41515        34.20015                                                                
C14  24382748.67415    258068.48615      1411.89915        32.80015                                                                
C24  24462341.17405    187132.22305       970.67105        32.60005  24462352.86625   1730901.98625       732.37825        30.70025
E21  25630226.46325   1516558.80325      1314.00725        32.40025  25630252.54524   5430747.50924       982.22424        27.60024
R01  20639770.88425-110446592.92525      1862.21825        30.90025
E19  26254696.55225    312522.76925      1253.35425        29.70025                                                                
C09  39222915.74024     -9768.89924     -1218.42524        28.40024                                                                
R07  22324190.18524-119618488.28624     -5068.50324        28.40024
R10  21122164.83023-112707889.19523     -4140.94223        23.00023
> 2025 09 29 13 23 20.9999999  0 30                      
G14  20218979.19207    -10084.16107      -461.59307        45.60007  20218995.98025      -229.36225      -343.48325        33.80025
G30  21021073.91307   -129848.73607     -1646.91907        43.80007  21021089.20326    -89558.01426     -1230.82326        36.20026
G22  20718127.03907   1904184.25707       440.68707        43.10007                                                                
G07  22477906.66907   -218070.92507     -2526.08707        42.30007                                                                
G13  22170781.58706    197669.29606      1643.14706        40.60006                                                                
G21  21582352.54806    679620.77106     -2825.56606        38.30006  21582368.73726   4984964.51826     -2108.82626        36.00026
G05  22277939.10425    -70974.06625     -1171.22225        31.80025                                                                
G17  23593698.52224    253054.91524      1826.57324        29.00024                                                                
G09  23280984.11024   -387612.99024     -4233.68624        26.70024                                                                
G08  24385439.31223   1887674.49923     -3070.24523        18.20023                                                                
C21  22397583.87517   -180786.67017     -2857.49717        43.70017  22397595.56725   -128518.36325     -2151.06225        33.60025
E27  23515812.74207      8933.49707     -1045.19607        42.10007  23515825.93225     14366.99425      -781.19425        31.10025
C26  22048511.23307      1731.86007      -912.89907        42.00007  22048527.42224   4816593.58524      -687.97524        28.20024
C05  37383298.68107   7183043.65607     -1205.42307        42.80007                                                                
R08  19277344.57206-103345872.22806     -2120.00406        41.40006
R11  19608419.47406-104897770.64606     -1125.68406        40.30006
E07  24352121.27706    272953.43006     -2292.85006        39.00006  24352138.06625   1690793.45725     -1711.06925        35.00025
C10  38589259.41216    423711.39616      -247.51916        38.80016                                                                
E29  23772452.47406    115408.92306        37.93206        38.30006  23772464.16624  -1996196.68724        37.07924        29.30024
E30  25677591.57306   -213209.96606     -3384.07606        37.20006  25677607.76206   5939814.26806     -2526.99806        36.10006
R12  22782386.68205-121815702.02305      1829.17605        34.50005
C07  38657219.66425     64640.69625      -457.92825        34.10025                                                                
C14  24382258.81305    259479.71905      1411.45405        33.30005                                                                
C24  24461923.86215    188103.97015       972.77715        32.80015  24461946.34725   1731636.65725       736.89925        30.30025
E21  25629764.78315   1517873.44515      1315.64215        32.60015  25629775.87524   5431729.11224       981.68924        27.00024
R01  20639203.37725-110444732.78425      1861.45525        32.30025
E19  26254238.16925    313779.37025      1257.67325        29.50025                                                                
C09  39222926.23324    -10980.51324     -1208.32324        28.30024                                                                
R07  22324922.27824-119623582.51924     -5067.48424        28.20024
R10  21122778.50523-112712332.00023     -4139.90623        23.00023
> 2025 09 29 13 23 21.9999999  0 29                      
G14  20218849.98107    -10546.82107      -462.86807        45.60007  20218864.07225      -574.66225      -345.80125        33.70025
G22  20717820.05207   1904623.09807       438.17207        43.10007                                                                
G07  22478167.78807   -220597.69607     -2526.69707        42.30007                                                                
G13  22170259.04906    199312.10606      1642.95906        40.30006                                                                
G21  21582667.63006    676794.18806     -2826.78606        38.20006  21582687.41625   4982853.77125     -2111.14525        35.40025
G05  22277943.90025    -72150.97625     -1178.97625        31.90025                                                                
G17  23593137.91024    254880.19524      1826.35324        28.90024                                                                
G09  23281589.39124   -391846.82224     -4232.32524        26.70024                                                                
G08  24385820.04823   1884600.06523     -3076.72523        18.10023                                                                
G30  21021169.54707   -131496.11007     -1647.20707        43.80007  21021181.23926    -90789.60326     -1231.84826        35.60026
C21  22397913.64707   -183645.23907     -2858.98807        43.60007  22397924.73925   -130671.51125     -2154.44925        33.50025
C26  22048467.46407       818.05607      -913.86807        42.20007  22048480.65425   4815904.78825      -688.93025        31.40025
E27  23515794.75407      7887.22207     -1046.35507        42.10007  23515806.44625     13584.55525      -783.29025        30.80025
R08  19277522.94907-103348003.81307     -2121.70807        41.50007
R11  19608407.18206-104898879.31206     -1127.18406        40.50006
E07  24352332.33106    270658.92806     -2294.18706        39.30006  24352354.21625   1689082.03425     -1711.04425        34.80025
E29  23772221.33406    115446.05006        37.09506        38.80006  23772237.22325  -1996169.18925        24.95325        29.80025
C10  38589087.03106    423460.86306      -251.28806        38.80006                                                                
E30  25678015.18006   -216594.63806     -3384.61206        37.60006  25678032.56806   5937286.72306     -2527.53706        35.70006
R12  22781820.37405-121813850.06705      1828.59005        34.60005
C24  24461514.64625    189075.46925       971.37425        33.60025  24461539.82825   1732369.16625       731.42825        30.00025
C07  38657080.86025     64180.62125      -460.35825        34.10025                                                                
R01  20638641.86615-110442906.29615      1862.30415        33.10015
C14  24381766.85415    260890.24915      1410.17915        33.30015                                                                
E21  25629281.21805   1519186.74005      1313.37105        32.90005  25629314.79524   5432707.78924       977.21324        26.80024
E19  26253802.87024    315038.43624      1260.29924        29.40024                                                                
C09  39222938.22524    -12194.74924     -1215.54624        28.30024                                                                
R07  22325654.07124-119628676.75124     -5063.42624        28.10024
R10  21123283.05523-112716192.09723     -4145.03823        23.10023
> 2025 09 29 13 23 22.9999998  0 29                      
G14  20218686.59507    -11013.16607      -468.18607        45.80007  20218703.68325      -919.88925      -345.19125        33.50025
G30  21021234.00307   -133147.07407     -1652.75807        43.80007  21021247.79325    -92021.91825     -1232.67825        35.40025
G22  20717488.48107   1905058.93007       434.32607        43.00007                                                                
G07  22478400.12707   -223127.58807     -2531.45007        42.30007                                                                
G13  22169687.94406    200951.71006      1638.00006        40.10006                                                                
G21  21582976.11726    673965.95326     -2829.06026        38.10026  21582978.51525   4980740.01925     -2115.25425        34.90025
G17  23592525.43524    256697.80024      1813.76524        28.80024                                                                
G09  23282116.42624   -396084.91024     -4240.21324        26.60024                                                                
G08  24386163.61023   1881519.28423     -3083.95323        18.10023                                                                
G05  22277913.92125    -73331.51325     -1182.34925        31.90025                                                                
C21  22398211.64117   -186507.63517     -2864.30817        43.50017  22398221.23425   -132828.51025     -2158.92325        32.50025
E30  25678424.39706   -219982.64906     -3389.67806        39.40006  25678427.69406   5934756.67606     -2531.29706        35.50006
C26  22048391.61607       -99.10007      -918.83207        42.50007  22048407.80525   4815213.68225      -692.26025        30.70025
E27  23515742.59007      6837.30507     -1051.73807        42.30007  23515755.48125     12802.07625      -782.49925        30.60025
R08  19277665.95007-103350106.28507     -2127.15107        41.70007
R11  19608374.20506-104900037.67806     -1132.22806        40.70006
E07  24352520.00106    268361.88806     -2298.55806        39.50006  24352542.18625   1687364.37325     -1720.77825        34.70025
E29  23771970.70706    115480.05906        32.45006        39.20006  23771980.90025  -1996143.65225        24.55725        30.20025
C10  38588884.37106    423207.21606      -255.20406        38.80006                                                                
C14  24381252.71005    262298.16505      1406.60605        34.50005                                                                
C07  38656928.86515     63717.76815      -464.24115        34.10015                                                                
R12  22781232.78125-121812046.26325      1820.64325        34.60025
C24  24461082.04515    190043.48515       966.27515        34.00015  24461097.03525   1733098.55525       727.82925        29.90025
E21  25628798.85225   1520497.67925      1309.51125        32.90025  25628813.54224   5433685.32624       976.96624        26.60024
R01  20638046.17825-110441056.86425      1857.78225        33.10025
E19  26253318.10624    316295.17424      1255.57224        29.30024                                                                
C09  39222927.13324    -13413.55924     -1221.09524        28.30024                                                                
R07  22326358.58424-119633784.77124     -5091.15724        27.90024
R10  21123836.47223-112720473.97023     -4148.13323        23.40023
